站名,緯度,經度,平均溫距平,本年度平均溫,平均溼度距平,本年度日均相對溼度,本年度日均降水量,日均降水量距平,站號
淡水,25.164889,121.448906,-0.14,28.73,-0.94,74.71,3.0,-4.39,466900
鞍部,25.182586,121.529731,-0.03,23.09,0.05,87.52,6.14,-7.28,466910
臺北,25.037658,121.514853,-0.11,29.61,1.1,73.06,5.55,-5.98,466920
竹子湖,25.162078,121.544547,0.12,24.83,-0.9,83.19,5.4,-8.1,466930
基隆,25.133314,121.740475,0.26,29.38,-0.77,72.81,3.05,-4.31,466940
花蓮,23.975128,121.613275,0.2,28.74,-4.76,72.61,12.1,3.72,466990
宜蘭,24.763975,121.756528,0.34,29.05,-3.61,74.68,7.56,-1.06,467080
金門,24.407306,118.289281,-0.21,28.3,3.66,85.9,6.39,2.02,467110
澎湖,23.565503,119.563094,0.43,29.06,-3.91,80.45,5.08,-3.61,467350
臺南,22.993239,120.204772,0.51,29.51,-6.28,72.0,5.74,-10.85,467410
永康,23.038386,120.2367,0.74,29.28,-5.31,71.61,7.48,-8.95,467420
嘉義,23.495925,120.432906,0.52,29.05,-3.78,75.71,4.34,-10.84,467480
臺中,24.145736,120.684075,0.55,29.05,-4.65,72.48,8.27,-3.73,467490
阿里山,23.508208,120.813242,-0.31,14.36,-4.93,87.65,20.9,-5.57,467530
大武,22.355675,120.903789,0.03,28.3,-2.21,76.42,16.94,1.24,467540
玉山,23.487614,120.959522,-0.49,7.35,-5.12,75.42,15.66,-1.9,467550
新竹,24.827853,121.014219,0.15,29.26,-0.3,74.74,2.09,-4.63,467571
恆春,22.003897,120.746339,-0.23,28.19,-0.72,81.19,37.25,18.53,467590
成功,23.097486,121.373428,0.28,28.25,-0.6,79.16,11.61,0.77,467610
日月潭,23.881325,120.90805,0.1,22.86,-1.27,84.26,8.03,-5.79,467650
臺東,22.752211,121.154586,0.09,28.96,-1.38,75.61,12.16,1.3,467660
馬祖,26.169269,119.923419,0.02,27.81,-1.26,84.94,2.47,-1.42,467990
山佳,24.974944,121.402008,-0.02,29.04,1.38,77.52,5.98,-3.23,C0A520
坪林,24.938183,121.70975,-0.67,25.49,-1.04,87.42,10.84,-2.83,C0A530
泰平,24.971197,121.823711,-0.51,24.62,-0.18,91.0,11.84,-0.9,C0A550
桶後,24.848222,121.597992,-0.24,25.39,0.43,88.55,13.63,-0.94,C0A570
石碇,24.993969,121.662917,0.04,26.61,1.04,87.68,9.71,-3.65,C0A640
大坪,25.165914,121.632969,0.51,26.96,-7.86,79.16,2.77,-5.03,C0A860
五指山,25.132153,121.608692,-0.17,23.89,5.56,98.39,5.48,-3.17,C0A870
雙溪,25.036003,121.864242,-0.32,27.55,0.75,85.0,5.34,-3.26,C0A890
金山,25.223628,121.643967,-0.07,28.47,-1.56,78.07,1.26,-4.24,C0A940
鼻頭角,25.129036,121.923372,0.33,28.61,-1.72,84.35,3.32,-0.14,C0A950
社子,25.109508,121.469681,0.6,30.28,-2.62,71.48,3.05,-4.38,C0A980
天母,25.117494,121.537169,0.56,29.91,-4.47,69.16,4.69,-5.96,C0A9C0
內湖,25.079422,121.57545,0.09,29.84,0.14,74.0,8.85,-1.58,C0A9F0
大屯山,25.175675,121.522408,0.62,22.33,-1.35,94.35,4.84,-5.3,C0AC40
三峽,24.939025,121.369728,-0.05,29.12,-0.71,76.19,6.48,-4.2,C0AC60
信義,25.037822,121.564597,-0.09,29.3,0.23,75.39,8.47,-1.66,C0AC70
文山,25.00235,121.575728,0.11,28.84,0.23,80.19,8.5,-2.87,C0AC80
新莊,25.051478,121.446756,0.32,30.41,-0.5,69.58,5.44,-3.58,C0ACA0
八里,25.150211,121.403947,0.11,29.76,2.85,76.19,3.26,-2.9,C0AD10
蘆洲,25.086594,121.472331,-0.19,30.1,-0.12,72.16,3.16,-5.28,C0AD30
土城,24.973208,121.445169,-0.16,28.55,1.71,79.19,7.89,-2.84,C0AD40
鶯歌,24.951533,121.346294,0.07,29.16,-4.22,74.16,4.61,-4.25,C0AD50
復興,24.820208,121.352281,-0.27,25.08,-4.07,79.23,13.73,-1.01,C0C460
桃園,24.992425,121.323172,-0.34,29.16,-1.39,68.23,5.35,-2.42,C0C480
觀音,25.027072,121.153317,-0.33,28.19,0.8,78.52,2.23,-4.05,C0C590
平鎮,24.897503,121.214636,0.01,27.69,-1.38,75.84,5.37,-2.34,C0C650
梅花,24.678347,121.208558,0.15,25.06,-3.35,82.87,8.61,-6.92,C0D360
打鐵坑,24.849664,121.150789,-0.33,26.43,-7.37,77.06,2.94,-6.41,C0D480
橫山,24.71116,121.11693,-0.17,26.63,5.04,90.03,6.69,-5.07,C0D540
雪霸,24.526972,121.11605,0.31,18.33,-4.05,84.45,4.73,-7.04,C0D550
竹東,24.767147,121.057881,0.3,28.38,-5.36,68.1,3.5,-5.03,C0D560
寶山,24.735006,121.025192,-0.24,26.73,-5.37,79.0,3.19,-6.28,C0D580
新豐,24.87068,120.97721,-0.11,28.01,-4.9,75.23,0.9,-5.34,C0D590
竹南,24.708978,120.888897,0.18,28.8,-5.19,71.74,0.84,-5.38,C0E420
南庄,24.601775,121.000214,-0.2,26.01,-2.54,82.81,6.16,-8.56,C0E430
馬都安,24.451272,120.930192,0.04,23.42,-2.18,85.45,4.16,-9.95,C0E610
頭份,24.688247,120.912206,-0.16,29.03,-5.07,68.23,1.08,-5.86,C0E730
桃園農改場,24.950944,121.030583,0.0,28.45,1.01,83.06,1.0,-3.95,72C440
桃改五峰分場,24.612194,121.157167,-0.16,21.86,1.13,91.66,6.52,-9.66,72D080
臺中農改場,24.003028,120.534389,0.29,28.82,0.07,83.61,2.05,-6.48,72G600
南改斗南分場,23.634556,120.477333,0.76,28.92,-6.43,77.06,6.34,-7.38,72K220
南改義竹分場,23.360694,120.279361,0.43,28.87,-2.78,82.77,4.29,-7.98,72M360
高雄農改場,22.709333,120.525889,0.8,28.91,-4.0,81.1,14.15,-4.5,72Q010
東改班鳩分場,22.829528,121.077694,-0.04,26.71,2.51,84.9,17.85,6.17,72S200
東改賓朗果園,22.813889,121.071278,-0.41,25.84,4.69,92.93,16.93,5.36,72S590
花蓮農改場,23.975222,121.563889,-0.1,27.65,-0.13,80.77,14.4,5.45,72T250
花改蘭陽分場,24.686306,121.716583,0.02,28.27,0.17,81.19,5.15,-2.64,72U480
高改旗南分場,22.857861,120.516667,0.5,28.95,-6.33,72.67,12.9,-3.73,72V140
茶改北部分場,24.955778,121.631222,-1.46,24.53,6.9,90.55,11.84,-1.0,82A750
茶改場,24.908472,121.185333,-0.43,27.36,3.0,85.55,4.4,-3.56,82C160
茶改中部分場,23.875611,120.913583,-0.2,23.55,-0.26,88.39,7.52,-4.68,82H320
茶改南部分場,23.762528,120.7405,-0.25,25.74,1.46,92.32,7.0,-6.82,82H840
茶改東部分場,22.907694,121.130139,-0.44,26.97,1.38,84.52,15.92,4.89,82S580
農工中心,24.985917,121.239833,0.09,28.92,-2.02,70.23,3.41,-3.93,A2C560
畜產試驗所,23.058972,120.336406,0.83,28.59,-5.14,81.77,8.33,-9.44,B2N890
畜試南區分所,21.945583,120.802167,0.1,28.26,1.38,85.74,0.38,-15.15,B2Q810
蓮華池,23.918333,120.885278,0.87,26.23,-6.99,76.0,6.73,-8.1,E2H360
農試所(霧峰),24.031261,120.688133,0.28,28.56,-2.18,81.29,7.63,-3.4,G2F820
農試嘉義分所,23.485028,120.473806,0.7,28.23,-10.16,73.07,7.32,-13.28,G2L020
農試鳳山分所,22.646611,120.356083,0.41,28.9,-4.4,76.71,12.55,-6.39,G2P820
種苗改良場,24.225972,120.800917,1.13,26.91,-2.68,79.4,8.06,-7.67,K2F750
溪頭,23.670306,120.798194,-0.04,20.62,-1.49,90.97,7.52,-6.76,U2H480
板橋,24.997647,121.442017,0.01,29.31,-2.43,70.06,6.16,-4.79,466880
蘇澳,24.596736,121.857372,0.22,28.77,-4.47,73.23,7.95,-0.99,467060
梧棲,24.256003,120.523381,0.46,29.3,-2.24,75.58,2.42,-6.61,467770
四堵,24.8926,121.745736,-0.2,25.15,-0.04,89.68,18.34,2.88,C0A540
福山,24.776203,121.502811,-0.72,24.81,0.2,89.77,13.61,-2.88,C0A560
屈尺,24.922422,121.546333,-1.68,26.34,1.39,80.42,11.4,-2.45,C0A580
火燒寮,25.002719,121.742892,-0.27,25.41,0.41,88.97,10.58,-2.03,C0A650
瑞芳,25.113169,121.801147,0.43,28.43,-2.09,83.13,4.74,-3.84,C0A660
五股,25.083353,121.434975,0.23,29.37,-0.47,77.26,3.24,-6.93,C0A680
林口,25.076364,121.378217,0.03,27.99,-2.24,81.06,4.84,-4.47,C0A710
福隆,25.017842,121.942083,0.59,28.59,-2.72,82.32,3.08,-3.99,C0A880
富貴角,25.263783,121.565258,0.07,27.71,-0.89,83.58,2.1,-4.49,C0A920
三和,25.23489,121.59407,-0.94,25.61,-6.01,81.84,1.84,-6.59,C0A930
大崙尾山,25.106275,121.573586,0.45,26.16,2.59,91.03,6.4,-3.24,C0A990
大直,25.078047,121.542853,0.1,29.54,1.4,74.55,6.4,-3.75,C0A9A0
石牌,25.116342,121.513817,0.51,30.38,-3.59,68.06,4.76,-4.25,C0A9B0
永和,25.008944,121.50475,-0.27,29.21,0.74,73.74,7.44,-3.92,C0A9D0
士林,25.090253,121.503019,0.05,29.82,2.75,73.97,4.74,-4.37,C0A9E0
南港,25.055431,121.602906,-0.24,29.18,-0.41,74.0,8.37,-2.74,C0A9G0
三重,25.056667,121.488492,-0.44,29.9,-1.88,70.81,5.0,-5.08,C0A9I1
三芝,25.258131,121.501917,-0.33,28.89,-6.83,69.87,2.89,-3.04,C0AD00
深坑,25.001381,121.617556,0.06,28.36,-0.04,85.19,7.19,-5.73,C0AD20
新屋,24.971294,121.106831,0.07,28.99,-1.6,70.19,3.32,-1.47,C0C450
中壢,24.967564,121.185253,-0.39,28.14,-3.02,72.55,4.37,-1.93,C0C520
大園,25.04775,121.225958,-0.09,29.26,-0.6,72.94,1.45,-4.78,C0C540
新屋,25.00756,121.04755,0.04,28.62,0.49,77.55,1.29,-4.88,C0C570
龍潭,24.856764,121.216486,-0.29,26.94,0.45,80.32,5.11,-7.21,C0C610
龜山,25.030306,121.375719,-0.06,28.41,-0.67,73.29,5.21,-3.05,C0C640
關西,24.7982,121.1739,-0.02,27.45,-6.21,76.13,3.79,-7.78,C0D390
香山,24.746892,120.905456,0.38,28.99,-6.33,75.39,1.39,-5.15,C0D570
大河,24.617281,120.94685,-0.15,27.16,4.51,89.58,1.89,-9.49,C0E440
臺大溪頭,23.670306,120.798194,-0.04,20.62,-1.49,90.97,7.52,-6.76,U2H480
種苗繁殖,24.225972,120.800917,1.13,26.91,-2.68,79.4,8.06,-7.67,K2F750
農試鳳山分所,22.646611,120.356083,0.41,28.9,-4.4,76.71,12.55,-6.39,G2P820
農試嘉義分所,23.485028,120.473806,0.7,28.23,-10.16,73.07,7.32,-13.28,G2L020
農業試驗所,24.031261,120.688133,0.28,28.56,-2.18,81.29,7.63,-3.4,G2F820
蓮華池,23.918333,120.885278,0.87,26.23,-6.99,76.0,6.73,-8.1,E2H360
畜試南區分所,21.945583,120.802167,0.1,28.26,1.38,85.74,0.38,-15.15,B2Q810
畜試所,23.058972,120.336406,0.83,28.59,-5.14,81.77,8.33,-9.44,B2N890
農工中心,24.985917,121.239833,0.09,28.92,-2.02,70.23,3.41,-3.93,A2C560
茶改東部分場,22.907694,121.130139,-0.44,26.97,1.38,84.52,15.92,4.89,82S580
茶改南部分場,23.762528,120.7405,-0.25,25.74,1.46,92.32,7.0,-6.82,82H840
茶改中部分場,23.875611,120.913583,-0.2,23.55,-0.26,88.39,7.52,-4.68,82H320
茶改場,24.908472,121.185333,-0.43,27.36,3.0,85.55,4.4,-3.56,82C160
茶改北部分場,24.955778,121.631222,-1.46,24.53,6.9,90.55,11.84,-1.0,82A750
高改旗南分場,22.857861,120.516667,0.5,28.95,-6.33,72.67,12.9,-3.73,72V140
花改蘭陽分場,24.686306,121.716583,0.02,28.27,0.17,81.19,5.15,-2.64,72U480
花蓮農改,23.975222,121.563889,-0.1,27.65,-0.13,80.77,14.4,5.45,72T250
東改賓朗果園,22.813889,121.071278,-0.41,25.84,4.69,92.93,16.93,5.36,72S590
東改班鳩分場,22.829528,121.077694,-0.04,26.71,2.51,84.9,17.85,6.17,72S200
高雄農改,22.709333,120.525889,0.8,28.91,-4.0,81.1,14.15,-4.5,72Q010
南改義竹分場,23.360694,120.279361,0.43,28.87,-2.78,82.77,4.29,-7.98,72M360
南改斗南分場,23.634556,120.477333,0.76,28.92,-6.43,77.06,6.34,-7.38,72K220
臺中農改,24.003028,120.534389,0.29,28.82,0.07,83.61,2.05,-6.48,72G600
桃改五峰分場,24.612194,121.157167,-0.16,21.86,1.13,91.66,6.52,-9.66,72D080
桃園農改,24.950944,121.030583,0.0,28.45,1.01,83.06,1.0,-3.95,72C440
