站名,緯度,經度,平均溫距平,本年度平均溫,平均溼度距平,本年度日均相對溼度,本年度日均降水量,日均降水量距平,站號
淡水,25.164889,121.448906,0.84,22.35,2.49,81.43,8.75,3.3,466900
鞍部,25.182586,121.529731,0.76,17.26,0.88,88.77,13.64,5.71,466910
臺北,25.037658,121.514853,0.7,23.1,0.95,75.9,9.97,4.67,466920
竹子湖,25.162078,121.544547,0.9,18.96,0.32,84.63,11.38,5.4,466930
基隆,25.133314,121.740475,0.97,22.57,0.98,77.43,14.44,7.54,466940
花蓮,23.975128,121.613275,0.08,22.81,-1.57,76.7,3.52,0.76,466990
宜蘭,24.763975,121.756528,0.29,22.21,-2.06,77.3,3.85,-0.18,467080
金門,24.407306,118.289281,0.8,20.05,7.25,86.07,4.85,1.17,467110
澎湖,23.565503,119.563094,1.09,24.38,0.33,80.13,2.87,0.05,467350
臺南,22.993239,120.204772,1.14,26.11,0.36,73.6,4.88,2.76,467410
永康,23.038386,120.2367,1.38,26.03,0.97,72.13,7.09,4.69,467420
嘉義,23.495925,120.432906,1.21,24.82,1.14,79.83,4.09,1.28,467480
臺中,24.145736,120.684075,1.01,24.61,1.05,75.33,7.82,3.37,467490
阿里山,23.508208,120.813242,-0.23,11.34,6.07,90.77,15.61,8.29,467530
大武,22.355675,120.903789,0.13,24.85,2.88,76.93,4.2,1.94,467540
玉山,23.487614,120.959522,-0.8,2.84,11.32,91.9,12.17,5.47,467550
新竹,24.827853,121.014219,1.26,23.26,0.88,78.37,11.95,6.17,467571
恆春,22.003897,120.746339,0.35,25.85,5.29,77.67,1.37,0.41,467590
成功,23.097486,121.373428,0.34,23.49,2.78,81.8,2.61,-0.15,467610
日月潭,23.881325,120.90805,0.35,19.44,-1.12,81.27,9.93,4.02,467650
臺東,22.752211,121.154586,0.17,24.3,1.58,76.6,2.3,0.25,467660
馬祖,26.169269,119.923419,0.96,17.83,3.5,86.43,6.77,2.83,467990
山佳,24.974944,121.402008,1.0,23.03,3.78,82.5,8.65,3.78,C0A520
坪林,24.938183,121.70975,0.24,19.63,0.6,90.23,7.52,2.65,C0A530
泰平,24.971197,121.823711,1.54,19.88,2.67,96.03,7.48,0.3,C0A550
桶後,24.848222,121.597992,0.55,19.5,2.01,93.13,9.67,3.83,C0A570
石碇,24.993969,121.662917,0.89,20.52,2.58,90.27,11.68,5.66,C0A640
大坪,25.165914,121.632969,1.62,20.75,-2.05,86.8,14.18,3.53,C0A860
五指山,25.132153,121.608692,1.56,18.71,-0.46,91.27,12.23,5.79,C0A870
雙溪,25.036003,121.864242,0.39,20.89,0.33,88.9,6.98,1.03,C0A890
金山,25.223628,121.643967,1.02,21.87,4.03,87.8,14.48,7.32,C0A940
鼻頭角,25.129036,121.923372,1.02,22.17,4.97,89.13,7.48,4.33,C0A950
社子,25.109508,121.469681,1.0,23.14,4.93,83.0,11.2,6.34,C0A980
天母,25.117494,121.537169,1.36,23.55,0.82,75.83,11.65,6.91,C0A9C0
內湖,25.079422,121.57545,0.78,23.09,3.11,79.79,10.82,6.13,C0A9F0
大屯山,25.175675,121.522408,1.55,16.47,1.97,94.0,10.23,4.02,C0AC40
三峽,24.939025,121.369728,0.58,22.49,2.0,81.37,10.53,5.64,C0AC60
信義,25.037822,121.564597,0.75,22.62,3.65,82.23,9.77,5.44,C0AC70
文山,25.00235,121.575728,1.02,22.46,2.82,84.57,13.02,8.02,C0AC80
新莊,25.051478,121.446756,1.23,23.62,2.13,76.3,12.58,7.95,C0ACA0
八里,25.150211,121.403947,1.39,23.33,0.4,78.7,8.3,3.89,C0AD10
蘆洲,25.086594,121.472331,0.78,23.35,3.12,78.17,13.37,8.85,C0AD30
土城,24.973208,121.445169,0.94,22.54,2.7,82.5,10.47,5.76,C0AD40
鶯歌,24.951533,121.346294,1.06,22.76,-2.96,79.03,7.6,3.23,C0AD50
汐止,25.066881,121.658778,1.09,22.72,-3.8,79.3,11.75,6.25,C0AH00
復興,24.820208,121.352281,0.92,20.02,4.26,88.77,14.52,7.28,C0C460
桃園,24.992425,121.323172,0.81,22.6,2.07,75.43,9.81,4.89,C0C480
八德,24.928708,121.283289,0.78,22.45,-0.11,79.23,7.82,2.82,C0C490
觀音,25.027072,121.153317,1.1,22.1,-2.0,78.03,12.58,7.34,C0C590
蘆竹,25.084275,121.265767,0.53,22.58,-0.53,80.0,10.97,6.29,C0C620
平鎮,24.897503,121.214636,1.13,21.56,0.55,80.23,8.52,3.47,C0C650
梅花,24.678347,121.208558,0.85,19.83,2.25,89.87,10.13,3.04,C0D360
峨眉,24.6905,121.017189,0.56,21.83,1.88,88.8,9.35,4.05,C0D430
打鐵坑,24.849664,121.150789,-0.17,19.72,3.46,88.77,10.07,4.89,C0D480
橫山,24.71116,121.11693,0.99,21.35,-1.1,84.43,9.47,3.47,C0D540
雪霸,24.526972,121.11605,0.52,14.31,3.78,86.53,12.33,5.1,C0D550
竹東,24.767147,121.057881,1.3,22.27,-1.29,74.7,8.41,3.38,C0D560
寶山,24.735006,121.025192,0.87,21.34,-3.56,81.13,8.98,3.71,C0D580
新豐,24.87068,120.97721,1.17,21.9,-2.9,78.53,9.7,5.16,C0D590
竹南,24.708978,120.888897,1.16,22.94,-3.31,76.13,8.18,3.17,C0E420
南庄,24.601775,121.000214,1.17,21.57,-1.24,83.67,12.45,5.0,C0E430
明德,24.583486,120.885411,1.13,22.77,0.89,85.03,11.15,6.18,C0E550
通霄,24.471892,120.704622,1.1,23.28,2.94,86.13,8.42,4.21,C0E590
馬都安,24.451272,120.930192,0.82,19.72,5.91,90.63,9.54,2.63,C0E610
頭份,24.688247,120.912206,1.29,23.33,0.08,75.93,8.17,3.63,C0E730
造橋,24.637056,120.864778,1.0,23.21,3.1,87.7,9.3,4.24,C0E740
苗栗,24.564569,120.824575,1.3,24.0,2.39,79.39,10.13,4.95,C0E750
銅鑼,24.489681,120.790853,0.94,23.04,1.13,83.0,8.3,3.51,C0E780
西湖,24.562947,120.7485,1.85,23.6,0.93,87.13,9.67,4.84,C0E810
獅潭,24.539133,120.920042,0.74,22.07,-7.31,79.07,11.88,5.67,C0E820
東勢,24.246428,120.833047,1.02,22.85,3.43,83.36,8.13,3.86,C0F850
大坑,24.173142,120.722289,0.98,24.52,3.7,79.4,7.88,4.23,C0F970
神岡,24.272481,120.658314,1.34,23.78,3.21,86.73,7.82,4.43,C0F9I0
大安,24.345061,120.588025,1.27,24.07,-1.88,81.43,6.52,3.43,C0F9K0
后里,24.310436,120.729725,1.26,23.55,0.22,82.2,6.65,3.02,C0F9L0
豐原,24.254322,120.720692,1.49,24.2,6.1,85.53,8.5,4.31,C0F9M0
大里,24.092464,120.701378,0.81,25.26,2.34,75.8,6.78,2.91,C0F9N0
潭子,24.213106,120.703933,1.42,25.03,0.44,77.7,8.68,4.62,C0F9O0
清水,24.312297,120.562242,1.53,24.7,2.22,84.07,6.15,3.39,C0F9P0
外埔,24.347817,120.705686,1.33,23.67,-0.76,83.33,7.05,3.46,C0F9Q0
龍井,24.184536,120.528972,1.62,25.02,5.98,90.4,8.82,5.31,C0F9R0
烏日,24.107058,120.624103,0.8,24.55,3.14,78.07,7.03,3.56,C0F9S0
西屯,24.179494,120.641275,1.34,24.8,0.63,77.13,8.22,4.47,C0F9T0
南屯,24.137006,120.637969,0.8,24.98,2.59,76.4,7.98,4.34,C0F9U0
新社,24.200172,120.815806,1.31,22.49,-0.14,84.1,9.35,4.54,C0F9V0
芬園,24.015678,120.6213,0.54,23.69,5.49,86.1,7.55,4.05,C0G620
員林,23.946503,120.585597,1.04,24.79,1.93,82.63,6.88,3.36,C0G650
溪湖,23.94835,120.479122,1.11,24.64,6.03,89.73,6.68,3.51,C0G660
福興,24.041289,120.437669,1.31,25.23,-1.57,78.33,8.7,5.51,C0G770
秀水,24.03405,120.503869,1.25,24.97,-1.92,79.57,6.75,3.58,C0G780
埔鹽,24.000394,120.431683,1.58,24.77,0.23,84.13,8.1,4.81,C0G800
埔心,23.947633,120.525456,1.4,25.27,8.14,90.3,6.9,3.56,C0G810
田尾,23.901669,120.509389,1.03,24.73,0.24,83.67,7.13,3.53,C0G820
埤頭,23.866003,120.452806,1.4,24.59,-0.22,87.53,8.0,4.55,C0G830
社頭,23.897647,120.5862,0.67,24.98,7.94,84.0,6.33,2.79,C0G860
二水,23.810742,120.6173,0.81,24.7,3.3,85.4,6.68,3.37,C0G880
伸港,24.148933,120.484403,1.31,24.7,-1.92,79.8,9.85,6.52,C0G890
草屯,23.973672,120.68085,0.84,24.54,1.16,77.9,6.43,3.29,C0H960
合歡山,24.143442,121.272547,-0.49,4.75,13.1,97.44,11.68,0.09,C0H9C0
竹山,23.761225,120.688156,1.87,24.81,-2.32,81.67,8.88,5.1,C0I110
大禹嶺,24.186117,121.316086,0.8,10.59,9.36,85.23,13.93,7.06,C0T790
桃園農改場,24.950944,121.030583,1.14,22.39,0.56,82.0,6.09,1.64,72C440
桃改五峰分場,24.612194,121.157167,0.9,17.88,1.85,90.77,8.92,1.98,72D080
臺中農改場,24.003028,120.534389,1.56,24.61,-0.34,81.15,8.17,4.9,72G600
南改斗南分場,23.634556,120.477333,1.71,25.02,-2.68,79.8,6.82,3.94,72K220
南改義竹分場,23.360694,120.279361,1.36,24.89,4.6,87.93,2.63,0.77,72M360
臺南農改場,23.0605,120.342194,0.83,25.07,0.9,79.0,4.04,2.41,72N100
高雄農改場,22.709333,120.525889,0.93,26.46,2.87,78.53,3.18,1.35,72Q010
東改班鳩分場,22.829528,121.077694,0.13,21.91,14.19,97.5,2.78,0.36,72S200
東改賓朗果園,22.813889,121.071278,0.07,21.49,6.51,96.76,2.71,0.25,72S590
花蓮農改場,23.975222,121.563889,0.04,21.96,0.96,84.57,2.38,-0.36,72T250
花改蘭陽分場,24.686306,121.716583,0.15,21.62,2.72,86.43,2.63,-1.0,72U480
高改旗南分場,22.857861,120.516667,0.27,25.98,-1.35,71.86,3.47,1.7,72V140
茶改北部分場,24.955778,121.631222,-1.69,17.38,8.26,92.97,11.17,4.63,82A750
茶改場,24.908472,121.185333,0.68,21.31,1.98,85.6,7.9,2.26,82C160
茶改中部分場,23.875611,120.913583,0.57,20.58,3.28,89.93,10.97,5.42,82H320
茶改南部分場,23.762528,120.7405,0.5,22.17,11.26,96.63,6.45,2.77,82H840
茶改東部分場,22.907694,121.130139,-0.23,22.29,5.87,89.5,1.57,-0.51,82S580
農工中心,24.985917,121.239833,1.32,22.34,-1.07,74.5,8.3,3.16,A2C560
畜產試驗所,23.058972,120.336406,1.38,25.52,-1.88,78.6,4.77,2.27,B2N890
畜試南區分所,21.945583,120.802167,0.16,25.39,1.88,78.0,1.87,0.7,B2Q810
蓮華池,23.918333,120.885278,1.21,22.44,-0.27,82.72,10.03,4.64,E2H360
農試所(霧峰),24.031261,120.688133,0.97,24.33,2.08,83.57,4.72,1.4,G2F820
農試嘉義分所,23.485028,120.473806,1.56,24.75,-8.4,71.43,4.28,1.57,G2L020
農試鳳山分所,22.646611,120.356083,0.36,26.07,8.01,79.86,6.58,4.57,G2P820
種苗改良場,24.225972,120.800917,1.16,22.28,-3.13,79.77,8.52,3.56,K2F750
溪頭,23.670306,120.798194,0.78,17.62,-0.2,90.87,9.3,3.57,U2H480
板橋,24.997647,121.442017,0.72,22.93,-1.15,73.63,10.28,5.44,466880
蘇澳,24.596736,121.857372,0.43,22.26,-0.84,78.9,3.58,-2.21,467060
梧棲,24.256003,120.523381,1.44,24.11,1.49,78.7,7.68,3.98,467770
四堵,24.8926,121.745736,0.3,19.19,2.98,93.33,8.2,2.68,C0A540
福山,24.776203,121.502811,0.07,19.2,3.61,92.93,7.78,2.85,C0A560
屈尺,24.922422,121.546333,0.94,22.13,1.59,82.27,11.47,5.13,C0A580
火燒寮,25.002719,121.742892,0.83,19.57,0.28,91.07,8.62,2.09,C0A650
瑞芳,25.113169,121.801147,1.3,21.8,0.9,87.37,11.55,4.23,C0A660
五股,25.083353,121.434975,1.05,22.78,-0.23,81.5,11.32,5.86,C0A680
林口,25.076364,121.378217,1.33,21.82,5.35,91.6,10.55,4.98,C0A710
福隆,25.017842,121.942083,1.01,21.99,1.02,87.2,7.02,0.82,C0A880
富貴角,25.263783,121.565258,1.23,21.5,3.68,88.77,11.7,3.07,C0A920
三和,25.23489,121.59407,1.03,20.34,3.02,88.1,14.57,3.0,C0A930
大崙尾山,25.106275,121.573586,0.58,19.41,-0.9,88.73,10.12,5.3,C0A990
大直,25.078047,121.542853,0.87,22.93,3.98,80.5,10.5,6.04,C0A9A0
石牌,25.116342,121.513817,0.73,23.44,2.8,76.87,12.4,7.76,C0A9B0
永和,25.008944,121.50475,1.2,23.33,2.26,77.57,9.87,4.35,C0A9D0
士林,25.090253,121.503019,1.06,23.44,1.69,76.47,12.77,8.03,C0A9E0
南港,25.055431,121.602906,0.86,22.91,3.12,80.5,11.75,6.88,C0A9G0
三重,25.056667,121.488492,0.93,23.9,0.1,75.7,9.47,5.2,C0A9I1
三芝,25.258131,121.501917,1.43,22.69,0.03,80.13,10.25,4.19,C0AD00
深坑,25.001381,121.617556,0.86,21.97,3.05,89.1,12.1,6.25,C0AD20
中和,24.992647,121.490444,0.78,23.38,0.64,77.33,11.32,5.95,C0AG90
楊梅,24.920875,121.148272,0.0,21.7,0.0,83.4,9.13,3.81,C0C500
中壢,24.967564,121.185253,1.17,22.1,1.74,80.43,10.28,4.62,C0C520
大園,25.04775,121.225958,1.18,22.78,2.62,80.13,10.88,6.02,C0C540
龍潭,24.856764,121.216486,1.21,20.73,-2.54,77.23,10.62,3.6,C0C610
龜山,25.030306,121.375719,0.85,21.65,-2.85,75.07,10.73,4.85,C0C640
湖口,24.909136,121.043953,1.14,22.5,-1.45,83.2,9.03,2.13,C0D370
關西,24.7982,121.1739,0.71,21.47,2.86,85.03,11.28,5.39,C0D390
香山,24.746892,120.905456,1.48,23.01,-4.16,79.93,10.05,5.04,C0D570
大河,24.617281,120.94685,1.26,21.99,-0.17,85.67,12.17,6.39,C0E440
大湖,24.41494,120.87087,1.28,22.27,0.8,87.13,11.05,5.32,C0E520
三義,24.410933,120.765972,1.94,22.43,0.2,86.5,7.88,2.09,C0E530
後龍,24.606489,120.783933,0.95,23.08,-0.9,84.57,10.27,5.46,C0E540
苑裡,24.448539,120.658231,1.33,23.96,-0.48,84.23,8.13,0.0,C0E760
卓蘭,24.312764,120.824753,2.47,24.67,7.64,92.5,8.27,3.66,C0E790
大肚,24.15295,120.572117,1.36,23.26,3.06,89.15,8.98,5.38,C0F000
梨山,24.247522,121.243669,0.35,12.73,7.87,89.67,13.78,5.52,C0F861
雙崎,24.288581,120.904267,1.06,21.75,2.42,85.8,8.07,1.09,C0F900
石岡,24.280117,120.770267,1.02,23.28,1.06,83.6,8.57,4.16,C0F920
大甲,24.347667,120.640403,1.04,23.48,2.35,85.8,6.83,3.6,C0F930
橫山,24.219111,120.607306,1.81,23.24,4.12,87.28,8.25,4.77,C0F990
中竹林,24.103556,120.751061,0.37,22.08,0.69,83.4,7.42,3.38,C0F9A0
鹿港,24.0753,120.430481,2.11,25.0,2.07,85.3,8.78,5.58,C0G640
花壇,24.016069,120.552328,0.66,24.7,3.71,84.43,7.22,3.28,C0G790
北斗,23.877586,120.514222,0.99,24.64,1.22,86.5,7.07,3.56,C0G840
田中,23.856778,120.588261,1.16,25.65,-6.35,76.97,5.35,1.86,C0G850
芳苑,23.922303,120.320025,1.76,25.29,1.7,86.47,8.8,5.44,C0G870
中寮,23.884447,120.766406,0.81,23.53,2.79,87.43,7.02,3.18,C0H950
鳳凰,23.728081,120.787347,0.75,19.62,3.27,92.77,9.82,4.56,C0I090
草嶺,23.59555,120.693461,0.34,18.67,-2.15,88.23,8.0,3.86,C0K240
臺大溪頭,23.670306,120.798194,0.78,17.62,-0.2,90.87,9.3,3.57,U2H480
種苗繁殖,24.225972,120.800917,1.16,22.28,-3.13,79.77,8.52,3.56,K2F750
農試鳳山分所,22.646611,120.356083,0.36,26.07,8.01,79.86,6.58,4.57,G2P820
農試嘉義分所,23.485028,120.473806,1.56,24.75,-8.4,71.43,4.28,1.57,G2L020
農業試驗所,24.031261,120.688133,0.97,24.33,2.08,83.57,4.72,1.4,G2F820
蓮華池,23.918333,120.885278,1.21,22.44,-0.27,82.72,10.03,4.64,E2H360
畜試南區分所,21.945583,120.802167,0.16,25.39,1.88,78.0,1.87,0.7,B2Q810
畜試所,23.058972,120.336406,1.38,25.52,-1.88,78.6,4.77,2.27,B2N890
農工中心,24.985917,121.239833,1.32,22.34,-1.07,74.5,8.3,3.16,A2C560
茶改東部分場,22.907694,121.130139,-0.23,22.29,5.87,89.5,1.57,-0.51,82S580
茶改南部分場,23.762528,120.7405,0.5,22.17,11.26,96.63,6.45,2.77,82H840
茶改中部分場,23.875611,120.913583,0.57,20.58,3.28,89.93,10.97,5.42,82H320
茶改場,24.908472,121.185333,0.68,21.31,1.98,85.6,7.9,2.26,82C160
茶改北部分場,24.955778,121.631222,-1.69,17.38,8.26,92.97,11.17,4.63,82A750
高改旗南分場,22.857861,120.516667,0.27,25.98,-1.35,71.86,3.47,1.7,72V140
花改蘭陽分場,24.686306,121.716583,0.15,21.62,2.72,86.43,2.63,-1.0,72U480
花蓮農改,23.975222,121.563889,0.04,21.96,0.96,84.57,2.38,-0.36,72T250
東改賓朗果園,22.813889,121.071278,0.07,21.49,6.51,96.76,2.71,0.25,72S590
東改班鳩分場,22.829528,121.077694,0.13,21.91,14.19,97.5,2.78,0.36,72S200
高雄農改,22.709333,120.525889,0.93,26.46,2.87,78.53,3.18,1.35,72Q010
臺南農改,23.0605,120.342194,0.83,25.07,0.9,79.0,4.04,2.41,72N100
南改義竹分場,23.360694,120.279361,1.36,24.89,4.6,87.93,2.63,0.77,72M360
南改斗南分場,23.634556,120.477333,1.71,25.02,-2.68,79.8,6.82,3.94,72K220
臺中農改,24.003028,120.534389,1.56,24.61,-0.34,81.15,8.17,4.9,72G600
桃改五峰分場,24.612194,121.157167,0.9,17.88,1.85,90.77,8.92,1.98,72D080
桃園農改,24.950944,121.030583,1.14,22.39,0.56,82.0,6.09,1.64,72C440
