站名,緯度,經度,平均溫距平,本年度平均溫,平均溼度距平,本年度日均相對溼度,本年度日均降水量,日均降水量距平,站號
淡水,25.164889,121.448906,0.56,21.77,-3.32,75.83,5.21,1.14,466900
鞍部,25.182586,121.529731,0.7,16.28,0.06,92.03,17.39,-0.05,466910
臺北,25.037658,121.514853,0.56,22.62,-1.47,73.83,4.29,0.75,466920
竹子湖,25.162078,121.544547,0.59,17.85,-1.25,86.5,17.23,2.24,466930
基隆,25.133314,121.740475,0.51,22.11,1.66,78.73,10.79,-3.41,466940
花蓮,23.975128,121.613275,0.55,23.17,-0.38,75.33,6.61,0.95,466990
新屋,25.006744,121.047486,0.24,21.95,2.82,81.2,3.71,2.28,467050
宜蘭,24.763975,121.756528,0.67,21.88,-0.02,82.47,8.72,-2.44,467080
金門,24.407306,118.289281,0.26,20.78,7.34,77.73,4.24,2.52,467110
澎湖,23.565503,119.563094,0.95,23.73,-0.68,75.9,2.05,0.93,467350
臺南,22.993239,120.204772,0.65,24.33,-0.49,74.0,1.69,0.57,467410
永康,23.038386,120.2367,0.76,23.83,2.82,76.67,0.11,-0.79,467420
嘉義,23.495925,120.432906,1.16,23.42,-0.46,78.07,1.6,0.67,467480
臺中,24.145736,120.684075,0.68,23.43,2.65,75.0,2.56,1.5,467490
阿里山,23.508208,120.813242,0.79,11.76,-3.24,79.47,3.92,1.09,467530
大武,22.355675,120.903789,0.16,24.49,0.22,71.63,3.57,0.02,467540
玉山,23.487614,120.959522,0.37,4.51,7.54,74.2,6.01,2.05,467550
新竹,24.827853,121.014219,0.61,22.32,2.93,78.27,4.24,2.02,467571
恆春,22.003897,120.746339,0.72,25.58,-0.71,69.87,2.22,-0.25,467590
成功,23.097486,121.373428,0.13,23.17,1.32,76.67,8.56,2.99,467610
日月潭,23.881325,120.90805,0.16,18.88,2.15,81.97,2.43,0.81,467650
臺東,22.752211,121.154586,0.26,23.96,2.97,75.73,7.51,3.31,467660
馬祖,26.169269,119.923419,0.26,18.51,0.86,81.1,2.54,0.38,467990
山佳,24.974944,121.402008,0.44,22.14,-1.48,77.6,4.12,0.68,C0A520
坪林,24.938183,121.70975,0.5,19.35,-0.41,91.87,6.92,-0.25,C0A530
泰平,24.971197,121.823711,0.83,18.7,-1.01,94.4,25.12,1.78,C0A550
桶後,24.848222,121.597992,0.73,18.93,-0.69,93.3,9.43,-0.06,C0A570
石碇,24.993969,121.662917,0.35,19.86,-0.86,89.03,8.3,1.18,C0A640
大坪,25.165914,121.632969,0.65,19.02,1.16,93.97,31.55,0.98,C0A860
五指山,25.132153,121.608692,1.08,17.58,-1.92,93.3,18.15,3.25,C0A870
雙溪,25.036003,121.864242,0.56,20.53,-1.24,91.3,18.43,0.98,C0A890
三和,25.233153,121.595236,-0.06,19.93,-3.62,85.97,17.15,-0.58,C0A931
金山,25.223628,121.643967,0.17,20.99,-1.98,82.4,6.8,-2.15,C0A940
鼻頭角,25.129036,121.923372,0.6,22.0,-2.9,80.2,4.73,-0.88,C0A950
社子,25.109508,121.469681,1.15,23.21,2.17,78.7,3.37,1.06,C0A980
天母,25.117494,121.537169,0.34,22.41,1.71,76.1,3.13,0.53,C0A9C0
內湖,25.079422,121.57545,0.17,22.02,-3.21,75.73,3.47,0.09,C0A9F0
大屯山,25.175675,121.522408,0.56,14.88,-2.48,94.2,11.78,0.96,C0AC40
三峽,24.939025,121.369728,0.44,22.25,-1.75,77.9,4.22,0.41,C0AC60
信義,25.037822,121.564597,0.43,22.07,-3.96,76.8,3.9,0.66,C0AC70
文山,25.00235,121.575728,0.24,21.6,-2.24,81.27,4.95,1.07,C0AC80
新莊,25.051478,121.446756,0.48,22.9,-0.31,74.13,3.58,0.83,C0ACA0
八里,25.150211,121.403947,0.39,22.41,-1.47,75.23,4.27,1.3,C0AD10
蘆洲,25.086594,121.472331,0.63,23.32,-3.21,71.7,3.4,0.99,C0AD30
土城,24.973208,121.445169,0.13,21.73,-0.24,79.23,4.57,0.75,C0AD40
鶯歌,24.951533,121.346294,0.09,21.74,1.91,83.7,3.5,0.45,C0AD50
汐止,25.066881,121.658778,0.19,21.75,3.51,89.67,9.75,1.27,C0AH00
永和,25.01125,121.508111,-0.09,22.23,-3.54,75.23,3.57,1.6,C0AH10
五分山,25.07125,121.780794,0.44,17.24,-1.56,95.97,27.47,6.01,C0AH30
平等,25.129142,121.577086,0.27,19.51,-1.07,87.23,6.65,0.13,C0AH40
復興,24.820208,121.352281,0.21,19.42,0.94,80.07,3.85,0.07,C0C460
桃園,24.992425,121.323172,0.64,22.2,-0.12,75.13,4.07,1.55,C0C480
八德,24.928708,121.283289,0.14,21.55,-0.39,78.77,4.18,0.19,C0C490
觀音,25.027072,121.153317,0.43,21.24,3.35,83.17,5.3,1.41,C0C590
蘆竹,25.084275,121.265767,-0.16,21.44,1.58,81.67,5.22,1.6,C0C620
大溪,24.882853,121.265547,0.37,20.63,3.04,82.07,3.67,0.44,C0C630
平鎮,24.897503,121.214636,0.54,20.58,2.69,84.13,4.13,0.77,C0C650
楊梅,24.912375,121.143047,0.25,21.33,-0.1,78.3,5.0,3.01,C0C660
龍潭,24.870056,121.221389,0.17,20.44,1.71,82.43,4.63,2.44,C0C670
梅花,24.678347,121.208558,0.79,19.62,-0.12,81.3,3.77,1.3,C0D360
峨眉,24.6905,121.017189,0.12,21.1,0.9,85.0,4.08,1.2,C0D430
打鐵坑,24.849664,121.150789,0.47,20.32,2.52,88.6,4.33,1.21,C0D480
橫山,24.71116,121.11693,1.24,21.39,0.17,82.97,3.92,1.33,C0D540
雪霸,24.526972,121.11605,0.45,13.57,0.13,78.7,4.27,1.02,C0D550
竹東,24.767147,121.057881,-0.1,20.75,4.86,79.6,1.29,-1.12,C0D560
寶山,24.735006,121.025192,0.46,20.96,4.39,86.0,4.45,1.64,C0D580
新豐,24.87068,120.97721,0.59,21.11,2.04,83.37,3.98,1.17,C0D590
湖口,24.904794,121.043628,0.24,21.62,3.24,82.77,2.82,1.84,C0D650
新竹市東區,24.798681,120.986942,-0.0,21.86,1.98,76.9,3.88,2.88,C0D660
竹南,24.708978,120.888897,0.81,22.2,3.49,80.67,4.0,2.31,C0E420
南庄,24.601775,121.000214,0.95,20.59,5.77,90.2,3.87,1.65,C0E430
明德,24.583486,120.885411,0.75,22.13,2.26,83.73,3.28,1.03,C0E550
通霄,24.471892,120.704622,0.33,22.04,1.99,84.4,3.1,1.37,C0E590
馬都安,24.451272,120.930192,0.62,18.45,-0.24,83.37,3.48,1.63,C0E610
頭份,24.688247,120.912206,0.6,22.41,4.61,79.0,3.92,1.66,C0E730
造橋,24.637056,120.864778,0.38,22.22,0.8,82.27,4.23,1.69,C0E740
苗栗,24.564569,120.824575,0.24,22.32,1.02,77.23,3.58,1.43,C0E750
銅鑼,24.489681,120.790853,0.53,21.89,0.24,81.43,3.4,1.4,C0E780
西湖,24.562947,120.7485,0.2,21.45,1.35,84.9,3.12,1.36,C0E810
獅潭,24.539133,120.920042,0.44,20.57,0.8,86.83,3.47,1.64,C0E820
苑裡,24.439714,120.653053,0.26,22.55,-0.37,78.8,2.58,2.08,C0E830
大河,24.618069,120.948578,-0.03,21.25,2.64,85.13,3.68,2.58,C0E850
雪山圈谷,24.388594,121.236339,-0.16,4.23,6.97,76.83,6.47,2.47,C0F0A0
石岡,24.276061,120.777644,-0.04,21.17,1.24,83.47,2.9,2.14,C0F0B0
東勢,24.246428,120.833047,0.05,21.28,1.32,80.47,2.57,0.81,C0F850
大坑,24.173142,120.722289,0.28,23.24,2.0,76.6,2.62,1.12,C0F970
神岡,24.272481,120.658314,0.4,22.04,1.54,83.7,2.57,1.05,C0F9I0
大安,24.345061,120.588025,0.41,22.61,5.66,86.83,1.95,0.56,C0F9K0
后里,24.310436,120.729725,-0.29,21.26,1.12,82.17,2.85,1.26,C0F9L0
豐原,24.254322,120.720692,0.53,22.45,-0.36,76.97,3.08,1.5,C0F9M0
大里,24.092464,120.701378,0.0,23.88,1.72,73.6,2.45,0.99,C0F9N0
潭子,24.213106,120.703933,0.24,23.15,1.07,76.83,2.63,1.23,C0F9O0
清水,24.312297,120.562242,-0.01,22.39,6.16,87.57,1.93,0.74,C0F9P0
外埔,24.347817,120.705686,0.74,22.36,-0.72,81.83,0.84,-0.64,C0F9Q0
龍井,24.184536,120.528972,0.02,22.78,0.54,82.1,2.12,0.95,C0F9R0
烏日,24.107058,120.624103,0.2,23.35,1.61,75.27,2.22,0.89,C0F9S0
西屯,24.179494,120.641275,0.39,22.97,0.9,76.93,2.1,0.87,C0F9T0
南屯,24.137006,120.637969,0.28,23.9,1.17,74.0,2.23,1.04,C0F9U0
新社,24.200172,120.815806,-0.56,19.99,1.64,83.67,2.48,0.83,C0F9V0
大雅(中科園區),24.21528,120.62445,0.21,22.48,-1.43,78.07,2.0,1.54,C0F9X0
桃山,24.432739,121.303808,-0.44,6.48,2.63,75.33,4.85,1.3,C0F9Y0
雪山東峰,24.388792,121.268675,-0.46,7.26,3.41,75.57,5.08,1.74,C0F9Z0
芬園,24.015678,120.6213,0.08,22.4,-0.01,80.83,2.63,1.22,C0G620
員林,23.946503,120.585597,1.51,24.18,0.36,79.54,0.29,-0.55,C0G650
溪湖,23.94835,120.479122,0.05,22.84,4.64,85.77,1.65,0.31,C0G660
溪州,23.851589,120.499093,0.04,22.77,1.46,80.3,2.13,1.45,C0G720
二林,23.903325,120.376081,0.14,22.5,3.57,88.77,1.22,0.75,C0G730
大城,23.852487,120.320935,0.02,22.62,2.57,82.4,1.53,1.01,C0G740
福興,24.041289,120.437669,1.01,24.24,-0.22,78.87,1.67,0.55,C0G770
秀水,24.03405,120.503869,0.26,23.39,-2.6,77.53,1.7,0.51,C0G780
埔鹽,24.000394,120.431683,0.38,22.95,-0.04,82.67,1.53,0.41,C0G800
埔心,23.947633,120.525456,0.18,23.31,-1.75,77.07,1.55,0.32,C0G810
田尾,23.901669,120.509389,0.16,23.1,-3.43,80.87,2.02,0.72,C0G820
埤頭,23.866003,120.452806,0.22,22.86,1.72,88.53,1.78,0.69,C0G830
社頭,23.897647,120.5862,0.27,23.82,-0.87,74.53,2.57,1.16,C0G860
二水,23.810742,120.6173,0.79,23.71,2.16,81.97,2.67,1.19,C0G880
伸港,24.148933,120.484403,0.15,22.93,-2.1,77.73,2.1,1.0,C0G890
埔里,23.972169,120.952425,-0.33,21.67,2.19,82.2,2.12,1.11,C0H890
草屯,23.973672,120.68085,0.1,23.22,1.33,77.67,2.2,0.85,C0H960
昆陽,24.121322,121.273642,0.27,7.51,3.79,79.4,2.63,0.15,C0H990
神木村,23.532742,120.843667,0.56,15.64,2.91,87.17,4.03,1.69,C0H9A0
合歡山,24.143442,121.272547,0.44,6.03,2.18,80.53,4.95,0.65,C0H9C0
廬山,24.033311,121.181808,0.41,16.41,1.91,77.27,2.12,-0.02,C0I010
信義,23.689694,120.851036,-0.21,20.68,1.12,84.13,2.82,1.79,C0I080
竹山,23.761225,120.688156,0.59,22.66,0.88,82.8,2.28,0.89,C0I110
水里,23.812553,120.849792,-0.27,22.11,-1.62,79.17,2.05,1.27,C0I360
魚池,23.895703,120.94135,-0.35,20.39,2.31,86.81,2.3,1.23,C0I370
集集,23.828206,120.801467,-0.14,22.46,-0.87,80.97,2.35,1.55,C0I380
仁愛,24.022122,121.132206,-0.41,17.35,1.59,83.03,2.22,0.84,C0I390
名間,23.837053,120.701447,-0.09,22.39,-2.42,78.0,2.33,1.62,C0I410
國姓,24.037803,120.855072,-0.29,22.11,3.88,85.9,2.03,1.12,C0I420
南投,23.911469,120.687331,-0.12,23.26,2.39,78.23,2.57,1.77,C0I460
梅峰,24.085272,121.173572,-0.14,12.37,2.69,82.4,2.73,0.65,C0I480
萬大林道,23.928228,121.091411,-0.39,16.11,-0.37,80.3,2.42,0.91,C0I490
玉山風口,23.470489,120.955994,-0.06,3.97,4.49,71.7,9.83,0.0,C0I520
崙背,23.75555,120.318925,0.17,22.46,3.06,85.0,1.57,0.92,C0K250
四湖,23.630414,120.227125,0.88,23.14,2.21,82.43,1.9,0.74,C0K280
宜梧,23.536281,120.169329,0.53,23.07,0.87,82.3,2.05,0.71,C0K291
虎尾,23.719183,120.442036,0.59,23.09,6.83,85.87,1.9,0.83,C0K330
土庫,23.679029,120.395574,-0.05,22.72,2.07,81.5,1.62,1.1,C0K390
斗六,23.720583,120.541127,-0.03,22.94,-3.65,77.8,2.32,1.73,C0K400
北港,23.573957,120.292802,0.11,22.99,5.05,86.3,1.72,1.24,C0K410
西螺,23.800407,120.467394,0.02,22.74,9.04,91.6,1.98,1.28,C0K420
褒忠,23.690938,120.303634,0.24,22.7,3.6,85.8,1.68,1.11,C0K430
二崙,23.772797,120.408944,0.28,22.58,0.14,82.3,1.67,1.03,C0K440
大埤,23.646074,120.431537,0.07,22.81,0.38,81.47,1.65,1.19,C0K450
斗南,23.678734,120.478359,-0.03,22.8,2.78,82.23,1.83,1.33,C0K460
林內,23.748675,120.609642,0.13,22.62,1.39,83.2,2.25,1.61,C0K470
莿桐,23.761192,120.502372,0.07,22.45,2.11,82.07,2.02,1.34,C0K480
元長,23.64981,120.315024,0.11,22.83,1.94,81.7,1.87,1.28,C0K500
水林,23.572924,120.24597,0.1,22.86,3.66,83.97,1.72,1.24,C0K510
臺西,23.701547,120.197559,0.12,22.76,3.7,85.1,1.5,1.02,C0K530
蔦松,23.514319,120.229736,0.27,22.92,-0.62,81.8,1.53,1.02,C0K550
棋山,23.68645,120.603417,0.01,22.69,0.21,82.3,2.48,1.75,C0K560
東後寮,23.369908,120.248065,0.14,22.85,1.74,82.53,1.48,1.09,C0M520
奮起湖,23.493903,120.699253,0.5,16.62,0.52,89.7,2.77,1.07,C0M530
中埔,23.42538,120.5229,0.02,22.76,0.77,81.6,1.9,1.37,C0M640
朴子,23.43463,120.23902,0.14,23.0,1.96,82.3,1.87,1.43,C0M650
溪口,23.604131,120.403569,0.11,22.78,8.63,89.9,1.78,1.29,C0M660
大林,23.600616,120.45841,0.02,23.02,0.0,80.0,1.83,1.32,C0M670
太保,23.455062,120.331455,0.09,23.22,5.93,86.2,1.78,1.34,C0M680
水上,23.419734,120.388909,0.03,22.98,1.06,80.0,1.17,0.8,C0M690
竹崎,23.526178,120.555508,-0.05,22.64,6.84,89.63,1.8,1.27,C0M700
東石,23.458927,120.15385,0.13,22.98,3.55,84.3,1.65,1.18,C0M710
番路,23.464657,120.554156,-0.01,22.2,1.24,82.97,2.1,1.54,C0M720
嘉義市東區,23.457673,120.460531,-0.17,23.89,3.87,78.93,1.67,1.21,C0M730
六腳,23.492871,120.290625,0.16,23.06,0.96,80.63,1.95,1.48,C0M740
布袋,23.380878,120.167789,0.09,23.02,-0.48,83.07,1.57,1.16,C0M750
民雄,23.551754,120.428457,0.06,23.16,-0.64,79.93,1.75,1.27,C0M760
嘉義梅山,23.585398,120.555587,-0.07,22.57,1.58,82.77,1.97,1.41,C0M770
鹿草,23.41134,120.30835,0.11,23.23,1.03,79.37,1.42,1.01,C0M780
新港,23.553269,120.345728,0.15,23.2,2.9,82.23,1.95,1.45,C0M790
茶山,23.299075,120.664767,-0.16,21.79,1.21,84.37,2.25,1.59,C0M800
里佳,23.389125,120.716647,-0.08,16.98,-0.91,86.17,2.78,1.66,C0M810
達邦,23.453994,120.749517,-0.27,18.66,3.29,83.6,2.28,1.44,C0M820
北寮,23.079561,120.495008,-0.09,22.94,1.68,85.27,1.75,1.39,C0O830
王爺宮,23.222064,120.40085,0.22,22.87,0.36,84.5,1.7,1.33,C0O840
大內,23.11885,120.36083,0.32,23.89,-2.02,80.43,1.88,1.59,C0O860
善化,23.112883,120.297219,1.69,24.54,-3.03,78.87,1.92,1.14,C0O900
崎頂,22.959547,120.369317,-0.06,22.54,1.91,84.47,1.58,1.24,C0O960
虎頭埤,23.021375,120.347878,0.35,23.23,0.79,83.2,1.78,1.48,C0O970
新市,23.061614,120.298197,0.16,23.75,0.4,79.37,1.82,1.49,C0O980
媽廟,22.99175,120.293525,0.03,23.82,-3.17,77.1,1.77,1.3,C0O990
尾寮山,22.833111,120.683889,0.7,18.88,-0.42,90.23,1.7,0.31,C0R100
阿禮,22.742908,120.743678,0.61,19.82,1.38,80.73,2.35,1.44,C0R130
瑪家,22.682903,120.686639,0.34,20.46,5.31,89.07,2.9,1.74,C0R140
三地門,22.709889,120.639944,0.63,24.57,-2.06,74.93,2.4,1.06,C0R150
鹽埔,22.739558,120.530778,0.31,24.57,-1.66,85.97,1.25,0.88,C0R160
屏東,22.660269,120.494072,0.17,24.73,-3.08,77.23,1.52,1.1,C0R170
赤山,22.592333,120.614306,0.28,24.62,-2.8,81.3,2.92,2.05,C0R190
潮州,22.534361,120.54,1.27,25.29,-1.71,76.77,2.8,1.55,C0R220
來義,22.527306,120.625111,-0.19,23.61,4.98,88.67,2.95,2.13,C0R240
春日,22.370361,120.628306,0.09,24.25,-1.74,80.3,2.45,1.55,C0R260
琉球嶼,22.332244,120.362236,1.09,25.46,-2.61,80.63,2.97,1.65,C0R270
高樹,22.826389,120.600806,0.13,24.56,0.29,79.37,1.47,1.06,C0R470
長治,22.693128,120.542622,0.39,24.88,2.46,84.67,1.55,1.04,C0R480
九如,22.7405,120.490503,-1.62,22.62,0.82,82.6,1.57,1.15,C0R490
崁頂,22.514781,120.506914,0.37,25.03,-4.16,77.93,2.72,2.0,C0R520
佳冬,22.419456,120.552375,0.43,24.94,-3.99,78.33,2.63,1.81,C0R540
新埤,22.467947,120.582894,0.02,24.19,-0.34,82.47,2.68,1.84,C0R550
新園,22.5434,120.461558,0.22,24.77,5.85,85.43,2.12,1.27,C0R560
麟洛,22.65078,120.52719,0.17,25.09,10.04,88.3,1.78,1.35,C0R570
南州,22.48591,120.50274,0.72,25.12,-3.4,77.8,2.77,1.92,C0R580
里港,22.77919,120.49459,0.19,24.53,-8.08,71.87,1.55,1.26,C0R590
舊泰武,22.588194,120.664944,-0.35,20.17,0.15,88.7,3.45,1.84,C0R600
墾雷,21.900836,120.855269,-0.06,24.7,-1.5,79.93,3.02,-0.28,C0R620
大禹嶺,24.186117,121.316086,0.16,8.77,0.67,82.2,3.53,0.42,C0T790
復興,23.222403,120.806089,0.42,21.18,3.05,80.5,2.4,1.73,C0V210
美濃,22.898742,120.519153,1.17,24.66,3.95,85.2,1.5,0.69,C0V310
溪埔,22.738578,120.446797,-0.04,24.18,0.7,81.27,1.72,1.36,C0V350
內門,22.975481,120.466769,-0.51,22.58,4.34,87.03,1.57,1.26,C0V360
古亭坑,22.893178,120.401947,0.65,23.31,0.47,85.75,1.55,0.72,C0V370
阿公店,22.804194,120.355528,-0.32,23.37,0.09,81.7,1.48,1.08,C0V400
鳳山,22.646653,120.356122,0.08,24.82,3.18,79.9,1.83,1.32,C0V440
鳳森,22.545064,120.392592,0.16,24.54,0.85,80.47,2.05,1.34,C0V450
新興,22.627422,120.298803,0.37,25.06,-3.28,71.4,1.75,0.64,C0V490
阿蓮,22.883208,120.327508,0.41,24.18,7.09,87.63,1.67,1.26,C0V530
梓官,22.760558,120.267211,0.32,24.6,3.97,82.5,1.35,0.88,C0V610
永安,22.82315,120.236856,0.49,24.47,7.7,89.13,1.45,0.98,C0V620
茄萣,22.906642,120.182608,0.4,24.32,-1.81,74.97,1.42,0.82,C0V630
湖內,22.887139,120.2445,0.95,24.92,-1.35,77.82,1.66,1.17,C0V640
彌陀,22.783806,120.246361,0.52,24.75,8.71,88.6,1.42,0.95,C0V650
岡山,22.797078,120.294958,0.62,25.26,0.91,77.13,1.48,1.02,C0V660
仁武,22.701083,120.347722,0.48,25.26,0.03,78.03,1.82,1.36,C0V680
鼓山,22.623325,120.275575,0.45,25.05,2.34,80.93,1.93,1.33,C0V690
三民,22.645017,120.311233,0.54,25.78,-1.03,71.13,1.77,1.22,C0V700
苓雅,22.622742,120.330669,0.15,25.23,-2.49,68.8,1.9,1.36,C0V710
林園,22.507747,120.394511,0.77,26.33,-0.18,72.3,2.3,1.6,C0V720
大寮,22.605614,120.395717,0.27,25.28,-1.2,73.4,1.78,1.15,C0V730
旗山,22.888614,120.483597,0.31,24.32,0.5,78.9,1.53,1.23,C0V740
路竹,22.854997,120.259439,0.12,24.57,-1.82,75.53,1.73,1.23,C0V750
橋頭,22.757806,120.30575,0.24,25.07,1.47,78.83,1.38,0.96,C0V760
大社,22.730306,120.346639,0.46,24.88,-0.95,75.8,1.78,1.35,C0V770
萬山,22.905944,120.688056,0.17,22.67,3.78,82.9,1.6,1.18,C0V790
六龜,22.997889,120.633583,0.53,24.09,-0.03,79.5,1.62,1.24,C0V800
左營,22.67491,120.28491,0.38,24.58,-4.42,76.37,1.78,1.17,C0V810
西嶼,23.5626,119.468436,0.85,22.8,0.07,83.53,2.23,1.08,C0W120
花嶼,23.40007,119.32276,0.83,23.68,1.49,81.5,1.72,0.62,C0W130
金沙,24.488292,118.408778,-0.13,20.5,5.49,76.67,3.5,2.2,C0W140
金寧,24.457703,118.328989,-0.72,20.5,5.97,77.13,3.5,2.28,C0W150
東河,23.296598,120.385608,-0.13,23.11,3.23,85.83,1.57,1.16,C0X050
下營,23.22695,120.256261,0.28,23.39,0.86,81.43,1.45,0.99,C0X060
佳里,23.173039,120.145086,0.69,23.54,1.23,81.4,1.27,0.32,C0X080
臺南市北區,23.010394,120.194228,0.53,24.43,1.27,76.8,2.05,1.52,C0X100
臺南市南區,22.961189,120.188378,0.74,25.06,2.05,78.38,1.8,1.31,C0X110
麻豆,23.183289,120.248611,-0.01,23.53,-2.45,77.5,1.4,1.06,C0X120
官田,23.193217,120.315422,0.59,24.32,-1.78,78.23,1.55,1.19,C0X130
西港,23.125608,120.203108,-0.02,23.49,-0.55,79.07,1.57,1.09,C0X140
安定,23.102614,120.227839,-0.5,22.77,-1.49,80.53,1.33,0.86,C0X150
仁德,22.968258,120.257689,0.43,24.58,4.25,81.07,1.78,1.28,C0X160
關廟,22.963017,120.327797,0.55,24.38,1.11,78.43,1.75,1.38,C0X170
山上,23.0757,120.363253,0.51,23.74,-1.7,80.7,1.93,1.6,C0X180
安平,22.993161,120.152181,0.93,24.66,-1.63,78.1,1.95,1.42,C0X190
白河,23.347466,120.414427,0.04,23.24,1.64,82.47,1.53,1.12,C0X210
學甲,23.230367,120.182187,0.33,23.24,3.2,83.0,1.37,0.91,C0X220
鹽水,23.272621,120.247641,0.26,23.12,-1.03,80.47,1.28,0.87,C0X230
關子嶺,23.331169,120.508025,-0.09,21.16,1.81,89.1,2.42,1.64,C0X240
新營,23.310689,120.316681,-0.02,23.24,8.7,88.3,1.45,1.04,C0X250
後壁,23.366358,120.362326,0.13,23.08,3.95,85.73,1.48,1.05,C0X260
將軍,23.214999,120.13577,0.18,23.14,0.18,80.77,1.07,0.55,C0X280
北門,23.267772,120.125481,0.41,23.28,0.21,81.27,1.6,0.97,C0X290
鹿寮,23.386047,120.477331,0.12,22.75,0.3,85.1,2.03,1.37,C0X300
桃園農改場,24.950944,121.030583,0.52,21.38,2.36,82.73,3.72,1.71,72C440
桃改五峰分場,24.612194,121.157167,0.57,16.62,4.38,91.15,4.38,1.58,72D080
臺中農改場,24.003028,120.534389,0.82,22.93,2.59,82.0,2.07,1.15,72G600
南改斗南分場,23.634556,120.477333,1.13,23.15,-2.84,78.07,2.27,1.07,72K220
高雄農改場,22.709333,120.525889,0.75,24.92,-0.76,77.83,1.05,0.14,72Q010
東改班鳩分場,22.829528,121.077694,0.22,21.77,0.67,80.37,5.12,1.32,72S200
花蓮農改場,23.975222,121.563889,0.55,22.26,2.05,84.77,5.78,1.38,72T250
花改蘭陽分場,24.686306,121.716583,-0.16,20.37,5.09,91.89,14.83,2.84,72U480
高改旗南分場,22.857861,120.516667,0.53,24.56,1.83,77.17,1.53,0.85,72V140
茶改北部分場,24.955778,121.631222,1.12,19.28,1.23,88.8,42.28,33.12,82A750
茶改場,24.908472,121.185333,0.88,20.87,0.78,83.7,4.92,1.5,82C160
茶改中部分場,23.875611,120.913583,-0.03,19.68,2.63,87.03,2.27,0.7,82H320
茶改南部分場,23.762528,120.7405,0.42,21.23,1.23,88.4,2.1,0.81,82H840
茶改東部分場,22.907694,121.130139,0.43,22.4,-0.09,80.75,2.02,-1.37,82S580
畜產試驗所,23.058972,120.336406,0.54,23.04,2.73,84.41,2.14,1.24,B2N890
畜試南區分所,21.945583,120.802167,0.5,25.2,-8.15,65.3,2.52,-0.48,B2Q810
農試所(霧峰),24.031261,120.688133,0.88,23.21,1.53,81.57,2.27,1.32,G2F820
農試嘉義分所,23.485028,120.473806,0.69,22.71,4.87,86.93,1.58,0.72,G2L020
農試鳳山分所,22.646611,120.356083,0.67,24.92,4.08,78.4,1.87,0.79,G2P820
苗栗農改場,24.495722,120.829111,0.77,21.38,3.46,85.17,3.08,1.58,K2E360
溪頭,23.670306,120.798194,-0.38,16.07,2.37,91.33,3.4,1.22,U2H480
板橋,24.997647,121.442017,0.54,22.42,-2.9,72.3,4.48,0.74,466880
蘇澳,24.596736,121.857372,0.66,21.95,-0.92,81.93,33.15,10.16,467060
梧棲,24.256003,120.523381,0.69,22.57,0.98,77.57,2.59,1.51,467770
四堵,24.8926,121.745736,1.28,19.6,-4.02,88.33,9.8,-0.54,C0A540
福山,24.776203,121.502811,0.82,18.87,0.2,93.57,7.05,0.65,C0A560
屈尺,24.922422,121.546333,1.03,21.47,6.87,90.77,6.9,-0.03,C0A580
火燒寮,25.002719,121.742892,0.25,18.78,-2.47,91.89,14.0,0.86,C0A650
瑞芳,25.113169,121.801147,0.04,20.64,1.01,88.33,15.52,-3.78,C0A660
林口,25.076364,121.378217,0.74,20.99,11.15,96.79,4.93,0.82,C0A710
福隆,25.017842,121.942083,0.52,21.5,-0.2,87.27,12.48,-2.36,C0A880
富貴角,25.263783,121.565258,0.41,20.2,-0.47,87.57,9.83,-4.06,C0A920
大直,25.078047,121.542853,0.9,22.71,-1.39,75.7,2.92,0.33,C0A9A0
石牌,25.116342,121.513817,-0.88,21.48,-2.09,71.93,3.2,0.9,C0A9B0
士林,25.090253,121.503019,0.99,23.25,-0.01,73.73,3.02,0.84,C0A9E0
南港,25.055431,121.602906,0.88,22.43,-1.06,79.43,4.78,-0.02,C0A9G0
三重,25.056667,121.488492,-0.04,22.53,1.45,79.5,3.18,0.2,C0A9I1
三芝,25.258131,121.501917,0.28,21.52,-4.47,78.24,8.52,-2.25,C0AD00
深坑,25.001381,121.617556,0.36,21.32,-4.86,82.13,5.5,0.42,C0AD20
中和,24.992647,121.490444,0.33,22.86,-0.22,76.4,4.47,0.78,C0AG90
中壢,24.967564,121.185253,0.84,21.31,1.83,81.6,4.93,0.44,C0C520
大園,25.04775,121.225958,0.52,21.92,1.92,79.73,4.23,1.29,C0C540
龜山,25.030306,121.375719,0.53,21.06,1.98,81.67,4.52,0.77,C0C640
關西,24.7982,121.1739,0.44,21.22,6.45,86.93,4.25,1.38,C0D390
香山,24.746892,120.905456,0.34,21.9,8.12,89.33,4.15,2.0,C0D570
大湖,24.41494,120.87087,0.18,20.29,2.17,88.8,3.62,1.38,C0E520
三義,24.410933,120.765972,1.39,20.73,2.29,87.73,3.12,1.49,C0E530
後龍,24.606489,120.783933,0.69,22.52,-0.06,83.07,3.0,1.14,C0E540
卓蘭,24.312764,120.824753,0.19,21.56,1.26,83.7,2.68,0.92,C0E790
大肚,24.15295,120.572117,0.13,21.32,5.63,90.93,2.32,0.96,C0F000
梨山,24.247522,121.243669,1.01,12.58,-0.12,80.4,3.92,0.42,C0F861
雙崎,24.288581,120.904267,0.55,20.06,3.99,83.8,2.62,0.95,C0F900
大甲,24.347667,120.640403,0.03,21.96,0.29,82.3,2.67,0.97,C0F930
中竹林,24.103556,120.751061,-0.12,21.04,1.01,82.67,2.32,0.82,C0F9A0
鹿港,24.0753,120.430481,0.67,22.81,-1.63,79.9,1.67,0.86,C0G640
竹塘,23.846617,120.382486,0.06,22.66,0.35,80.8,1.65,1.09,C0G750
花壇,24.016069,120.552328,0.36,23.38,2.63,80.73,1.92,0.47,C0G790
北斗,23.877586,120.514222,0.22,22.78,-3.27,81.0,2.05,0.74,C0G840
田中,23.856778,120.588261,0.4,23.74,4.66,87.67,2.7,0.94,C0G850
芳苑,23.922303,120.320025,0.51,23.23,5.4,89.97,1.47,0.32,C0G870
中寮,23.884447,120.766406,0.18,21.99,2.86,88.3,2.37,0.82,C0H950
鳳凰,23.728081,120.787347,0.78,19.07,0.81,89.07,2.62,1.0,C0I090
草嶺,23.59555,120.693461,0.43,18.22,0.69,90.1,2.65,1.02,C0K240
古坑,23.654301,120.559754,-0.11,22.72,0.64,80.9,2.25,1.7,C0K490
雲林東勢,23.674449,120.154778,0.15,22.89,3.24,84.53,1.92,1.32,C0K520
馬頭山,23.324361,120.582017,0.36,22.51,1.49,84.6,1.83,0.79,C0M410
山美,23.383803,120.668217,-0.12,21.3,-2.38,83.57,2.48,1.67,C0M830
曾文,23.219681,120.497328,0.65,23.37,3.55,88.37,1.75,0.86,C0O810
玉井,23.126042,120.46055,0.92,23.26,0.73,84.6,1.75,0.87,C0O930
安南,23.076694,120.144861,0.67,24.09,0.84,82.6,1.58,1.0,C0O950
東港,22.464914,120.441692,0.96,25.34,12.12,92.03,2.55,1.41,C0R430
竹田,22.584917,120.544008,0.31,25.04,3.15,81.23,2.32,1.22,C0R500
萬丹,22.587775,120.490394,0.46,25.49,-0.74,75.1,2.17,1.38,C0R510
林邊,22.430836,120.509983,0.78,25.23,3.48,80.8,2.73,1.93,C0R530
表湖,23.26021,120.664664,0.33,18.29,1.57,87.77,2.1,0.64,C0V150
甲仙,23.080106,120.591758,0.93,22.8,2.54,87.3,1.57,0.65,C0V250
月眉,22.971003,120.539853,0.16,24.12,0.13,78.53,1.37,1.08,C0V260
旗津,22.5886,120.285944,0.31,25.01,-0.78,76.3,1.87,0.64,C0V500
楠梓,22.71975,120.286,-0.06,24.27,0.13,75.83,1.48,0.98,C0V670
柳營,23.257237,120.373569,0.09,23.09,4.39,87.07,1.87,1.42,C0X270
七股,23.147289,120.086253,0.46,23.42,0.96,81.7,1.1,0.32,C0X310
臺大溪頭,23.670306,120.798194,-0.38,16.07,2.37,91.33,3.4,1.22,U2H480
苗栗農改,24.495722,120.829111,0.77,21.38,3.46,85.17,3.08,1.58,K2E360
農試鳳山分所,22.646611,120.356083,0.67,24.92,4.08,78.4,1.87,0.79,G2P820
農試嘉義分所,23.485028,120.473806,0.69,22.71,4.87,86.93,1.58,0.72,G2L020
農業試驗所,24.031261,120.688133,0.88,23.21,1.53,81.57,2.27,1.32,G2F820
畜試南區分所,21.945583,120.802167,0.5,25.2,-8.15,65.3,2.52,-0.48,B2Q810
畜試所,23.058972,120.336406,0.54,23.04,2.73,84.41,2.14,1.24,B2N890
古坑花卉中心,23.63353,120.55239,0.15,22.48,2.25,90.37,3.89,-8.36,A2K570
茶改東部分場,22.907694,121.130139,0.43,22.4,-0.09,80.75,2.02,-1.37,82S580
茶改南部分場,23.762528,120.7405,0.42,21.23,1.23,88.4,2.1,0.81,82H840
茶改中部分場,23.875611,120.913583,-0.03,19.68,2.63,87.03,2.27,0.7,82H320
茶改場,24.908472,121.185333,0.88,20.87,0.78,83.7,4.92,1.5,82C160
茶改北部分場,24.955778,121.631222,1.12,19.28,1.23,88.8,42.28,33.12,82A750
高改旗南分場,22.857861,120.516667,0.53,24.56,1.83,77.17,1.53,0.85,72V140
花改蘭陽分場,24.686306,121.716583,-0.16,20.37,5.09,91.89,14.83,2.84,72U480
花蓮農改,23.975222,121.563889,0.55,22.26,2.05,84.77,5.78,1.38,72T250
東改班鳩分場,22.829528,121.077694,0.22,21.77,0.67,80.37,5.12,1.32,72S200
高雄農改,22.709333,120.525889,0.75,24.92,-0.76,77.83,1.05,0.14,72Q010
南改斗南分場,23.634556,120.477333,1.13,23.15,-2.84,78.07,2.27,1.07,72K220
臺中農改,24.003028,120.534389,0.82,22.93,2.59,82.0,2.07,1.15,72G600
桃改五峰分場,24.612194,121.157167,0.57,16.62,4.38,91.15,4.38,1.58,72D080
桃園農改,24.950944,121.030583,0.52,21.38,2.36,82.73,3.72,1.71,72C440
