站名,緯度,經度,平均溫距平,本年度平均溫,平均溼度距平,本年度日均相對溼度,本年度日均降水量,日均降水量距平,站號
淡水,25.164889,121.448906,1.36,18.62,5.75,84.68,9.16,5.04,466900
鞍部,25.182586,121.529731,1.75,13.49,-0.04,92.0,20.0,5.31,466910
臺北,25.037658,121.514853,1.28,19.5,-1.13,74.52,1.94,-1.5,466920
竹子湖,25.162078,121.544547,1.54,14.97,-0.65,86.94,20.39,8.11,466930
基隆,25.133314,121.740475,1.24,19.13,0.79,77.45,19.27,6.53,466940
花蓮,23.975128,121.613275,1.41,20.97,1.34,74.97,1.75,-1.25,466990
新屋,25.006744,121.047486,0.85,18.45,5.5,82.35,2.6,-0.46,467050
宜蘭,24.763975,121.756528,1.42,19.27,4.83,84.9,10.22,1.24,467080
金門,24.407306,118.289281,1.5,17.24,3.75,72.48,0.68,-0.65,467110
澎湖,23.565503,119.563094,1.6,20.65,3.52,79.84,0.15,-0.93,467350
臺南,22.993239,120.204772,2.05,21.58,0.91,73.94,0.0,-0.56,467410
永康,23.038386,120.2367,2.03,21.17,-0.16,72.65,0.0,-0.6,467420
嘉義,23.495925,120.432906,2.24,20.74,-1.13,74.97,0.0,-0.95,467480
臺中,24.145736,120.684075,2.13,20.84,-0.92,71.55,0.07,-1.12,467490
阿里山,23.508208,120.813242,1.93,10.0,3.2,84.16,0.1,-2.28,467530
大武,22.355675,120.903789,1.14,22.72,0.67,69.65,0.58,-0.93,467540
玉山,23.487614,120.959522,3.69,5.1,3.3,65.16,0.26,-2.51,467550
新竹,24.827853,121.014219,1.47,19.11,-1.03,75.1,1.13,-1.16,467571
恆春,22.003897,120.746339,1.4,23.6,2.8,71.39,0.2,-0.87,467590
成功,23.097486,121.373428,1.04,21.14,1.9,75.35,2.07,-0.9,467610
日月潭,23.881325,120.90805,2.27,17.79,-3.08,74.39,0.03,-1.5,467650
臺東,22.752211,121.154586,1.37,22.05,3.3,74.0,2.03,0.33,467660
馬祖,26.169269,119.923419,0.82,14.02,3.99,81.23,0.53,-1.05,467990
山佳,24.974944,121.402008,1.39,19.12,3.55,84.94,2.03,-1.24,C0A520
坪林,24.938183,121.70975,1.49,16.55,1.67,93.87,5.4,-0.29,C0A530
泰平,24.971197,121.823711,1.61,15.68,0.91,96.1,26.52,7.39,C0A550
桶後,24.848222,121.597992,1.6,16.23,-0.18,94.42,6.94,-1.43,C0A570
石碇,24.993969,121.662917,1.53,16.96,0.81,91.1,6.45,-0.59,C0A640
大坪,25.165914,121.632969,1.2,15.89,1.82,94.58,53.35,22.36,C0A860
五指山,25.132153,121.608692,1.34,14.05,-1.18,93.06,22.6,9.33,C0A870
雙溪,25.036003,121.864242,1.07,17.39,2.05,93.81,19.74,5.83,C0A890
三和,25.233153,121.595236,0.55,16.61,6.32,93.68,31.15,8.17,C0A931
金山,25.223628,121.643967,0.5,17.66,6.58,89.26,11.87,1.47,C0A940
鼻頭角,25.129036,121.923372,0.66,18.8,5.77,85.62,4.38,0.2,C0A950
三貂角,25.007606,122.002058,0.4,18.1,0.2,84.06,8.55,0.85,C0A970
社子,25.109508,121.469681,1.18,19.3,0.93,77.74,1.6,-0.71,C0A980
天母,25.117494,121.537169,1.37,19.52,3.11,76.9,1.32,-0.74,C0A9C0
內湖,25.079422,121.57545,1.03,19.08,2.84,81.81,1.87,-0.94,C0A9F0
大屯山,25.175675,121.522408,2.11,12.38,-3.89,91.55,11.29,2.03,C0AC40
三峽,24.939025,121.369728,1.36,18.81,7.44,88.23,2.35,-2.24,C0AC60
信義,25.037822,121.564597,1.27,18.75,4.35,84.0,3.15,-1.04,C0AC70
文山,25.00235,121.575728,1.27,18.38,-0.01,84.13,2.89,-1.61,C0AC80
新莊,25.051478,121.446756,1.23,19.25,2.56,77.1,1.6,-1.44,C0ACA0
八里,25.150211,121.403947,1.11,18.77,3.47,80.45,2.15,-1.21,C0AD10
蘆洲,25.086594,121.472331,1.64,19.97,-0.11,73.42,1.61,-0.99,C0AD30
土城,24.973208,121.445169,1.18,18.46,2.35,82.26,2.69,-1.68,C0AD40
鶯歌,24.951533,121.346294,1.27,18.45,10.79,91.77,1.79,-1.76,C0AD50
汐止,25.066881,121.658778,1.17,18.55,6.22,92.32,11.39,1.18,C0AH00
永和,25.01125,121.508111,3.91,22.17,-0.61,76.0,1.55,-1.03,C0AH10
五分山,25.07125,121.780794,0.66,14.05,-1.36,95.06,30.68,4.42,C0AH30
平等,25.129142,121.577086,0.75,16.45,-3.76,84.19,6.56,-1.08,C0AH40
林口,25.072181,121.38084,1.15,17.38,1.39,88.0,2.39,-0.98,C0AH50
松山,25.04871,121.55042,0.81,19.29,1.27,73.81,1.95,-1.51,C0AH70
深坑,25.002703,121.628328,0.7,17.77,1.28,87.55,3.37,-1.87,C0AH80
福山植物園,24.760717,121.58135,0.74,14.61,-2.08,93.32,14.69,0.73,C0AH90
五股,25.07445,121.42728,0.33,18.14,3.05,95.03,2.06,-1.62,C0AI00
屈尺,24.92184,121.54475,0.38,17.98,-3.48,83.77,4.42,-2.65,C0AI10
七堵,25.094819,121.71713,0.48,18.33,-1.42,88.71,17.16,-1.83,C0B010
基隆嶼,25.19141,121.78391,0.45,18.15,0.52,86.1,7.71,-0.88,C0B020
復興,24.820208,121.352281,1.64,16.76,-1.46,77.68,1.21,-2.22,C0C460
桃園,24.992425,121.323172,1.46,18.64,4.03,79.52,1.98,-1.26,C0C480
八德,24.928708,121.283289,1.47,18.32,0.25,81.71,2.61,-2.04,C0C490
觀音,25.027072,121.153317,1.21,17.98,5.72,84.52,3.1,-0.57,C0C590
蘆竹,25.084275,121.265767,0.81,18.1,4.24,83.74,3.13,-1.26,C0C620
大溪,24.882853,121.265547,1.34,17.42,5.74,84.39,1.76,-1.38,C0C630
平鎮,24.897503,121.214636,1.48,17.38,4.82,85.77,1.77,-1.49,C0C650
楊梅,24.912375,121.143047,1.06,17.91,4.13,82.16,1.87,-1.67,C0C660
龍潭,24.870056,121.221389,1.21,17.28,1.78,83.13,2.32,-0.89,C0C670
龜山,25.02846,121.38656,0.91,17.21,-0.01,83.87,2.26,-1.58,C0C680
中壢,24.977661,121.256375,0.66,17.93,-0.72,80.03,1.68,-1.36,C0C700
大溪永福,24.892936,121.324975,-2.49,13.92,-1.67,89.2,3.4,-1.92,C0C710
梅花,24.678347,121.208558,2.23,17.0,2.61,84.84,0.55,-2.22,C0D360
峨眉,24.6905,121.017189,1.54,18.3,-1.84,81.9,0.87,-2.11,C0D430
打鐵坑,24.849664,121.150789,1.88,17.49,2.25,88.32,1.24,-1.95,C0D480
橫山,24.71116,121.11693,1.7,17.73,-0.74,81.68,0.87,-1.7,C0D540
雪霸,24.526972,121.11605,2.48,12.06,0.15,77.9,0.68,-2.89,C0D550
竹東,24.767147,121.057881,2.19,18.68,1.97,76.61,0.82,-1.5,C0D560
寶山,24.735006,121.025192,1.84,18.1,1.49,82.58,0.84,-1.73,C0D580
新豐,24.87068,120.97721,1.33,17.79,5.81,86.06,1.42,-0.92,C0D590
湖口,24.904794,121.043628,0.98,18.09,1.62,80.84,1.06,-1.06,C0D650
新竹市東區,24.798681,120.986942,0.89,18.55,2.38,77.1,0.9,-0.9,C0D660
竹南,24.708978,120.888897,1.22,18.62,1.31,78.03,0.56,-1.25,C0E420
南庄,24.601775,121.000214,1.69,17.42,-0.15,83.45,0.98,-1.58,C0E430
明德,24.583486,120.885411,1.5,18.53,-0.09,81.13,0.68,-1.54,C0E550
通霄,24.471892,120.704622,2.04,19.43,4.25,85.87,0.32,-1.35,C0E590
馬都安,24.451272,120.930192,1.88,15.87,-3.2,79.26,0.05,-1.99,C0E610
頭份,24.688247,120.912206,1.69,19.22,1.89,75.61,0.55,-1.24,C0E730
造橋,24.637056,120.864778,1.54,18.98,3.95,84.84,0.76,-1.51,C0E740
苗栗,24.564569,120.824575,1.72,19.31,-1.23,75.29,0.61,-1.39,C0E750
銅鑼,24.489681,120.790853,1.99,18.81,-2.92,79.35,0.52,-1.47,C0E780
西湖,24.562947,120.7485,2.07,19.03,-0.81,81.68,0.53,-1.05,C0E810
獅潭,24.539133,120.920042,1.57,17.51,-4.06,81.45,0.69,-1.86,C0E820
苑裡,24.439714,120.653053,1.09,19.12,10.02,87.94,0.21,-1.09,C0E830
大河,24.618069,120.948578,0.96,18.46,0.09,82.23,0.85,-1.1,C0E850
高鐵苗栗,24.60725,120.826094,0.91,19.09,-0.27,76.61,0.65,-0.99,C0E870
雪山圈谷,24.388594,121.236339,1.23,3.67,0.24,64.71,0.52,-2.13,C0F0A0
石岡,24.276061,120.777644,0.99,18.52,0.19,82.35,0.26,-0.84,C0F0B0
中坑,24.248517,120.903319,1.56,17.13,-3.08,83.03,0.06,-1.67,C0F0C0
審馬陣,24.381675,121.4203,1.07,5.9,1.82,74.61,0.42,-2.17,C0F0D0
南湖圈谷,24.363714,121.444667,1.14,3.45,-4.27,73.39,1.1,-2.16,C0F0E0
東勢,24.246428,120.833047,2.11,18.82,-3.63,77.74,0.11,-1.58,C0F850
大坑,24.173142,120.722289,1.65,20.08,-2.76,72.19,0.11,-1.24,C0F970
神岡,24.272481,120.658314,1.98,19.15,1.1,83.55,0.42,-1.06,C0F9I0
大安,24.345061,120.588025,1.39,19.31,-1.78,78.42,0.24,-0.93,C0F9K0
后里,24.310436,120.729725,2.18,19.28,1.63,83.16,0.6,-0.72,C0F9L0
豐原,24.254322,120.720692,1.57,18.93,3.93,82.55,0.4,-0.91,C0F9M0
大里,24.092464,120.701378,2.11,21.65,-2.43,69.65,0.06,-1.27,C0F9N0
潭子,24.213106,120.703933,1.84,20.17,-0.69,75.9,0.15,-1.1,C0F9O0
清水,24.312297,120.562242,1.93,20.06,-1.63,79.0,0.08,-0.96,C0F9P0
外埔,24.347817,120.705686,1.97,19.32,2.5,83.94,0.31,-1.04,C0F9Q0
龍井,24.184536,120.528972,1.58,20.05,1.95,82.26,0.5,-0.72,C0F9R0
烏日,24.107058,120.624103,2.42,21.11,-1.92,71.23,0.15,-1.05,C0F9S0
西屯,24.179494,120.641275,1.77,19.86,-1.14,74.77,0.18,-0.95,C0F9T0
南屯,24.137006,120.637969,1.92,21.05,-1.85,71.03,0.13,-0.94,C0F9U0
新社,24.200172,120.815806,1.72,17.75,-0.39,85.1,0.11,-1.54,C0F9V0
大雅(中科園區),24.21528,120.62445,1.04,19.34,-2.28,77.65,0.32,-0.79,C0F9X0
桃山,24.432739,121.303808,0.93,5.55,2.22,71.55,0.24,-1.87,C0F9Y0
雪山東峰,24.388792,121.268675,0.88,6.14,3.15,72.55,0.4,-2.4,C0F9Z0
芬園,24.015678,120.6213,1.87,19.76,-2.83,78.35,0.06,-1.23,C0G620
員林,23.946503,120.585597,1.84,20.52,1.58,79.32,0.02,-0.95,C0G650
溪湖,23.94835,120.479122,1.57,20.07,-1.71,78.42,0.08,-1.09,C0G660
溪州,23.851589,120.499093,1.01,19.93,-1.74,76.55,0.03,-1.17,C0G720
二林,23.903325,120.376081,0.92,19.48,-0.96,82.87,0.05,-0.82,C0G730
大城,23.852487,120.320935,0.79,19.59,-2.09,76.32,0.05,-1.08,C0G740
福興,24.041289,120.437669,1.19,20.0,6.6,85.1,0.08,-1.07,C0G770
秀水,24.03405,120.503869,1.28,20.03,5.53,84.48,0.15,-1.04,C0G780
埔鹽,24.000394,120.431683,1.45,19.65,-3.75,78.52,0.05,-0.96,C0G800
埔心,23.947633,120.525456,1.22,19.97,1.97,80.35,0.02,-1.1,C0G810
田尾,23.901669,120.509389,1.8,20.25,1.51,84.48,0.02,-1.16,C0G820
埤頭,23.866003,120.452806,1.43,19.79,-1.44,82.68,0.0,-0.95,C0G830
社頭,23.897647,120.5862,1.78,20.95,-1.7,73.55,0.03,-1.21,C0G860
二水,23.810742,120.6173,1.9,20.68,-5.13,74.81,0.0,-1.18,C0G880
伸港,24.148933,120.484403,1.76,20.2,3.44,82.16,0.4,-0.72,C0G890
埔里,23.972169,120.952425,1.3,19.99,-5.55,75.39,0.03,-1.23,C0H890
草屯,23.973672,120.68085,2.12,20.79,-3.24,73.87,0.0,-1.35,C0H960
昆陽,24.121322,121.273642,2.27,6.37,-0.02,76.42,0.13,-2.03,C0H990
神木村,23.532742,120.843667,2.4,14.38,-4.81,79.35,0.06,-2.17,C0H9A0
合歡山,24.143442,121.272547,3.23,5.5,-0.61,80.77,0.34,-4.45,C0H9C0
廬山,24.033311,121.181808,2.46,15.2,-3.82,72.26,0.03,-2.12,C0I010
信義,23.689694,120.851036,1.28,18.85,-6.54,77.03,0.0,-1.31,C0I080
竹山,23.761225,120.688156,2.06,20.15,5.21,88.03,0.0,-1.26,C0I110
水里,23.812553,120.849792,1.11,19.93,6.52,87.81,0.03,-1.45,C0I360
魚池,23.895703,120.94135,1.3,18.83,0.79,86.52,0.05,-1.58,C0I370
集集,23.828206,120.801467,1.14,20.13,-1.59,80.61,0.03,-1.41,C0I380
仁愛,24.022122,121.132206,1.31,16.3,-5.54,76.42,0.05,-1.57,C0I390
名間,23.837053,120.701447,1.05,19.86,5.19,85.68,0.0,-1.28,C0I410
國姓,24.037803,120.855072,1.33,20.15,-5.31,77.35,0.0,-1.18,C0I420
南投,23.911469,120.687331,1.1,20.59,-2.28,74.0,0.0,-1.15,C0I460
梅峰,24.085272,121.173572,1.17,11.15,-0.2,79.0,0.1,-1.86,C0I480
萬大林道,23.928228,121.091411,1.09,14.94,4.23,83.77,0.03,-1.77,C0I490
小奇萊,24.131764,121.295717,0.75,5.83,-3.44,78.94,0.4,-2.63,C0I530
奇萊稜線,24.109231,121.326456,0.5,4.48,12.36,77.81,0.53,0.0,C0I540
崙背,23.75555,120.318925,0.88,19.55,0.14,80.48,0.02,-1.05,C0K250
四湖,23.630414,120.227125,1.6,20.0,-1.0,78.13,0.0,-0.83,C0K280
宜梧,23.536281,120.169329,1.5,19.97,-0.19,79.97,0.02,-0.88,C0K291
虎尾,23.719183,120.442036,1.75,20.23,-3.22,74.77,0.0,-0.99,C0K330
土庫,23.679029,120.395574,0.95,19.97,-1.25,77.16,0.0,-1.21,C0K390
斗六,23.720583,120.541127,1.04,20.16,0.63,81.35,0.0,-1.25,C0K400
北港,23.573957,120.292802,1.05,20.1,-3.41,76.52,0.0,-1.22,C0K410
西螺,23.800407,120.467394,1.05,19.93,2.23,83.32,0.0,-1.26,C0K420
褒忠,23.690938,120.303634,0.95,19.64,-1.98,78.61,0.02,-1.07,C0K430
二崙,23.772797,120.408944,0.95,19.65,-2.08,78.19,0.0,-0.93,C0K440
大埤,23.646074,120.431537,1.01,20.07,0.78,79.55,0.0,-1.1,C0K450
斗南,23.678734,120.478359,1.04,20.03,-2.73,76.1,0.0,-1.17,C0K460
林內,23.748675,120.609642,1.09,20.03,-3.59,77.13,0.0,-1.34,C0K470
莿桐,23.761192,120.502372,1.1,19.91,-2.61,76.03,0.0,-1.14,C0K480
元長,23.64981,120.315024,0.95,19.85,0.0,78.39,0.0,-1.2,C0K500
水林,23.572924,120.24597,0.93,19.9,-1.94,77.13,0.02,-1.24,C0K510
臺西,23.701547,120.197559,0.82,19.78,-0.83,79.1,0.0,-0.92,C0K530
蔦松,23.514319,120.229736,0.91,19.92,3.09,84.0,0.02,-1.26,C0K550
棋山,23.68645,120.603417,1.1,20.1,3.37,85.23,0.0,-1.46,C0K560
高鐵雲林,23.737456,120.417944,1.01,19.9,6.31,88.74,0.0,-1.37,C0K580
東後寮,23.369908,120.248065,0.94,19.9,0.22,79.77,0.02,-1.05,C0M520
奮起湖,23.493903,120.699253,2.04,15.32,-1.79,84.65,0.1,-1.49,C0M530
中埔,23.42538,120.5229,1.13,20.13,-2.73,77.61,0.0,-1.0,C0M640
朴子,23.43463,120.23902,1.03,20.11,-2.41,76.55,0.0,-1.16,C0M650
溪口,23.604131,120.403569,0.96,19.95,-1.79,77.03,0.02,-1.13,C0M660
大林,23.600616,120.45841,0.99,20.27,-2.31,75.97,0.0,-1.38,C0M670
太保,23.455062,120.331455,1.01,20.34,-3.38,75.81,0.0,-1.12,C0M680
水上,23.419734,120.388909,1.08,20.31,-2.69,75.58,0.03,-0.95,C0M690
竹崎,23.526178,120.555508,1.03,20.02,-3.69,78.58,0.0,-1.24,C0M700
東石,23.458927,120.15385,0.92,20.02,-1.57,78.35,0.0,-1.27,C0M710
番路,23.464657,120.554156,1.05,19.54,-2.9,78.81,0.0,-1.09,C0M720
嘉義市東區,23.457673,120.460531,1.18,21.42,-2.38,71.97,0.0,-1.09,C0M730
六腳,23.492871,120.290625,1.08,20.18,-5.95,71.97,0.0,-1.23,C0M740
布袋,23.380878,120.167789,0.93,20.04,0.02,80.71,0.05,-1.1,C0M750
民雄,23.551754,120.428457,1.04,20.42,-0.61,78.0,0.0,-1.19,C0M760
嘉義梅山,23.585398,120.555587,1.16,20.02,-0.85,80.16,0.0,-1.35,C0M770
鹿草,23.41134,120.30835,1.06,20.35,-1.66,75.84,0.0,-1.0,C0M780
新港,23.553269,120.345728,1.01,20.2,-2.49,75.29,0.0,-1.35,C0M790
茶山,23.299075,120.664767,1.14,20.24,1.28,83.97,0.27,-0.74,C0M800
里佳,23.389125,120.716647,0.97,15.61,-2.82,82.48,0.16,-1.31,C0M810
達邦,23.453994,120.749517,1.23,17.65,-3.05,76.68,0.05,-1.24,C0M820
表湖,23.24186,120.64166,0.97,18.93,-2.69,83.06,0.06,-1.09,C0M850
北寮,23.079561,120.495008,1.91,21.0,-2.48,81.16,0.06,-0.59,C0O830
王爺宮,23.222064,120.40085,1.42,19.91,-4.06,78.58,0.0,-0.87,C0O840
大內,23.11885,120.36083,1.77,21.22,0.24,81.74,0.0,-0.68,C0O860
善化,23.112883,120.297219,1.9,20.88,-1.04,80.48,0.0,-0.67,C0O900
崎頂,22.959547,120.369317,1.77,20.4,1.79,83.42,0.02,-0.49,C0O960
虎頭埤,23.021375,120.347878,1.41,20.39,-0.13,81.61,0.02,-0.65,C0O970
新市,23.061614,120.298197,1.69,21.2,1.99,80.29,0.0,-0.6,C0O980
媽廟,22.99175,120.293525,1.59,21.11,-0.15,78.94,0.0,-0.56,C0O990
尾寮山,22.833111,120.683889,1.68,17.15,3.17,91.9,0.0,-1.02,C0R100
阿禮,22.742908,120.743678,1.53,18.06,-1.94,75.26,0.0,-0.7,C0R130
瑪家,22.682903,120.686639,1.08,18.3,9.64,97.68,0.02,-0.75,C0R140
三地門,22.709889,120.639944,1.95,22.55,-4.99,71.0,0.0,-0.74,C0R150
鹽埔,22.739558,120.530778,1.56,21.95,0.13,86.23,0.0,-0.58,C0R160
屏東,22.660269,120.494072,1.78,22.59,2.58,82.39,0.0,-0.53,C0R170
赤山,22.592333,120.614306,1.65,22.33,-6.12,76.26,0.02,-0.54,C0R190
潮州,22.534361,120.54,2.02,22.55,0.67,78.87,0.02,-0.74,C0R220
來義,22.527306,120.625111,1.55,21.89,-1.12,82.06,0.02,-0.58,C0R240
春日,22.370361,120.628306,1.43,22.35,0.96,80.13,0.0,-0.42,C0R260
琉球嶼,22.332244,120.362236,1.39,22.69,-2.19,78.35,0.0,-0.77,C0R270
高樹,22.826389,120.600806,1.97,22.73,4.12,83.29,0.02,-0.65,C0R470
長治,22.693128,120.542622,1.81,22.64,2.96,84.13,0.02,-0.51,C0R480
九如,22.7405,120.490503,1.61,22.42,-0.66,81.16,0.0,-0.58,C0R490
崁頂,22.514781,120.506914,1.53,22.55,2.26,84.55,0.02,-0.54,C0R520
佳冬,22.419456,120.552375,1.66,22.8,-3.61,77.77,0.0,-0.48,C0R540
新埤,22.467947,120.582894,1.8,22.67,-2.75,79.26,0.02,-0.53,C0R550
新園,22.5434,120.461558,1.75,22.57,-3.3,75.13,0.0,-0.53,C0R560
麟洛,22.65078,120.52719,1.4,22.6,-7.54,69.97,0.0,-0.49,C0R570
南州,22.48591,120.50274,1.22,22.05,4.9,85.74,0.0,-0.65,C0R580
里港,22.77919,120.49459,1.92,22.51,-2.92,76.48,0.0,-0.68,C0R590
舊泰武,22.588194,120.664944,1.46,19.01,0.08,87.55,0.45,-0.37,C0R600
墾雷,21.900836,120.855269,0.74,23.22,-1.5,77.03,0.77,-0.03,C0R620
東港,22.46247,120.44074,0.81,22.79,-4.25,75.61,0.0,-0.17,C0R640
竹田,22.58486,120.54344,1.07,22.73,-4.12,79.77,0.0,-0.25,C0R650
蘭嶼高中,22.04909,121.51214,0.27,23.01,-2.41,75.84,13.95,1.44,C0S900
蘭嶼燈塔,22.081197,121.503117,0.21,21.11,-4.27,84.61,8.47,0.85,C0S910
大禹嶺,24.186117,121.316086,1.79,7.53,-4.22,75.58,0.19,-2.72,C0T790
天祥,24.179597,121.495639,1.37,16.33,1.46,88.52,0.48,-2.49,C0T820
鯉魚潭,23.935639,121.508944,1.04,18.27,-0.07,88.52,1.63,-1.47,C0T870
西林,23.8119,121.441458,1.27,18.79,2.18,86.26,2.5,-0.86,C0T900
光復,23.660694,121.424964,1.31,19.02,-1.68,88.52,2.89,-0.81,C0T960
月眉山,23.809928,121.539828,1.2,16.93,-0.96,91.55,3.35,-0.45,C0T9A0
水源,23.991861,121.537169,1.46,16.94,2.7,91.77,3.11,-1.21,C0T9B0
和中,24.26676,121.74103,0.74,19.75,2.08,84.58,1.82,-2.55,C0T9D0
大坑,23.880628,121.581981,1.3,17.49,-0.65,88.55,3.92,0.23,C0T9E0
水璉,23.797131,121.542514,0.86,18.84,-2.63,82.94,2.9,-0.42,C0T9F0
鳳林山,23.735269,121.420131,0.48,16.55,-0.5,92.19,5.21,0.51,C0T9G0
加路蘭山,23.682947,121.5274,1.42,15.84,-1.07,93.77,8.1,1.56,C0T9H0
豐濱,23.583897,121.514806,1.13,18.9,5.47,91.0,5.61,-0.13,C0T9I0
雙連埤,24.753033,121.641303,1.76,15.59,-2.46,93.65,13.32,2.05,C0U520
礁溪,24.817539,121.765608,1.29,18.78,-5.47,83.72,5.5,-1.35,C0U600
玉蘭,24.675286,121.587061,1.8,16.63,-2.4,88.26,12.24,2.7,C0U650
太平山,24.505486,121.525656,2.33,9.26,-6.12,85.42,4.87,-2.25,C0U710
南山,24.43742,121.38167,0.4,12.39,-3.07,90.84,2.85,-2.13,C0U720
龜山島,24.841667,121.953133,0.1,16.49,2.65,98.0,5.08,0.42,C0U750
東澳,24.52196,121.83318,0.58,18.69,-1.06,89.9,19.08,5.52,C0U760
南澳,24.44935,121.81022,0.94,19.67,-5.26,76.06,5.48,0.54,C0U770
五結,24.68637,121.79794,1.35,18.64,-3.66,83.16,23.65,6.0,C0U780
頭城,24.85323,121.8308,0.7,18.95,9.54,97.03,4.92,-1.77,C0U860
大礁溪,24.791042,121.675047,1.3,16.49,-0.44,89.42,11.5,0.12,C0U870
三星,24.66812,121.65302,1.03,18.24,-0.27,88.94,10.85,-1.7,C0U890
內城,24.71813,121.68766,0.97,18.5,-1.98,87.39,9.89,-1.05,C0U900
冬山,24.63373,121.7937,0.7,18.45,7.31,95.35,28.31,2.0,C0U910
羅東,24.68184,121.74934,0.88,18.19,-2.39,86.61,19.0,0.89,C0U940
鶯子嶺,24.89754,121.79244,1.25,12.75,-2.15,95.32,15.55,-0.33,C0U950
翠峰湖,24.510856,121.608044,0.75,8.72,-3.05,92.23,5.76,-3.59,C0U960
大福,24.80064,121.81389,0.87,18.98,6.82,95.77,5.89,-3.06,C0U970
坪林石牌,24.86478,121.77396,0.96,15.16,2.56,98.48,6.45,-1.34,C0U980
員山,24.74435,121.72247,0.95,18.85,-0.78,87.03,11.44,-0.69,C0U990
土場,24.576533,121.495333,0.57,16.48,0.56,93.35,1.77,-2.88,C0UA00
鴛鴦湖,24.590269,121.412228,0.98,10.06,-3.84,93.1,8.53,-5.57,C0UA10
多加屯,24.368614,121.373189,1.31,7.75,-1.72,77.55,0.4,-2.48,C0UA20
白嶺,24.527819,121.519031,0.96,11.78,-4.45,91.32,5.5,-2.19,C0UA30
西德山,24.560647,121.752608,0.77,12.85,-2.91,92.32,18.29,-5.48,C0UA40
西帽山,24.555361,121.802628,0.67,14.22,-3.19,93.45,33.21,-3.41,C0UA50
樟樹山,24.41393,121.78325,0.75,16.31,-2.04,87.94,6.94,-0.1,C0UA60
桃源谷,24.962606,121.888875,0.77,15.43,-1.65,93.9,22.58,-2.9,C0UA70
復興,23.222403,120.806089,2.0,19.84,-2.38,75.77,0.05,-1.1,C0V210
美濃,22.898742,120.519153,2.27,22.13,-5.84,74.97,0.0,-0.58,C0V310
溪埔,22.738578,120.446797,1.53,21.87,7.17,86.61,0.0,-0.62,C0V350
內門,22.975481,120.466769,2.25,21.28,-4.51,76.84,0.05,-0.47,C0V360
古亭坑,22.893178,120.401947,2.14,21.0,-3.62,79.74,0.02,-0.58,C0V370
阿公店,22.804194,120.355528,1.44,21.04,-2.62,77.97,0.0,-0.34,C0V400
鳳山,22.646653,120.356122,1.82,22.56,-5.56,68.97,0.0,-0.44,C0V440
鳳森,22.545064,120.392592,1.64,22.38,-1.44,74.16,0.0,-0.43,C0V450
新興,22.627422,120.298803,2.23,22.76,-0.23,73.29,0.0,-0.4,C0V490
阿蓮,22.883208,120.327508,2.0,21.67,0.49,81.87,0.0,-0.46,C0V530
梓官,22.760558,120.267211,0.1,19.87,-5.91,69.19,0.0,-0.32,C0V610
永安,22.82315,120.236856,1.44,21.3,-3.12,74.65,0.03,-0.42,C0V620
茄萣,22.906642,120.182608,1.51,21.13,-1.2,73.32,0.0,-0.34,C0V630
湖內,22.887139,120.2445,1.26,21.0,3.37,80.45,0.0,-0.4,C0V640
彌陀,22.783806,120.246361,1.45,21.62,-4.88,71.87,0.02,-0.36,C0V650
岡山,22.797078,120.294958,1.52,21.87,0.25,74.84,0.0,-0.4,C0V660
仁武,22.701083,120.347722,2.29,22.95,3.99,80.58,0.0,-0.45,C0V680
鼓山,22.623325,120.275575,1.66,22.35,-0.44,75.23,0.0,-0.38,C0V690
三民,22.645017,120.311233,1.84,23.04,-2.09,68.74,0.0,-0.37,C0V700
苓雅,22.622742,120.330669,1.61,22.61,0.84,71.03,0.0,-0.41,C0V710
林園,22.507747,120.394511,1.56,23.53,2.8,73.26,0.0,-0.43,C0V720
大寮,22.605614,120.395717,1.72,22.9,-1.73,71.61,0.0,-0.61,C0V730
旗山,22.888614,120.483597,1.69,21.74,-2.07,75.81,0.0,-0.38,C0V740
路竹,22.854997,120.259439,1.68,21.85,4.8,81.29,0.02,-0.47,C0V750
橋頭,22.757806,120.30575,2.34,22.97,-1.32,74.52,0.0,-0.35,C0V760
大社,22.730306,120.346639,1.62,21.96,2.42,77.35,0.0,-0.39,C0V770
萬山,22.905944,120.688056,1.86,21.09,-2.53,76.19,0.0,-0.76,C0V790
六龜,22.997889,120.633583,1.41,21.55,-0.27,79.32,0.02,-0.71,C0V800
左營,22.67491,120.28491,1.43,22.13,5.23,84.9,0.0,-0.27,C0V810
小林,23.148408,120.63325,0.49,19.78,-4.62,77.0,0.0,-1.01,C0V820
東莒,25.9652,119.98069,-0.45,13.35,4.24,80.19,0.23,-0.22,C0W110
西嶼,23.5626,119.468436,0.43,19.03,0.22,83.0,0.13,-1.15,C0W120
花嶼,23.40007,119.32276,1.15,20.11,1.37,81.23,0.19,-1.11,C0W130
金沙,24.488292,118.408778,0.5,16.78,4.95,73.61,0.55,-0.37,C0W140
金寧,24.457703,118.328989,0.68,17.59,6.49,75.84,0.42,-0.46,C0W150
烏坵,24.9944,119.44956,-0.14,14.29,2.51,83.2,0.15,-0.31,C0W160
東河,23.296598,120.385608,1.22,20.69,-4.73,76.16,0.0,-0.92,C0X050
下營,23.22695,120.256261,0.93,20.09,-3.74,77.03,0.0,-0.97,C0X060
佳里,23.173039,120.145086,1.56,20.41,-1.42,77.94,0.0,-0.74,C0X080
臺南市北區,23.010394,120.194228,1.67,21.35,1.02,76.1,0.0,-0.49,C0X100
臺南市南區,22.961189,120.188378,1.63,21.8,2.05,76.45,0.0,-0.48,C0X110
麻豆,23.183289,120.248611,1.66,20.95,4.3,84.29,0.0,-0.75,C0X120
官田,23.193217,120.315422,2.08,21.64,-1.79,76.61,0.0,-0.78,C0X130
西港,23.125608,120.203108,1.9,21.21,-1.89,77.45,0.0,-0.81,C0X140
安定,23.102614,120.227839,1.78,20.85,-1.19,81.0,0.0,-0.61,C0X150
仁德,22.968258,120.257689,1.65,21.59,-2.25,73.68,0.0,-0.47,C0X160
關廟,22.963017,120.327797,2.07,21.76,-0.9,76.03,0.0,-0.53,C0X170
山上,23.0757,120.363253,1.74,20.82,-1.06,81.0,0.0,-0.67,C0X180
安平,22.993161,120.152181,1.36,20.92,4.75,83.23,0.0,-0.48,C0X190
左鎮,23.056758,120.408522,1.85,20.46,-1.25,83.16,0.02,-0.62,C0X200
白河,23.347466,120.414427,1.11,20.6,-2.03,77.32,0.0,-0.93,C0X210
學甲,23.230367,120.182187,0.79,19.87,-1.84,77.29,0.0,-0.98,C0X220
鹽水,23.272621,120.247641,0.9,19.89,-3.26,78.13,0.0,-0.95,C0X230
關子嶺,23.331169,120.508025,0.99,18.71,-3.26,83.94,0.02,-1.09,C0X240
新營,23.310689,120.316681,1.13,20.55,-2.96,75.48,0.0,-0.92,C0X250
後壁,23.366358,120.362326,0.98,20.22,-1.43,78.55,0.0,-0.92,C0X260
將軍,23.214999,120.13577,0.98,20.14,-0.88,78.55,0.0,-0.78,C0X280
北門,23.267772,120.125481,0.92,20.16,-0.94,78.94,0.0,-1.13,C0X290
鹿寮,23.386047,120.477331,1.14,20.26,0.64,84.23,0.0,-1.03,C0X300
明里,23.208717,121.262342,1.48,18.75,0.59,86.13,1.0,-0.69,C0Z020
佳心,23.34567,121.21316,1.07,14.95,-0.27,89.29,1.21,-1.34,C0Z050
玉里,23.3215,121.339656,1.79,19.22,0.12,86.68,1.27,-1.75,C0Z061
舞鶴,23.46811,121.37407,1.48,18.3,-0.59,90.77,1.32,-1.47,C0Z070
富源,23.587642,121.378225,1.34,18.09,-0.25,92.58,2.68,-0.82,C0Z080
東華,23.89525,121.549833,0.76,19.57,4.91,90.77,1.68,-0.57,C0Z100
吉安光華,23.930925,121.595153,0.53,19.88,8.25,96.77,1.55,-0.85,C0Z150
鳳林,23.746114,121.453411,0.77,19.25,5.3,91.81,2.61,-0.12,C0Z160
卓溪,23.3443,121.3029,1.22,19.75,-1.34,81.52,1.06,-1.12,C0Z170
富世,24.14743,121.6297,0.97,20.56,-6.0,76.55,0.9,-1.1,C0Z190
萬榮,23.709219,121.420106,0.8,18.97,6.02,93.23,2.5,-0.41,C0Z200
瑞穗,23.5239,121.39021,0.84,18.83,-2.15,85.48,1.76,-1.1,C0Z210
和平林道,24.343922,121.656317,0.58,16.54,-3.26,87.13,1.21,-1.96,C0Z220
和平,24.30717,121.77007,0.57,20.22,0.69,72.77,2.15,-1.45,C0Z230
瑞穗林道,23.49284,121.30688,1.08,13.84,-1.65,94.65,3.84,-2.43,C0Z250
蕃薯寮,23.73835,121.540108,0.93,18.04,4.43,95.29,5.34,-0.59,C0Z270
德武,23.47426,121.41071,1.18,19.22,-1.19,89.06,1.61,-1.29,C0Z280
赤柯山,23.36893,121.38293,1.19,14.87,-1.52,93.16,3.87,-1.53,C0Z290
東里,23.26853,121.30547,1.04,19.29,-0.77,89.45,1.71,-0.79,C0Z300
清水斷崖,24.218294,121.689142,0.85,20.74,-4.66,74.74,0.16,-2.32,C0Z310
清水林道,23.27125,121.188272,0.68,16.17,0.14,90.77,2.85,-1.62,C0Z320
安通山,23.290728,121.348528,0.59,17.42,-2.32,87.71,2.1,-1.26,C0Z330
口湖工作站,23.589978,120.180394,0.46,19.31,0.65,75.26,0.0,-1.53,12J990
東港工作站,22.479997,120.466058,0.54,22.39,0.44,68.59,0.0,-0.19,12Q970
恆春工作站,22.079678,120.714425,1.31,24.08,1.84,66.0,0.0,-0.19,12Q980
萬大發電廠,23.978875,121.139639,1.03,17.1,-9.96,73.93,0.0,-1.94,42HA10
桃園農改場,24.950944,121.030583,1.17,18.15,7.95,87.4,1.93,-0.3,72C440
桃改五峰分場,24.612194,121.157167,2.71,14.91,-3.45,82.52,0.66,-2.52,72D080
臺中農改場,24.003028,120.534389,2.21,20.38,1.32,78.87,0.2,-0.87,72G600
中改埔里分場,23.903208,120.963364,0.92,18.15,-3.46,83.64,0.04,-2.03,72HA00
南改斗南分場,23.634556,120.477333,2.13,20.19,1.21,80.27,0.0,-1.07,72K220
南改義竹分場,23.360694,120.279361,1.49,19.75,-3.35,76.12,0.02,-0.74,72M360
南改鹿草分場,23.416869,120.283061,0.67,19.74,-1.89,76.74,0.0,-1.62,72M700
臺南農改場,23.0605,120.342194,1.44,20.53,-1.29,77.58,0.0,-0.45,72N100
七股研究中心,23.081672,120.062894,0.44,19.69,-1.6,79.44,0.0,-1.29,72N240
高雄農改場,22.709333,120.525889,1.68,22.24,3.41,80.07,0.05,-0.62,72Q010
東改班鳩分場,22.829528,121.077694,1.6,19.96,0.49,79.28,0.95,-0.84,72S200
東改賓朗果園,22.813889,121.071278,0.88,19.14,-4.57,80.18,1.29,-0.6,72S590
花蓮農改場,23.975222,121.563889,1.06,19.68,0.86,81.52,2.17,-0.16,72T250
花改蘭陽分場,24.686306,121.716583,1.41,18.65,1.28,85.17,15.2,6.25,72U480
高改旗南分場,22.857861,120.516667,1.45,21.45,9.35,83.19,0.0,-0.53,72V140
茶改北部分場,24.955778,121.631222,0.96,15.61,1.68,88.33,6.47,-0.64,82A750
茶改場,24.908472,121.185333,1.59,17.66,3.45,85.75,2.2,-1.08,82C160
茶改中部分場,23.875611,120.913583,1.27,17.53,-2.66,80.33,0.04,-1.49,82H320
茶改南部分場,23.762528,120.7405,1.3,18.5,-4.18,82.78,0.02,-1.52,82H840
茶改東部分場,22.907694,121.130139,1.2,19.9,1.43,79.71,0.89,-0.83,82S580
農工中心,24.985917,121.239833,1.31,17.98,1.45,77.48,1.86,-0.89,A2C560
畜試北區分所,24.527806,120.770972,0.7,18.32,0.15,82.06,0.48,-1.37,B2E890
畜產試驗所,23.058972,120.336406,1.53,20.14,-2.91,76.6,0.0,-0.67,B2N890
畜試南區分所,21.945583,120.802167,1.25,23.3,0.66,72.81,0.48,-0.75,B2Q810
蓮華池,23.918333,120.885278,1.98,17.97,-3.21,84.29,0.0,-1.51,E2H360
四湖植物園,23.676986,120.163433,0.63,19.86,-3.89,81.42,0.0,-1.45,E2K600
農試所(霧峰),24.031261,120.688133,2.14,20.48,-2.85,75.77,0.02,-1.06,G2F820
農試嘉義分所,23.485028,120.473806,1.65,19.73,-1.97,78.41,0.0,-1.11,G2L020
農試溪口農場,23.58565,120.408111,1.29,20.35,-5.06,76.81,0.0,-1.64,G2M350
農試鳳山分所,22.646611,120.356083,0.94,21.5,0.83,73.09,0.0,-0.74,G2P820
苗栗農改場,24.495722,120.829111,1.82,18.41,-0.45,80.14,0.05,-1.47,K2E360
苗改生物防治研究中心,24.422861,120.871833,0.6,17.26,-3.45,82.32,0.45,-1.65,K2E710
種苗改良場,24.225972,120.800917,1.56,17.2,2.16,80.72,0.04,-1.56,K2F750
溪頭,23.670306,120.798194,1.83,15.1,-0.84,86.1,0.0,-1.81,U2H480
臺大和社,23.590856,120.888864,1.6,18.03,-3.73,79.09,0.02,-1.15,U2HA30
臺大內茅埔,23.689722,120.851117,1.1,18.82,-4.15,78.92,0.0,-1.2,U2HA40
臺大竹山,23.756972,120.681556,0.79,20.02,-4.42,76.07,0.0,-1.05,U2HA50
板橋,24.997647,121.442017,1.25,19.05,5.94,81.58,2.69,-1.35,466880
蘇澳,24.596736,121.857372,1.07,18.95,4.1,85.0,41.65,20.85,467060
梧棲,24.256003,120.523381,1.59,19.52,0.95,77.1,0.28,-1.06,467770
四堵,24.8926,121.745736,1.61,16.21,-0.41,92.1,6.08,-1.8,C0A540
福山,24.776203,121.502811,1.43,15.85,-0.53,93.35,4.63,-1.28,C0A560
火燒寮,25.002719,121.742892,1.68,16.06,2.34,95.71,12.24,1.01,C0A650
瑞芳,25.113169,121.801147,1.32,17.86,8.92,94.87,32.34,12.15,C0A660
福隆,25.017842,121.942083,0.52,17.91,3.33,88.87,18.19,5.6,C0A880
富貴角,25.263783,121.565258,1.71,17.72,3.65,90.15,24.0,9.48,C0A920
大直,25.078047,121.542853,1.3,19.33,2.01,77.94,0.98,-1.19,C0A9A0
石牌,25.116342,121.513817,1.59,20.1,-2.58,70.23,1.37,-0.5,C0A9B0
士林,25.090253,121.503019,1.35,19.68,-0.08,73.42,1.37,-0.88,C0A9E0
三芝,25.258131,121.501917,0.47,17.51,6.3,86.76,22.53,9.61,C0AD00
中和,24.992647,121.490444,1.23,19.41,1.44,79.45,2.24,-2.27,C0AG90
大園,25.04775,121.225958,0.66,17.7,4.86,82.39,2.68,-0.44,C0C540
關西,24.7982,121.1739,1.72,18.15,0.97,81.45,1.26,-1.77,C0D390
香山,24.746892,120.905456,1.57,18.85,11.09,91.87,0.87,-1.05,C0D570
大湖,24.41494,120.87087,1.98,17.63,-1.93,85.23,0.44,-1.6,C0E520
三義,24.410933,120.765972,2.05,17.36,-2.53,83.74,0.61,-1.1,C0E530
後龍,24.606489,120.783933,1.89,19.32,10.71,92.75,0.4,-1.14,C0E540
卓蘭,24.312764,120.824753,1.86,18.73,2.41,85.97,0.29,-1.26,C0E790
大肚,24.15295,120.572117,1.55,18.27,-2.01,82.68,0.27,-1.1,C0F000
梨山,24.247522,121.243669,2.94,11.4,-4.51,76.87,0.16,-3.11,C0F861
大甲,24.347667,120.640403,1.93,19.43,-0.11,81.52,0.29,-1.24,C0F930
中竹林,24.103556,120.751061,2.18,19.12,-3.93,79.1,0.1,-1.38,C0F9A0
鹿港,24.0753,120.430481,1.52,19.67,-0.43,79.42,0.18,-0.77,C0G640
竹塘,23.846617,120.382486,0.93,19.71,-2.17,76.81,0.0,-1.05,C0G750
高鐵彰化,23.875247,120.574608,1.08,20.2,-2.65,78.0,0.02,-1.25,C0G760
花壇,24.016069,120.552328,1.86,20.46,0.56,77.55,0.16,-0.86,C0G790
北斗,23.877586,120.514222,1.4,19.6,2.74,84.9,0.03,-1.16,C0G840
田中,23.856778,120.588261,1.96,20.82,4.82,86.58,0.0,-1.02,C0G850
芳苑,23.922303,120.320025,1.4,19.9,-0.39,82.39,0.11,-0.98,C0G870
中寮,23.884447,120.766406,1.98,19.46,-2.43,83.71,0.0,-1.47,C0H950
鳳凰,23.728081,120.787347,2.39,17.36,-2.8,84.94,0.02,-1.64,C0I090
草嶺,23.59555,120.693461,2.63,17.24,1.47,88.9,0.02,-1.45,C0K240
古坑,23.654301,120.559754,1.12,20.18,-3.4,76.29,0.0,-1.41,C0K490
雲林東勢,23.674449,120.154778,0.97,19.92,-2.35,77.68,0.03,-0.88,C0K520
馬頭山,23.324361,120.582017,2.35,21.2,2.27,84.52,0.03,-0.74,C0M410
山美,23.383803,120.668217,1.29,19.9,2.11,86.84,0.08,-1.16,C0M830
曾文,23.219681,120.497328,2.05,21.12,-2.31,81.58,0.02,-0.67,C0O810
玉井,23.126042,120.46055,2.2,20.76,3.14,87.32,0.02,-0.63,C0O930
安南,23.076694,120.144861,1.54,20.87,2.76,82.94,0.0,-0.79,C0O950
萬丹,22.587775,120.490394,1.69,23.01,-3.08,72.42,0.0,-0.52,C0R510
林邊,22.430836,120.509983,1.29,22.21,2.85,80.0,0.0,-0.52,C0R530
甲仙,23.080106,120.591758,2.25,20.7,2.54,86.81,0.03,-0.68,C0V250
月眉,22.971003,120.539853,1.86,22.02,-4.98,73.65,0.0,-0.46,C0V260
旗津,22.5886,120.285944,2.01,22.76,2.77,76.52,0.0,-0.43,C0V500
楠梓,22.71975,120.286,1.96,22.16,-1.35,73.19,0.03,-0.31,C0V670
東引,26.358836,120.483631,0.4,13.97,5.52,82.61,0.68,-0.34,C0W170
柳營,23.257237,120.373569,1.06,20.45,-2.62,78.0,0.0,-0.99,C0X270
七股,23.147289,120.086253,1.03,20.38,-1.75,77.94,0.0,-0.92,C0X310
臺大竹山,23.756972,120.681556,0.79,20.02,-4.42,76.07,0.0,-1.05,U2HA50
臺大內茅埔,23.689722,120.851117,1.1,18.82,-4.15,78.92,0.0,-1.2,U2HA40
臺大和社,23.590856,120.888864,1.6,18.03,-3.73,79.09,0.02,-1.15,U2HA30
臺大溪頭,23.670306,120.798194,1.83,15.1,-0.84,86.1,0.0,-1.81,U2H480
種苗繁殖,24.225972,120.800917,1.56,17.2,2.16,80.72,0.04,-1.56,K2F750
苗改生物防治研究中心,24.422861,120.871833,0.6,17.26,-3.45,82.32,0.45,-1.65,K2E710
苗栗農改,24.495722,120.829111,1.82,18.41,-0.45,80.14,0.05,-1.47,K2E360
農試鳳山分所,22.646611,120.356083,0.94,21.5,0.83,73.09,0.0,-0.74,G2P820
農試溪口農場,23.58565,120.408111,1.29,20.35,-5.06,76.81,0.0,-1.64,G2M350
農試嘉義分所,23.485028,120.473806,1.65,19.73,-1.97,78.41,0.0,-1.11,G2L020
農業試驗所,24.031261,120.688133,2.14,20.48,-2.85,75.77,0.02,-1.06,G2F820
四湖植物園,23.676986,120.163433,0.63,19.86,-3.89,81.42,0.0,-1.45,E2K600
蓮華池,23.918333,120.885278,1.98,17.97,-3.21,84.29,0.0,-1.51,E2H360
畜試南區分所,21.945583,120.802167,1.25,23.3,0.66,72.81,0.48,-0.75,B2Q810
畜試所,23.058972,120.336406,1.53,20.14,-2.91,76.6,0.0,-0.67,B2N890
畜試北區分所,24.527806,120.770972,0.7,18.32,0.15,82.06,0.48,-1.37,B2E890
古坑花卉中心,23.63353,120.55239,2.81,21.97,-6.63,82.24,0.12,-1.13,A2K570
農工中心,24.985917,121.239833,1.31,17.98,1.45,77.48,1.86,-0.89,A2C560
茶改東部分場,22.907694,121.130139,1.2,19.9,1.43,79.71,0.89,-0.83,82S580
茶改南部分場,23.762528,120.7405,1.3,18.5,-4.18,82.78,0.02,-1.52,82H840
茶改中部分場,23.875611,120.913583,1.27,17.53,-2.66,80.33,0.04,-1.49,82H320
茶改場,24.908472,121.185333,1.59,17.66,3.45,85.75,2.2,-1.08,82C160
茶改北部分場,24.955778,121.631222,0.96,15.61,1.68,88.33,6.47,-0.64,82A750
高改旗南分場,22.857861,120.516667,1.45,21.45,9.35,83.19,0.0,-0.53,72V140
花改蘭陽分場,24.686306,121.716583,1.41,18.65,1.28,85.17,15.2,6.25,72U480
花蓮農改,23.975222,121.563889,1.06,19.68,0.86,81.52,2.17,-0.16,72T250
東改賓朗果園,22.813889,121.071278,0.88,19.14,-4.57,80.18,1.29,-0.6,72S590
東改班鳩分場,22.829528,121.077694,1.6,19.96,0.49,79.28,0.95,-0.84,72S200
高雄農改,22.709333,120.525889,1.68,22.24,3.41,80.07,0.05,-0.62,72Q010
七股研究中心,23.081672,120.062894,0.44,19.69,-1.6,79.44,0.0,-1.29,72N240
臺南農改,23.0605,120.342194,1.44,20.53,-1.29,77.58,0.0,-0.45,72N100
南改鹿草分場,23.416869,120.283061,0.67,19.74,-1.89,76.74,0.0,-1.62,72M700
南改義竹分場,23.360694,120.279361,1.49,19.75,-3.35,76.12,0.02,-0.74,72M360
南改斗南分場,23.634556,120.477333,2.13,20.19,1.21,80.27,0.0,-1.07,72K220
中改埔里分場,23.903208,120.963364,0.92,18.15,-3.46,83.64,0.04,-2.03,72HA00
臺中農改,24.003028,120.534389,2.21,20.38,1.32,78.87,0.2,-0.87,72G600
桃改五峰分場,24.612194,121.157167,2.71,14.91,-3.45,82.52,0.66,-2.52,72D080
桃園農改,24.950944,121.030583,1.17,18.15,7.95,87.4,1.93,-0.3,72C440
萬大發電廠,23.978875,121.139639,1.03,17.1,-9.96,73.93,0.0,-1.94,42HA10
恆春工作站,22.079678,120.714425,1.31,24.08,1.84,66.0,0.0,-0.19,12Q980
東港工作站,22.479997,120.466058,0.54,22.39,0.44,68.59,0.0,-0.19,12Q970
口湖工作站,23.589978,120.180394,0.46,19.31,0.65,75.26,0.0,-1.53,12J990
