站名,緯度,經度,平均溫距平,本年度平均溫,平均溼度距平,本年度日均相對溼度,本年度日均降水量,日均降水量距平,站號
淡水,25.164889,121.448906,0.08,28.96,1.0,76.65,6.11,-1.28,466900
鞍部,25.182586,121.529731,-0.37,22.75,4.02,91.48,9.3,-4.12,466910
臺北,25.037658,121.514853,-0.26,29.46,-1.64,70.32,6.44,-5.09,466920
竹子湖,25.162078,121.544547,-0.44,24.27,2.29,86.39,9.71,-3.79,466930
基隆,25.133314,121.740475,-0.21,28.9,0.01,73.58,3.07,-4.28,466940
花蓮,23.975128,121.613275,-0.06,28.47,1.17,78.55,10.23,1.85,466990
新屋,25.006744,121.047486,-0.35,28.65,0.65,80.63,6.91,1.02,467050
宜蘭,24.763975,121.756528,0.44,29.15,-2.22,76.06,5.37,-3.24,467080
金門,24.407306,118.289281,0.29,28.81,-2.11,80.13,6.78,2.4,467110
澎湖,23.565503,119.563094,-0.09,28.54,1.63,86.0,19.4,10.71,467350
臺南,22.993239,120.204772,-1.18,27.83,2.75,81.03,41.97,25.38,467410
永康,23.038386,120.2367,-1.15,27.39,4.99,81.9,36.52,20.09,467420
嘉義,23.495925,120.432906,-0.3,28.24,-1.21,78.28,30.66,15.48,467480
臺中,24.145736,120.684075,-0.59,27.92,6.35,83.48,15.13,3.13,467490
阿里山,23.508208,120.813242,-0.54,14.13,-2.61,89.97,28.85,2.37,467530
大武,22.355675,120.903789,-0.75,27.52,0.57,79.19,21.93,6.24,467540
玉山,23.487614,120.959522,-0.62,7.22,11.95,92.48,22.08,4.51,467550
新竹,24.827853,121.014219,0.1,29.21,-2.43,72.61,7.27,0.56,467571
恆春,22.003897,120.746339,-0.49,27.93,5.3,87.21,42.39,23.67,467590
成功,23.097486,121.373428,-0.69,27.28,2.04,81.81,16.38,5.55,467610
日月潭,23.881325,120.90805,-0.51,22.25,3.41,88.93,19.64,5.82,467650
臺東,22.752211,121.154586,-0.43,28.43,3.73,80.72,20.52,9.66,467660
馬祖,26.169269,119.923419,0.34,28.13,-2.51,83.68,4.16,0.27,467990
山佳,24.974944,121.402008,0.05,29.1,0.16,76.29,6.52,-2.7,C0A520
坪林,24.938183,121.70975,-0.3,25.86,4.05,92.52,8.97,-4.7,C0A530
泰平,24.971197,121.823711,-0.16,24.97,3.34,94.52,6.42,-6.32,C0A550
桶後,24.848222,121.597992,-0.11,25.52,2.43,90.55,9.42,-5.15,C0A570
石碇,24.993969,121.662917,-0.13,26.44,2.4,89.03,7.61,-5.74,C0A640
大坪,25.165914,121.632969,-0.1,26.36,8.24,95.26,4.53,-3.27,C0A860
五指山,25.132153,121.608692,-0.49,23.57,0.85,93.68,6.15,-2.5,C0A870
雙溪,25.036003,121.864242,-0.32,27.55,1.59,85.84,3.5,-5.1,C0A890
三和,25.233153,121.595236,-0.52,26.68,2.86,87.1,9.47,2.74,C0A931
金山,25.223628,121.643967,-0.33,28.2,6.24,85.87,4.05,-1.45,C0A940
鼻頭角,25.129036,121.923372,-0.1,28.17,1.9,87.97,2.89,-0.58,C0A950
三貂角,25.007606,122.002058,-0.03,28.09,3.76,88.16,2.06,-2.5,C0A970
社子,25.109508,121.469681,-0.39,29.29,3.67,77.77,5.69,-1.74,C0A980
天母,25.117494,121.537169,-0.39,28.96,1.04,74.68,8.45,-2.2,C0A9C0
內湖,25.079422,121.57545,-0.64,29.11,0.37,74.23,7.13,-3.3,C0A9F0
大屯山,25.175675,121.522408,-0.09,21.62,-0.67,95.03,8.32,-1.81,C0AC40
三峽,24.939025,121.369728,-0.64,28.53,6.35,83.26,8.55,-2.14,C0AC60
信義,25.037822,121.564597,-0.44,28.96,8.16,83.32,5.19,-4.93,C0AC70
文山,25.00235,121.575728,-0.61,28.12,1.1,81.06,6.73,-4.64,C0AC80
新莊,25.051478,121.446756,-1.06,29.03,3.24,73.32,6.21,-2.8,C0ACA0
八里,25.150211,121.403947,-0.53,29.13,1.43,74.77,2.65,-3.51,C0AD10
蘆洲,25.086594,121.472331,-0.22,30.07,-0.54,71.74,6.23,-2.21,C0AD30
土城,24.973208,121.445169,-0.48,28.23,1.06,78.55,4.44,-6.29,C0AD40
鶯歌,24.951533,121.346294,-0.62,28.47,7.69,86.06,7.71,-1.15,C0AD50
汐止,25.066881,121.658778,-0.11,29.08,2.92,81.23,4.18,-5.85,C0AH00
永和,25.01125,121.508111,-0.86,28.83,2.54,72.21,6.69,-1.38,C0AH10
五分山,25.07125,121.780794,-0.18,23.2,3.23,96.1,5.19,-0.44,C0AH30
平等,25.129142,121.577086,-0.88,26.02,2.55,84.13,7.95,1.48,C0AH40
林口,25.072181,121.38084,-0.66,27.44,-1.07,82.9,4.03,0.02,C0AH50
松山,25.04871,121.55042,-0.71,29.46,3.83,69.19,6.06,-1.39,C0AH70
深坑,25.002703,121.628328,-0.59,27.49,0.17,82.23,9.61,1.7,C0AH80
福山植物園,24.760717,121.58135,-0.29,23.41,-2.27,89.42,9.66,-3.46,C0AH90
五股,25.07445,121.42728,-0.39,28.08,7.15,90.23,5.47,-1.52,C0AI00
屈尺,24.92184,121.54475,-0.1,28.34,2.05,82.55,11.89,2.2,C0AI10
七堵,25.094819,121.71713,-0.42,28.57,-0.3,79.97,2.66,-3.0,C0B010
復興,24.820208,121.352281,-0.85,24.5,3.12,86.42,9.81,-4.93,C0C460
桃園,24.992425,121.323172,-0.59,28.91,5.28,74.9,8.42,0.64,C0C480
八德,24.928708,121.283289,-0.3,28.47,1.65,76.94,10.92,1.41,C0C490
觀音,25.027072,121.153317,-0.37,28.15,3.0,80.71,4.82,-1.46,C0C590
蘆竹,25.084275,121.265767,-0.72,28.21,2.41,81.1,5.94,-0.91,C0C620
大溪,24.882853,121.265547,-0.7,26.96,6.04,80.9,13.98,4.72,C0C630
平鎮,24.897503,121.214636,-0.52,27.16,4.98,82.19,8.73,1.02,C0C650
楊梅,24.912375,121.143047,-0.64,27.75,4.06,78.52,10.68,2.38,C0C660
龍潭,24.870056,121.221389,-0.41,27.16,2.76,78.71,13.42,5.33,C0C670
龜山,25.02846,121.38656,-0.79,27.15,2.94,79.9,6.63,-0.47,C0C680
中壢,24.977661,121.256375,-0.42,28.17,1.15,75.29,10.55,0.31,C0C700
梅花,24.678347,121.208558,-0.47,24.44,7.75,93.97,14.07,-1.47,C0D360
峨眉,24.6905,121.017189,-0.37,27.21,0.22,86.35,10.86,0.3,C0D430
打鐵坑,24.849664,121.150789,-0.32,26.45,4.67,89.1,16.97,7.62,C0D480
橫山,24.71116,121.11693,-0.52,26.28,2.14,87.13,14.32,2.56,C0D540
雪霸,24.526972,121.11605,-0.49,17.54,5.69,94.19,12.35,0.59,C0D550
竹東,24.767147,121.057881,-0.11,27.97,4.68,78.13,14.31,5.78,C0D560
寶山,24.735006,121.025192,-0.19,26.77,2.37,86.74,11.35,1.88,C0D580
新豐,24.87068,120.97721,1.02,29.14,1.19,81.32,6.32,0.08,C0D590
湖口,24.904794,121.043628,-1.0,27.69,0.4,76.65,6.66,1.8,C0D650
新竹市東區,24.798681,120.986942,-0.63,28.04,2.48,77.1,8.02,2.86,C0D660
竹南,24.708978,120.888897,-0.34,28.28,2.07,79.0,5.53,-0.69,C0E420
南庄,24.601775,121.000214,-0.33,25.88,2.88,88.23,13.21,-1.51,C0E430
明德,24.583486,120.885411,-0.62,27.51,1.96,83.45,12.03,1.05,C0E550
通霄,24.471892,120.704622,0.08,28.34,1.74,85.61,10.52,-0.14,C0E590
馬都安,24.451272,120.930192,-0.41,22.96,-0.02,87.61,7.31,-6.8,C0E610
頭份,24.688247,120.912206,0.56,29.75,5.48,78.77,5.74,-1.2,C0E730
造橋,24.637056,120.864778,-0.37,28.35,5.71,86.84,7.0,-1.95,C0E740
苗栗,24.564569,120.824575,-0.45,28.69,1.04,75.19,7.9,-1.86,C0E750
銅鑼,24.489681,120.790853,-0.31,27.8,0.45,81.1,11.73,0.22,C0E780
西湖,24.562947,120.7485,0.54,28.53,-3.27,82.84,5.69,-3.33,C0E810
獅潭,24.539133,120.920042,-0.41,26.44,-2.49,83.35,9.31,-4.25,C0E820
苑裡,24.439714,120.653053,-0.76,28.27,10.01,87.97,9.95,2.06,C0E830
大河,24.618069,120.948578,-0.46,27.24,3.11,85.61,14.03,5.18,C0E850
高鐵苗栗,24.60725,120.826094,-0.46,28.48,0.48,76.84,8.31,2.85,C0E870
雪山圈谷,24.388594,121.236339,-0.4,8.23,4.53,88.48,12.94,1.06,C0F0A0
石岡,24.276061,120.777644,-0.65,26.2,3.94,88.55,17.6,3.3,C0F0B0
中坑,24.248517,120.903319,-0.55,21.93,0.55,95.26,20.0,1.24,C0F0C0
審馬陣,24.381675,121.4203,-0.34,11.18,4.16,87.39,11.92,-0.64,C0F0D0
南湖圈谷,24.363714,121.444667,0.0,8.92,0.0,86.19,11.05,0.0,C0F0E0
東勢,24.246428,120.833047,-0.39,26.07,1.97,84.55,21.68,3.26,C0F850
大坑,24.173142,120.722289,-0.84,27.48,1.56,79.13,16.32,0.98,C0F970
神岡,24.272481,120.658314,-0.2,27.73,2.42,85.23,14.0,1.48,C0F9I0
大安,24.345061,120.588025,-0.63,28.28,-1.58,80.45,11.92,2.41,C0F9K0
后里,24.310436,120.729725,-0.11,27.72,2.68,85.06,12.81,0.23,C0F9L0
豐原,24.254322,120.720692,-0.68,27.1,8.62,87.71,14.81,0.16,C0F9M0
大里,24.092464,120.701378,-0.49,28.69,1.67,77.9,18.02,4.65,C0F9N0
潭子,24.213106,120.703933,-0.61,28.16,4.39,82.26,17.21,2.27,C0F9O0
清水,24.312297,120.562242,-0.19,29.08,-2.64,80.26,13.66,3.86,C0F9P0
外埔,24.347817,120.705686,-0.3,27.77,9.45,94.13,9.27,-1.39,C0F9Q0
龍井,24.184536,120.528972,-0.43,28.69,0.76,84.45,16.18,5.52,C0F9R0
烏日,24.107058,120.624103,-0.05,28.98,0.49,77.26,14.55,2.68,C0F9S0
西屯,24.179494,120.641275,-0.57,28.31,0.68,78.19,14.76,3.71,C0F9T0
南屯,24.137006,120.637969,-0.5,28.81,1.2,77.97,13.66,1.86,C0F9U0
新社,24.200172,120.815806,-0.96,24.69,5.99,91.52,17.69,1.02,C0F9V0
大雅(中科園區),24.21528,120.62445,-0.47,27.64,0.03,81.06,15.03,5.06,C0F9X0
桃山,24.432739,121.303808,-0.31,10.54,4.27,88.1,10.66,2.34,C0F9Y0
雪山東峰,24.388792,121.268675,-0.39,11.26,4.97,86.42,10.4,1.04,C0F9Z0
芬園,24.015678,120.6213,-0.6,27.21,0.23,85.26,15.48,3.81,C0G620
員林,23.946503,120.585597,-0.46,28.26,2.41,85.19,17.11,7.87,C0G650
溪湖,23.94835,120.479122,-0.41,28.06,2.42,88.45,12.45,1.88,C0G660
溪州,23.851589,120.499093,-0.48,27.71,-0.32,82.35,12.19,3.51,C0G720
二林,23.903325,120.376081,-0.43,27.9,0.16,90.0,11.65,3.8,C0G730
大城,23.852487,120.320935,-0.63,27.73,-2.71,80.03,13.79,5.84,C0G740
福興,24.041289,120.437669,-1.1,28.39,5.84,89.45,16.19,6.4,C0G770
秀水,24.03405,120.503869,-0.85,28.36,2.65,85.13,13.53,3.66,C0G780
埔鹽,24.000394,120.431683,-0.68,28.07,-1.37,83.52,14.56,5.21,C0G800
田尾,23.901669,120.509389,-0.54,28.21,3.47,89.42,11.9,1.4,C0G820
埤頭,23.866003,120.452806,-0.84,27.95,-1.86,87.48,12.95,2.82,C0G830
社頭,23.897647,120.5862,-0.61,28.61,1.37,78.16,17.23,4.54,C0G860
二水,23.810742,120.6173,-0.42,27.89,6.74,88.74,15.71,0.68,C0G880
伸港,24.148933,120.484403,-0.26,28.94,1.47,84.81,15.85,6.41,C0G890
埔里,23.972169,120.952425,-0.41,25.95,5.07,89.07,14.94,3.38,C0H890
草屯,23.973672,120.68085,-0.45,27.99,1.75,81.55,12.81,1.79,C0H960
昆陽,24.121322,121.273642,-0.43,11.07,8.02,95.75,11.18,1.03,C0H990
神木村,23.532742,120.843667,-0.43,18.93,-1.16,91.87,22.97,3.78,C0H9A0
合歡山,24.143442,121.272547,0.12,10.54,4.27,90.55,11.94,-2.12,C0H9C0
廬山,24.033311,121.181808,-0.76,19.36,9.69,96.45,12.42,1.76,C0I010
信義,23.689694,120.851036,-0.68,24.55,5.54,93.94,14.31,5.15,C0I080
竹山,23.761225,120.688156,-0.42,26.81,3.07,88.19,15.39,0.55,C0I110
水里,23.812553,120.849792,-0.77,26.02,8.7,92.42,16.44,5.88,C0I360
魚池,23.895703,120.94135,-0.69,24.11,5.54,93.74,18.24,5.51,C0I370
集集,23.828206,120.801467,-0.8,26.45,2.85,88.87,18.74,5.19,C0I380
仁愛,24.022122,121.132206,-0.51,21.4,0.04,87.16,13.69,3.9,C0I390
名間,23.837053,120.701447,-0.79,26.71,6.01,89.81,12.81,2.92,C0I410
國姓,24.037803,120.855072,-0.47,26.59,6.72,93.55,11.24,-0.03,C0I420
南投,23.911469,120.687331,-0.75,27.95,1.01,80.52,14.34,4.09,C0I460
梅峰,24.085272,121.173572,-0.55,15.88,4.01,94.23,17.06,4.5,C0I480
萬大林道,23.928228,121.091411,-0.73,18.87,6.07,97.77,16.21,6.17,C0I490
小奇萊,24.131764,121.295717,-0.14,11.12,2.01,90.65,10.11,-5.08,C0I530
奇萊稜線,24.109231,121.326456,-0.01,9.78,6.21,98.19,9.98,0.0,C0I540
崙背,23.75555,120.318925,-0.62,27.64,-0.16,85.48,12.98,5.62,C0K250
四湖,23.630414,120.227125,-0.61,27.9,-0.32,83.87,18.26,10.24,C0K280
宜梧,23.536281,120.169329,-0.62,27.97,-0.02,83.29,28.94,16.89,C0K291
虎尾,23.719183,120.442036,-0.74,28.04,-1.68,79.48,17.65,6.44,C0K330
土庫,23.679029,120.395574,-0.53,27.89,0.65,81.45,14.97,5.98,C0K390
斗六,23.720583,120.541127,-0.55,27.66,1.8,84.84,20.26,7.73,C0K400
北港,23.573957,120.292802,-0.55,27.86,-2.5,80.81,14.18,5.77,C0K410
西螺,23.800407,120.467394,-0.43,27.98,6.5,90.71,13.76,4.24,C0K420
褒忠,23.690938,120.303634,-0.57,27.73,-1.36,81.65,15.61,7.08,C0K430
二崙,23.772797,120.408944,-0.65,27.84,-1.58,81.97,14.11,5.95,C0K440
大埤,23.646074,120.431537,-0.51,27.9,2.36,83.97,20.71,9.27,C0K450
斗南,23.678734,120.478359,-0.49,27.76,-0.87,79.16,23.55,10.58,C0K460
林內,23.748675,120.609642,-0.66,26.99,-3.48,82.48,18.16,4.8,C0K470
莿桐,23.761192,120.502372,-0.51,27.81,-1.63,79.52,16.55,5.66,C0K480
元長,23.64981,120.315024,-0.59,27.98,0.22,81.13,20.27,10.0,C0K500
水林,23.572924,120.24597,-0.65,27.95,-0.64,80.39,17.05,7.66,C0K510
臺西,23.701547,120.197559,-0.45,27.86,-1.1,82.61,14.71,5.39,C0K530
蔦松,23.514319,120.229736,-0.81,27.81,3.37,87.26,13.68,5.96,C0K550
棋山,23.68645,120.603417,-0.68,27.05,4.81,89.48,19.53,4.33,C0K560
高鐵雲林,23.737456,120.417944,-0.71,27.76,0.83,87.1,14.8,4.96,C0K580
東後寮,23.369908,120.248065,-0.71,27.23,1.56,86.65,30.29,16.84,C0M520
奮起湖,23.493903,120.699253,-0.66,19.29,1.12,96.26,40.15,13.74,C0M530
中埔,23.42538,120.5229,-0.55,26.93,-0.17,81.81,29.71,10.12,C0M640
朴子,23.43463,120.23902,-0.5,27.75,-1.69,81.93,27.66,15.26,C0M650
溪口,23.604131,120.403569,-0.55,27.7,-3.25,80.9,21.05,10.48,C0M660
大林,23.600616,120.45841,-0.53,27.85,-0.99,79.84,25.52,11.57,C0M670
太保,23.455062,120.331455,-0.63,27.83,-3.36,81.0,27.52,13.79,C0M680
水上,23.419734,120.388909,-0.61,27.34,-0.76,82.29,28.5,14.84,C0M690
竹崎,23.526178,120.555508,-0.61,26.5,-1.82,83.74,31.82,12.42,C0M700
東石,23.458927,120.15385,-0.6,28.0,-0.48,81.81,26.21,14.08,C0M710
番路,23.464657,120.554156,-0.59,26.34,-0.12,81.19,30.55,11.55,C0M720
嘉義市東區,23.457673,120.460531,-0.65,27.81,-2.12,80.23,25.18,8.0,C0M730
六腳,23.492871,120.290625,-0.51,27.82,-0.24,81.84,22.15,11.31,C0M740
布袋,23.380878,120.167789,-0.73,27.87,2.94,86.29,27.11,14.64,C0M750
民雄,23.551754,120.428457,-0.58,27.94,0.83,83.42,26.58,12.68,C0M760
嘉義梅山,23.585398,120.555587,-0.52,26.98,-2.65,80.74,30.55,11.95,C0M770
鹿草,23.41134,120.30835,-0.71,27.67,0.7,82.45,35.52,20.33,C0M780
新港,23.553269,120.345728,-0.67,27.94,-0.07,81.77,25.23,13.14,C0M790
茶山,23.299075,120.664767,-0.93,24.1,4.7,93.39,36.32,12.87,C0M800
里佳,23.389125,120.716647,-0.74,19.51,0.05,92.35,36.81,13.88,C0M810
達邦,23.453994,120.749517,-0.73,21.43,1.89,89.55,24.21,8.99,C0M820
表湖,23.24186,120.64166,-0.48,22.89,-0.19,92.97,46.27,9.09,C0M850
北寮,23.079561,120.495008,-0.67,26.38,3.44,90.97,34.82,12.45,C0O830
王爺宮,23.222064,120.40085,-1.41,25.81,8.87,97.1,39.84,20.96,C0O840
大內,23.11885,120.36083,-0.94,27.32,1.84,87.97,35.82,13.03,C0O860
善化,23.112883,120.297219,-1.04,27.13,2.09,88.35,38.77,22.91,C0O900
崎頂,22.959547,120.369317,-0.85,26.14,5.76,93.56,43.69,20.83,C0O960
虎頭埤,23.021375,120.347878,-0.27,27.25,10.1,97.09,11.42,-7.99,C0O970
新市,23.061614,120.298197,-1.18,26.94,7.52,93.58,40.79,18.0,C0O980
媽廟,22.99175,120.293525,-1.24,26.8,4.27,90.65,44.61,23.87,C0O990
尾寮山,22.833111,120.683889,-0.83,21.01,3.95,98.19,52.98,21.36,C0R100
阿禮,22.742908,120.743678,-1.02,21.2,6.15,95.0,36.95,15.08,C0R130
瑪家,22.682903,120.686639,-0.95,22.7,5.12,95.39,61.74,28.34,C0R140
三地門,22.709889,120.639944,-0.94,26.6,0.28,84.0,47.68,24.5,C0R150
鹽埔,22.739558,120.530778,-0.97,26.59,2.72,94.16,43.76,18.84,C0R160
屏東,22.660269,120.494072,-0.84,26.82,8.78,95.61,49.55,24.23,C0R170
赤山,22.592333,120.614306,-0.82,26.83,7.92,95.9,43.52,17.07,C0R190
潮州,22.534361,120.54,-0.87,27.04,6.02,89.13,41.03,20.74,C0R220
來義,22.527306,120.625111,-0.56,26.58,1.27,88.77,47.84,20.16,C0R240
春日,22.370361,120.628306,-0.84,26.3,3.59,91.97,51.94,24.51,C0R260
琉球嶼,22.332244,120.362236,-0.96,27.12,2.27,92.23,35.66,21.08,C0R270
高樹,22.826389,120.600806,-0.72,27.06,6.19,89.84,48.69,22.5,C0R470
長治,22.693128,120.542622,-0.79,27.01,6.57,93.32,46.44,19.71,C0R480
九如,22.7405,120.490503,-1.28,26.73,7.25,94.52,43.48,17.87,C0R490
崁頂,22.514781,120.506914,-0.79,27.37,8.19,92.97,42.26,17.83,C0R520
佳冬,22.419456,120.552375,-0.8,27.39,5.03,89.87,43.37,19.64,C0R540
新埤,22.467947,120.582894,-0.56,27.16,3.61,90.77,39.27,15.05,C0R550
新園,22.5434,120.461558,-1.06,27.12,2.98,88.89,51.85,25.03,C0R560
麟洛,22.65078,120.52719,-1.23,26.85,-2.37,84.06,47.42,22.69,C0R570
南州,22.48591,120.50274,-1.07,26.91,10.47,93.5,40.71,17.36,C0R580
里港,22.77919,120.49459,-0.88,26.85,1.34,88.71,40.15,16.32,C0R590
舊泰武,22.588194,120.664944,-0.68,23.2,3.48,92.19,56.18,24.15,C0R600
墾雷,21.900836,120.855269,-0.61,27.35,0.94,88.23,34.11,14.62,C0R620
東港,22.46247,120.44074,-0.57,27.45,-2.27,86.0,37.73,9.65,C0R640
竹田,22.58486,120.54344,-0.66,27.02,-1.07,89.07,42.73,11.75,C0R650
大禹嶺,24.186117,121.316086,-0.62,12.78,2.76,91.35,6.47,-1.97,C0T790
天祥,24.179597,121.495639,0.51,25.04,1.57,81.42,4.98,-8.5,C0T820
鯉魚潭,23.935639,121.508944,-0.27,26.25,1.58,86.52,10.34,-0.04,C0T870
西林,23.8119,121.441458,-0.58,26.63,5.59,81.23,9.55,-0.89,C0T900
光復,23.660694,121.424964,-0.35,26.96,-2.31,81.55,7.63,-2.17,C0T960
月眉山,23.809928,121.539828,-0.41,24.72,0.22,89.32,8.32,-0.4,C0T9A0
水源,23.991861,121.537169,-0.34,24.38,7.42,91.9,16.06,4.54,C0T9B0
和中,24.26676,121.74103,-0.77,27.33,-2.69,85.23,14.9,3.95,C0T9D0
大坑,23.880628,121.581981,0.09,25.79,-0.24,84.41,3.62,-5.06,C0T9E0
水璉,23.797131,121.542514,-0.73,26.48,-0.26,81.52,8.63,-0.74,C0T9F0
鳳林山,23.735269,121.420131,-1.14,24.5,1.71,88.52,10.24,0.58,C0T9G0
加路蘭山,23.682947,121.5274,-0.2,24.54,1.16,85.84,9.06,0.87,C0T9H0
豐濱,23.583897,121.514806,-0.38,26.58,-0.46,83.48,8.66,0.23,C0T9I0
雙連埤,24.753033,121.641303,0.36,24.97,-4.83,89.03,5.05,-5.38,C0U520
礁溪,24.817539,121.765608,0.24,28.64,-3.53,80.29,7.42,-1.78,C0U600
玉蘭,24.675286,121.587061,-0.07,25.87,-1.28,80.65,3.76,-7.34,C0U650
太平山,24.505486,121.525656,-0.69,16.64,2.42,95.26,12.35,-9.49,C0U710
南山,24.43742,121.38167,-0.83,21.03,-3.39,88.52,9.68,1.36,C0U720
龜山島,24.841667,121.953133,-1.02,25.35,0.56,93.26,2.06,-0.52,C0U750
東澳,24.52196,121.83318,-0.73,27.72,-0.06,84.1,8.95,-3.16,C0U760
南澳,24.44935,121.81022,-1.03,27.35,-4.01,80.48,8.05,-1.79,C0U770
五結,24.68637,121.79794,-0.39,28.6,-3.2,74.87,3.4,-3.47,C0U780
頭城,24.85323,121.8308,-0.47,28.7,-1.28,83.53,3.45,-0.36,C0U860
大礁溪,24.791042,121.675047,-0.18,25.37,1.51,86.52,5.94,-3.49,C0U870
三星,24.66812,121.65302,-0.11,27.83,-7.71,79.03,5.24,-1.09,C0U890
內城,24.71813,121.68766,-0.16,27.96,-2.45,79.0,3.56,-1.4,C0U900
冬山,24.63373,121.7937,-0.18,28.47,0.02,75.77,3.73,-1.52,C0U910
羅東,24.68184,121.74934,-0.02,28.61,-0.73,75.65,3.08,-1.8,C0U940
鶯子嶺,24.89754,121.79244,-0.31,21.56,1.64,96.13,7.48,-3.09,C0U950
翠峰湖,24.510856,121.608044,-0.34,16.9,2.18,94.55,9.39,-5.02,C0U960
大福,24.80064,121.81389,-0.34,28.29,1.08,82.94,3.39,-1.12,C0U970
坪林石牌,24.86478,121.77396,-0.29,24.2,2.13,94.52,6.16,-2.42,C0U980
員山,24.74435,121.72247,-0.39,28.19,-1.16,77.74,2.82,-2.82,C0U990
土場,24.576533,121.495333,0.0,26.38,-2.94,84.87,10.1,0.48,C0UA00
鴛鴦湖,24.590269,121.412228,-0.17,18.33,-1.16,91.77,15.66,2.13,C0UA10
多加屯,24.368614,121.373189,-0.29,13.12,4.16,94.13,10.02,-1.01,C0UA20
白嶺,24.527819,121.519031,-0.1,20.49,-1.92,92.77,10.81,-1.75,C0UA30
西德山,24.560647,121.752608,-0.25,21.59,2.6,93.45,6.42,-3.49,C0UA40
西帽山,24.555361,121.802628,-0.25,23.39,-1.91,88.94,7.77,-1.86,C0UA50
樟樹山,24.41393,121.78325,-0.45,24.66,3.92,91.77,8.74,-0.42,C0UA60
桃源谷,24.962606,121.888875,-0.16,24.74,-3.09,92.35,6.87,0.08,C0UA70
復興,23.222403,120.806089,-0.71,23.15,5.18,90.35,28.95,9.44,C0V210
溪埔,22.738578,120.446797,-1.13,26.61,5.73,91.45,46.61,21.63,C0V350
內門,22.975481,120.466769,-0.69,26.4,2.48,91.48,47.39,24.63,C0V360
古亭坑,22.893178,120.401947,-1.35,25.92,6.5,95.74,44.27,25.05,C0V370
阿公店,22.804194,120.355528,-1.34,26.45,5.05,90.74,40.66,17.63,C0V400
鳳山,22.646653,120.356122,-0.99,27.3,-2.34,83.13,53.4,27.65,C0V440
鳳森,22.545064,120.392592,-1.04,26.69,5.87,94.52,49.23,23.95,C0V450
新興,22.627422,120.298803,-0.83,28.01,5.95,88.45,50.71,29.32,C0V490
阿蓮,22.883208,120.327508,-0.84,27.53,9.71,94.52,50.63,26.87,C0V530
梓官,22.760558,120.267211,-0.91,27.69,1.62,84.23,52.61,28.85,C0V610
永安,22.82315,120.236856,-1.17,27.23,5.81,93.19,46.45,25.62,C0V620
茄萣,22.906642,120.182608,-1.08,27.57,2.06,83.06,42.1,20.18,C0V630
湖內,22.887139,120.2445,-1.51,26.85,6.91,92.42,46.16,25.01,C0V640
彌陀,22.783806,120.246361,-1.19,27.15,2.8,89.9,50.84,29.23,C0V650
岡山,22.797078,120.294958,-1.33,27.42,6.73,87.77,50.24,25.53,C0V660
仁武,22.701083,120.347722,-1.61,26.95,6.28,88.3,47.92,22.48,C0V680
鼓山,22.623325,120.275575,-0.73,27.93,3.2,85.38,41.89,20.71,C0V690
三民,22.645017,120.311233,-0.76,28.19,3.46,80.42,50.56,25.65,C0V700
苓雅,22.622742,120.330669,-1.24,27.47,8.0,85.45,51.48,26.8,C0V710
林園,22.507747,120.394511,-0.89,28.11,4.05,83.81,42.42,19.42,C0V720
大寮,22.605614,120.395717,-1.18,27.42,3.0,85.87,49.26,22.35,C0V730
旗山,22.888614,120.483597,-1.26,26.5,4.06,88.68,45.06,20.17,C0V740
路竹,22.854997,120.259439,-1.04,27.57,5.69,88.68,48.56,26.14,C0V750
橋頭,22.757806,120.30575,-0.46,28.32,3.12,86.0,51.77,26.84,C0V760
大社,22.730306,120.346639,-1.2,27.28,9.26,91.45,53.29,24.91,C0V770
萬山,22.905944,120.688056,-0.73,24.52,2.71,91.35,40.08,18.04,C0V790
六龜,22.997889,120.633583,-1.18,25.51,4.56,88.45,49.82,23.49,C0V800
左營,22.67491,120.28491,-0.75,27.78,5.98,91.39,46.61,26.51,C0V810
東莒,25.9652,119.98069,-0.52,27.37,2.54,85.48,2.82,1.24,C0W110
西嶼,23.5626,119.468436,-0.15,27.04,3.02,94.9,18.48,10.76,C0W120
花嶼,23.40007,119.32276,-0.31,27.36,-0.09,88.79,11.85,6.14,C0W130
金沙,24.488292,118.408778,-0.56,28.29,6.24,87.71,7.45,4.0,C0W140
金寧,24.457703,118.328989,-0.62,29.0,6.6,87.97,8.11,4.71,C0W150
烏坵,24.9944,119.44956,-0.24,27.4,-1.74,86.74,5.15,2.52,C0W160
東河,23.296598,120.385608,-0.65,27.39,-1.59,83.81,35.26,17.73,C0X050
下營,23.22695,120.256261,-0.82,27.17,0.71,86.77,33.19,17.9,C0X060
佳里,23.173039,120.145086,-1.28,27.53,2.63,87.81,37.02,24.83,C0X080
臺南市北區,23.010394,120.194228,-0.82,28.27,8.12,87.16,42.82,22.08,C0X100
臺南市南區,22.961189,120.188378,-1.04,27.83,4.88,89.1,41.73,20.62,C0X110
麻豆,23.183289,120.248611,-0.9,27.79,3.59,85.97,39.0,20.57,C0X120
官田,23.193217,120.315422,-0.67,27.83,5.21,90.0,37.6,17.23,C0X130
西港,23.125608,120.203108,-0.61,28.17,3.16,85.42,40.65,21.31,C0X140
安定,23.102614,120.227839,-0.75,27.85,5.91,89.58,40.39,20.23,C0X150
仁德,22.968258,120.257689,-1.19,27.34,2.39,85.9,44.55,21.41,C0X160
關廟,22.963017,120.327797,-0.72,27.74,4.08,84.68,46.66,22.56,C0X170
山上,23.0757,120.363253,-1.11,26.71,2.23,87.58,39.6,15.71,C0X180
安平,22.993161,120.152181,-1.1,27.79,7.19,90.77,43.23,23.34,C0X190
左鎮,23.056758,120.408522,-1.24,26.12,6.34,94.0,37.81,15.03,C0X200
白河,23.347466,120.414427,-0.66,27.29,-1.7,82.26,30.18,13.98,C0X210
學甲,23.230367,120.182187,-1.01,27.07,0.73,83.23,33.76,19.86,C0X220
鹽水,23.272621,120.247641,-0.74,27.29,6.61,91.61,28.56,15.23,C0X230
關子嶺,23.331169,120.508025,-0.59,25.13,-1.83,85.58,48.39,21.05,C0X240
新營,23.310689,120.316681,-0.69,27.75,-1.67,80.94,33.13,17.63,C0X250
後壁,23.366358,120.362326,-0.65,27.49,3.72,88.16,28.03,13.19,C0X260
將軍,23.214999,120.13577,-0.79,27.45,0.58,84.1,35.84,21.69,C0X280
北門,23.267772,120.125481,-0.94,27.63,2.11,84.65,32.35,19.34,C0X290
鹿寮,23.386047,120.477331,-0.63,26.74,1.11,88.61,29.48,9.3,C0X300
明里,23.208717,121.262342,-0.37,26.29,-0.25,85.06,15.74,4.31,C0Z020
佳心,23.34567,121.21316,-0.74,22.28,4.25,88.26,10.29,-0.32,C0Z050
玉里,23.3215,121.339656,-0.38,26.9,0.42,82.71,7.84,-1.28,C0Z061
舞鶴,23.46811,121.37407,-0.07,26.23,-2.38,84.87,7.48,-0.21,C0Z070
富源,23.587642,121.378225,-0.25,26.12,-0.6,86.13,8.48,-1.23,C0Z080
東華,23.89525,121.549833,-0.43,27.49,1.57,82.9,14.1,4.81,C0Z100
吉安光華,23.930925,121.595153,-0.53,27.26,1.55,86.1,12.27,5.13,C0Z150
鳳林,23.746114,121.453411,-0.65,27.02,3.74,83.61,7.21,-1.4,C0Z160
卓溪,23.3443,121.3029,-0.74,26.41,1.15,82.58,8.42,-1.04,C0Z170
新城,24.03946,121.60454,-0.4,27.7,2.96,83.9,11.65,2.9,C0Z180
富世,24.14743,121.6297,-0.39,27.9,-9.06,75.1,9.18,0.45,C0Z190
萬榮,23.709219,121.420106,-0.66,26.63,5.93,88.32,8.79,0.34,C0Z200
瑞穗,23.5239,121.39021,-0.27,26.84,-3.05,79.87,7.29,-1.99,C0Z210
和平林道,24.343922,121.656317,-0.43,24.5,-0.2,88.16,8.03,-2.26,C0Z220
和平,24.30717,121.77007,-0.64,27.85,3.11,78.74,5.66,-0.79,C0Z230
瑞穗林道,23.49284,121.30688,-0.38,21.52,-0.82,91.23,14.58,0.51,C0Z250
蕃薯寮,23.73835,121.540108,-0.53,25.56,2.95,90.3,6.97,-1.48,C0Z270
德武,23.47426,121.41071,0.17,27.11,-1.41,83.77,7.44,-2.35,C0Z280
赤柯山,23.36893,121.38293,-0.38,22.33,1.22,88.52,3.39,-7.61,C0Z290
東里,23.26853,121.30547,-0.21,26.88,-1.76,85.74,9.65,-1.42,C0Z300
清水斷崖,24.218294,121.689142,-0.17,27.75,-2.27,79.13,14.74,3.74,C0Z310
清水林道,23.27125,121.188272,-0.12,23.96,1.92,86.94,9.77,-2.74,C0Z320
安通山,23.290728,121.348528,-0.39,25.09,-0.8,82.94,11.19,0.22,C0Z330
桃園農改場,24.950944,121.030583,-0.05,28.4,-1.67,80.38,5.62,0.66,72C440
桃改五峰分場,24.612194,121.157167,0.02,22.03,2.03,92.55,13.47,-2.71,72D080
臺中農改場,24.003028,120.534389,-0.45,28.09,-0.13,83.41,20.33,11.8,72G600
南改斗南分場,23.634556,120.477333,-0.64,27.52,4.82,88.31,24.91,11.19,72K220
南改義竹分場,23.360694,120.279361,-0.92,27.52,-1.66,83.9,37.98,25.71,72M360
臺南農改場,23.0605,120.342194,-1.22,26.78,8.67,92.83,43.72,20.39,72N100
高雄農改場,22.709333,120.525889,-1.42,26.68,6.28,91.38,40.38,21.73,72Q010
東改班鳩分場,22.829528,121.077694,-0.4,26.35,3.05,85.45,16.62,4.93,72S200
東改賓朗果園,22.813889,121.071278,-1.0,25.24,0.03,88.28,15.67,4.1,72S590
花蓮農改場,23.975222,121.563889,-0.27,27.48,1.16,82.07,15.9,6.94,72T250
花改蘭陽分場,24.686306,121.716583,0.23,28.49,-2.54,78.48,2.59,-5.2,72U480
高改旗南分場,22.857861,120.516667,-2.16,26.29,15.56,94.55,40.24,23.61,72V140
茶改北部分場,24.955778,121.631222,-0.8,25.19,3.11,86.76,10.1,-2.74,82A750
茶改場,24.908472,121.185333,-0.37,27.43,-1.92,80.62,11.6,3.64,82C160
茶改中部分場,23.875611,120.913583,-1.64,22.11,2.63,91.29,19.59,7.39,82H320
茶改南部分場,23.762528,120.7405,-0.95,25.03,-2.03,88.83,18.43,4.61,82H840
茶改東部分場,22.907694,121.130139,-0.99,26.42,3.46,86.6,17.22,6.19,82S580
農工中心,24.985917,121.239833,-0.67,28.16,3.51,75.76,10.07,2.73,A2C560
畜試北區分所,24.527806,120.770972,-0.37,27.21,-0.11,85.14,1.86,-2.95,B2E890
畜產試驗所,23.058972,120.336406,-1.12,26.64,0.01,86.92,28.54,10.77,B2N890
畜試南區分所,21.945583,120.802167,-1.46,26.7,1.78,86.14,40.25,24.73,B2Q810
農試所(霧峰),24.031261,120.688133,-0.49,27.79,2.27,85.73,23.52,12.49,G2F820
農試嘉義分所,23.485028,120.473806,-0.89,26.64,1.53,84.76,30.29,9.69,G2L020
農試鳳山分所,22.646611,120.356083,-1.68,26.81,6.58,87.69,52.59,33.65,G2P820
苗栗農改場,24.495722,120.829111,-0.24,27.67,-1.89,80.83,11.81,1.72,K2E360
苗改生物防治研究中心,24.422861,120.871833,-0.23,25.83,-1.24,86.37,13.43,-0.22,K2E710
種苗改良場,24.225972,120.800917,-0.81,24.98,3.2,85.28,17.41,1.67,K2F750
溪頭,23.670306,120.798194,-0.33,20.33,2.62,95.08,24.92,10.65,U2H480
臺大竹山,23.756972,120.681556,-0.39,26.76,-3.44,82.24,17.81,0.5,U2HA50
板橋,24.997647,121.442017,-0.27,29.03,1.78,74.28,7.06,-3.89,466880
蘇澳,24.596736,121.857372,-0.11,28.44,-0.5,77.2,4.11,-4.84,467060
梧棲,24.256003,120.523381,-0.55,28.28,1.01,78.84,17.77,8.73,467770
四堵,24.8926,121.745736,-0.09,25.26,0.86,90.58,9.08,-6.38,C0A540
福山,24.776203,121.502811,-0.07,25.46,-0.12,89.45,7.44,-9.06,C0A560
屈尺,24.922422,121.546333,0.32,28.34,3.52,82.55,11.89,-1.96,C0A580
火燒寮,25.002719,121.742892,-0.03,25.65,2.73,91.29,6.08,-6.53,C0A650
瑞芳,25.113169,121.801147,-0.18,27.82,9.72,94.94,3.52,-5.07,C0A660
福隆,25.017842,121.942083,-0.51,27.49,-0.17,84.87,6.21,-0.86,C0A880
富貴角,25.263783,121.565258,0.07,27.71,0.17,84.65,5.68,-0.91,C0A920
大直,25.078047,121.542853,-0.21,29.23,-1.05,72.1,10.06,-0.09,C0A9A0
石牌,25.116342,121.513817,-0.29,29.58,0.44,72.1,8.48,-0.52,C0A9B0
士林,25.090253,121.503019,-0.32,29.45,1.56,72.77,7.27,-1.84,C0A9E0
三芝,25.258131,121.501917,-0.93,28.3,6.08,82.77,4.47,-1.46,C0AD00
中和,24.992647,121.490444,-0.52,29.32,1.97,74.48,5.4,-6.6,C0AG90
大園,25.04775,121.225958,-0.27,29.08,6.11,79.65,6.4,0.17,C0C540
關西,24.7982,121.1739,-0.56,26.91,3.18,85.52,21.27,9.71,C0D390
香山,24.746892,120.905456,-0.27,28.34,8.03,89.74,7.4,0.86,C0D570
大湖,24.41494,120.87087,-0.16,26.06,2.0,89.87,12.24,-2.66,C0E520
三義,24.410933,120.765972,-0.03,26.16,0.08,85.42,13.92,1.49,C0E530
後龍,24.606489,120.783933,0.37,29.05,8.22,92.0,5.63,-2.22,C0E540
卓蘭,24.312764,120.824753,-0.55,26.53,7.42,91.13,19.71,3.85,C0E790
大肚,24.15295,120.572117,-0.7,26.26,-0.96,88.55,16.26,2.15,C0F000
梨山,24.247522,121.243669,0.18,16.85,4.8,91.58,7.95,-4.32,C0F861
大甲,24.347667,120.640403,-0.46,27.9,7.9,95.97,10.39,-0.6,C0F930
中竹林,24.103556,120.751061,-0.24,25.67,-0.04,87.87,18.61,1.1,C0F9A0
鹿港,24.0753,120.430481,-0.68,28.24,-1.76,83.45,14.58,7.08,C0G640
竹塘,23.846617,120.382486,-0.5,27.93,-1.8,81.29,12.6,5.1,C0G750
高鐵彰化,23.875247,120.574608,-0.57,28.01,-4.86,81.42,15.63,3.58,C0G760
花壇,24.016069,120.552328,-0.38,28.59,0.81,84.19,17.65,6.31,C0G790
北斗,23.877586,120.514222,-0.52,28.12,2.28,87.87,12.34,1.01,C0G840
田中,23.856778,120.588261,-0.61,28.51,8.4,92.1,15.06,2.09,C0G850
芳苑,23.922303,120.320025,-0.38,28.22,1.58,91.13,9.39,-1.29,C0G870
中寮,23.884447,120.766406,-0.56,26.4,3.54,91.26,15.77,0.45,C0H950
鳳凰,23.728081,120.787347,-0.31,22.5,3.55,95.35,22.76,5.64,C0I090
草嶺,23.59555,120.693461,-0.17,21.51,3.04,96.55,25.44,4.97,C0K240
古坑,23.654301,120.559754,-0.6,27.03,-0.41,82.35,22.21,6.09,C0K490
雲林東勢,23.674449,120.154778,-0.5,27.98,-1.75,80.9,16.89,7.03,C0K520
馬頭山,23.324361,120.582017,-0.54,25.22,5.52,94.71,48.97,25.02,C0M410
山美,23.383803,120.668217,-0.98,23.6,3.6,94.1,39.02,15.92,C0M830
曾文,23.219681,120.497328,-0.82,26.12,0.12,88.81,47.73,22.99,C0O810
玉井,23.126042,120.46055,-0.83,26.22,8.51,96.16,35.19,14.6,C0O930
安南,23.076694,120.144861,-0.63,28.1,6.74,90.55,36.84,19.24,C0O950
竹田,22.584917,120.544008,0.72,29.05,0.31,81.5,2.25,-18.54,C0R500
萬丹,22.587775,120.490394,-1.01,27.39,5.23,87.97,49.24,22.51,C0R510
林邊,22.430836,120.509983,-0.02,28.19,10.84,94.35,38.42,17.28,C0R530
甲仙,23.080106,120.591758,-0.76,25.12,4.64,95.0,47.76,23.76,C0V250
月眉,22.971003,120.539853,-0.98,26.45,0.98,84.58,47.44,21.0,C0V260
旗津,22.5886,120.285944,-1.11,27.72,4.77,89.77,44.68,26.53,C0V500
楠梓,22.71975,120.286,-0.71,27.96,2.88,82.58,52.37,27.51,C0V670
東引,26.358836,120.483631,0.24,28.55,-2.75,82.39,0.0,-0.68,C0W170
柳營,23.257237,120.373569,-0.8,26.97,0.22,87.61,37.15,18.41,C0X270
七股,23.147289,120.086253,-0.99,27.48,1.03,85.58,40.23,24.44,C0X310
臺大竹山,23.756972,120.681556,-0.39,26.76,-3.44,82.24,17.81,0.5,U2HA50
臺大溪頭,23.670306,120.798194,-0.33,20.33,2.62,95.08,24.92,10.65,U2H480
種苗繁殖,24.225972,120.800917,-0.81,24.98,3.2,85.28,17.41,1.67,K2F750
苗改生物防治研究中心,24.422861,120.871833,-0.23,25.83,-1.24,86.37,13.43,-0.22,K2E710
苗栗農改,24.495722,120.829111,-0.24,27.67,-1.89,80.83,11.81,1.72,K2E360
農試鳳山分所,22.646611,120.356083,-1.68,26.81,6.58,87.69,52.59,33.65,G2P820
農試嘉義分所,23.485028,120.473806,-0.89,26.64,1.53,84.76,30.29,9.69,G2L020
農業試驗所,24.031261,120.688133,-0.49,27.79,2.27,85.73,23.52,12.49,G2F820
畜試南區分所,21.945583,120.802167,-1.46,26.7,1.78,86.14,40.25,24.73,B2Q810
畜試所,23.058972,120.336406,-1.12,26.64,0.01,86.92,28.54,10.77,B2N890
畜試北區分所,24.527806,120.770972,-0.37,27.21,-0.11,85.14,1.86,-2.95,B2E890
古坑花卉中心,23.63353,120.55239,-0.48,26.8,-4.9,84.56,31.26,-10.18,A2K570
農工中心,24.985917,121.239833,-0.67,28.16,3.51,75.76,10.07,2.73,A2C560
茶改東部分場,22.907694,121.130139,-0.99,26.42,3.46,86.6,17.22,6.19,82S580
茶改南部分場,23.762528,120.7405,-0.95,25.03,-2.03,88.83,18.43,4.61,82H840
茶改中部分場,23.875611,120.913583,-1.64,22.11,2.63,91.29,19.59,7.39,82H320
茶改場,24.908472,121.185333,-0.37,27.43,-1.92,80.62,11.6,3.64,82C160
茶改北部分場,24.955778,121.631222,-0.8,25.19,3.11,86.76,10.1,-2.74,82A750
高改旗南分場,22.857861,120.516667,-2.16,26.29,15.56,94.55,40.24,23.61,72V140
花改蘭陽分場,24.686306,121.716583,0.23,28.49,-2.54,78.48,2.59,-5.2,72U480
花蓮農改,23.975222,121.563889,-0.27,27.48,1.16,82.07,15.9,6.94,72T250
東改賓朗果園,22.813889,121.071278,-1.0,25.24,0.03,88.28,15.67,4.1,72S590
東改班鳩分場,22.829528,121.077694,-0.4,26.35,3.05,85.45,16.62,4.93,72S200
高雄農改,22.709333,120.525889,-1.42,26.68,6.28,91.38,40.38,21.73,72Q010
臺南農改,23.0605,120.342194,-1.22,26.78,8.67,92.83,43.72,20.39,72N100
南改義竹分場,23.360694,120.279361,-0.92,27.52,-1.66,83.9,37.98,25.71,72M360
南改斗南分場,23.634556,120.477333,-0.64,27.52,4.82,88.31,24.91,11.19,72K220
臺中農改,24.003028,120.534389,-0.45,28.09,-0.13,83.41,20.33,11.8,72G600
桃改五峰分場,24.612194,121.157167,0.02,22.03,2.03,92.55,13.47,-2.71,72D080
桃園農改,24.950944,121.030583,-0.05,28.4,-1.67,80.38,5.62,0.66,72C440
