站名,緯度,經度,平均溫距平,本年度平均溫,平均溼度距平,本年度日均相對溼度,本年度日均降水量,日均降水量距平,站號
淡水,25.164889,121.448906,1.54,23.05,5.26,84.2,7.59,2.14,466900
鞍部,25.182586,121.529731,1.52,18.02,3.56,91.45,4.5,-3.44,466910
臺北,25.037658,121.514853,1.76,24.16,0.58,75.53,4.43,-0.87,466920
竹子湖,25.162078,121.544547,1.43,19.49,2.1,86.41,3.55,-2.43,466930
基隆,25.133314,121.740475,1.38,22.98,5.08,81.53,5.19,-1.72,466940
花蓮,23.975128,121.613275,1.89,24.61,-1.99,76.28,2.7,-0.06,466990
新屋,25.006744,121.047486,1.16,23.08,1.5,81.63,3.83,0.2,467050
宜蘭,24.763975,121.756528,1.87,23.79,4.34,83.7,6.68,2.65,467080
金門,24.407306,118.289281,1.24,20.5,3.12,81.93,3.9,0.22,467110
澎湖,23.565503,119.563094,1.06,24.34,5.46,85.27,4.1,1.28,467350
臺南,22.993239,120.204772,0.99,25.97,-0.18,73.07,2.93,0.81,467410
永康,23.038386,120.2367,0.99,25.64,3.23,74.4,2.6,0.2,467420
嘉義,23.495925,120.432906,1.52,25.13,-3.3,75.4,2.64,-0.17,467480
臺中,24.145736,120.684075,0.95,24.56,5.2,79.48,3.98,-0.47,467490
阿里山,23.508208,120.813242,0.23,11.79,-4.17,80.53,5.36,-1.96,467530
大武,22.355675,120.903789,1.31,26.03,-2.62,71.43,1.13,-1.12,467540
玉山,23.487614,120.959522,1.4,5.04,1.69,82.28,6.02,-0.67,467550
新竹,24.827853,121.014219,1.59,23.6,-0.29,77.2,8.04,2.26,467571
恆春,22.003897,120.746339,1.11,26.61,3.97,76.34,0.52,-0.45,467590
成功,23.097486,121.373428,1.29,24.45,2.31,81.33,1.84,-0.92,467610
日月潭,23.881325,120.90805,1.25,20.33,-4.39,78.0,5.4,-0.51,467650
臺東,22.752211,121.154586,1.72,25.86,0.7,75.72,0.99,-1.06,467660
馬祖,26.169269,119.923419,0.98,17.84,3.47,86.4,4.0,0.07,467990
山佳,24.974944,121.402008,1.55,23.58,6.71,85.43,3.92,-0.95,C0A520
坪林,24.938183,121.70975,1.86,21.25,2.34,91.97,4.23,-0.64,C0A530
泰平,24.971197,121.823711,1.82,20.16,-2.51,90.85,6.93,-0.25,C0A550
桶後,24.848222,121.597992,1.94,20.9,-3.12,88.0,5.12,-0.72,C0A570
石碇,24.993969,121.662917,1.74,21.37,0.52,88.2,4.37,-1.66,C0A640
大坪,25.165914,121.632969,1.59,20.71,-2.0,86.85,7.12,-3.54,C0A860
五指山,25.132153,121.608692,1.25,18.4,2.17,93.9,4.5,-1.94,C0A870
雙溪,25.036003,121.864242,1.82,22.32,1.25,89.81,5.32,-0.64,C0A890
三和,25.233153,121.595236,0.58,20.44,7.48,95.6,7.28,-1.02,C0A931
金山,25.223628,121.643967,1.34,22.19,6.16,89.93,5.02,-2.14,C0A940
鼻頭角,25.129036,121.923372,0.34,21.48,8.76,92.92,2.62,-0.54,C0A950
三貂角,25.007606,122.002058,0.89,21.9,1.17,85.5,4.83,-0.25,C0A970
社子,25.109508,121.469681,1.5,23.64,1.07,79.13,3.98,-0.87,C0A980
天母,25.117494,121.537169,1.51,23.71,1.42,76.43,3.35,-1.39,C0A9C0
內湖,25.079422,121.57545,1.47,23.78,5.89,82.57,4.38,-0.3,C0A9F0
大屯山,25.175675,121.522408,1.37,16.29,4.04,96.07,4.92,-1.3,C0AC40
三峽,24.939025,121.369728,1.48,23.39,7.53,86.9,4.47,-0.42,C0AC60
信義,25.037822,121.564597,1.53,23.39,2.71,81.3,4.88,0.56,C0AC70
文山,25.00235,121.575728,1.44,22.88,1.62,83.37,4.53,-0.46,C0AC80
新莊,25.051478,121.446756,1.08,23.47,6.13,80.3,3.73,-0.9,C0ACA0
八里,25.150211,121.403947,1.31,23.25,3.03,81.33,4.02,-0.39,C0AD10
蘆洲,25.086594,121.472331,1.56,24.12,-0.35,74.7,3.62,-0.9,C0AD30
土城,24.973208,121.445169,1.51,23.1,1.26,81.07,3.95,-0.76,C0AD40
鶯歌,24.951533,121.346294,1.39,23.09,7.21,89.21,4.05,-0.32,C0AD50
汐止,25.066881,121.658778,1.34,22.97,4.44,87.54,4.87,-0.64,C0AH00
永和,25.01125,121.508111,1.48,24.0,2.72,78.1,4.23,0.6,C0AH10
五分山,25.07125,121.780794,1.04,18.37,3.16,96.73,7.47,-0.7,C0AH30
平等,25.129142,121.577086,1.3,20.94,-0.33,84.17,3.62,0.66,C0AH40
林口,25.072181,121.38084,1.28,21.75,6.56,89.7,4.25,1.08,C0AH50
松山,25.04871,121.55042,1.46,23.99,4.09,71.03,4.68,1.66,C0AH70
深坑,25.002703,121.628328,1.64,22.53,0.47,84.9,3.93,0.32,C0AH80
福山植物園,24.760717,121.58135,2.19,19.23,-1.61,90.17,6.33,0.47,C0AH90
五股,25.07445,121.42728,1.51,22.31,2.61,89.83,4.07,0.87,C0AI00
屈尺,24.92184,121.54475,0.98,22.39,2.37,84.43,4.73,0.12,C0AI10
白沙灣,25.283128,121.519058,1.29,22.06,4.77,82.5,3.15,0.23,C0AI20
石牌,25.115597,121.513139,1.58,24.24,2.83,73.37,3.4,0.92,C0AI40
七堵,25.094819,121.71713,1.74,22.71,0.3,86.4,5.9,0.0,C0B010
基隆嶼,25.19141,121.78391,1.41,22.16,7.28,94.67,2.47,0.06,C0B020
復興,24.820208,121.352281,1.03,20.13,2.62,87.13,6.28,-0.96,C0C460
桃園,24.992425,121.323172,1.52,23.32,5.0,78.37,3.92,-1.0,C0C480
八德,24.928708,121.283289,1.31,22.98,1.59,80.93,4.8,-0.19,C0C490
觀音,25.027072,121.153317,1.61,22.62,4.34,84.37,4.85,-0.39,C0C590
蘆竹,25.084275,121.265767,0.91,22.96,1.74,82.27,4.45,-0.22,C0C620
大溪,24.882853,121.265547,1.42,21.94,8.46,86.17,5.03,0.14,C0C630
平鎮,24.897503,121.214636,1.35,21.78,5.48,85.17,5.72,0.67,C0C650
楊梅,24.912375,121.143047,0.82,22.36,5.37,81.9,5.47,1.59,C0C660
龍潭,24.870056,121.221389,1.28,21.9,3.65,82.13,5.7,1.26,C0C670
龜山,25.02846,121.38656,1.39,21.81,5.47,83.57,3.93,0.27,C0C680
中壢,24.977661,121.256375,1.1,22.47,4.58,79.73,4.52,1.22,C0C700
大溪永福,24.892936,121.324975,1.71,21.86,-1.4,83.9,5.23,0.74,C0C710
梅花,24.678347,121.208558,1.22,20.19,5.35,92.97,4.6,-2.49,C0D360
峨眉,24.6905,121.017189,1.07,22.34,0.6,87.52,5.73,0.44,C0D430
打鐵坑,24.849664,121.150789,1.67,21.56,2.73,88.03,5.8,0.63,C0D480
橫山,24.71116,121.11693,1.38,21.75,0.67,86.2,5.88,-0.12,C0D540
雪霸,24.526972,121.11605,1.61,15.4,-3.62,79.13,7.32,0.08,C0D550
竹東,24.767147,121.057881,2.0,22.97,4.35,80.33,6.13,1.11,C0D560
寶山,24.735006,121.025192,1.28,21.75,2.87,87.57,5.63,0.36,C0D580
新豐,24.87068,120.97721,1.41,22.14,5.66,87.1,6.17,1.63,C0D590
湖口,24.904794,121.043628,0.65,22.32,0.72,80.63,5.85,2.48,C0D650
新竹市東區,24.798681,120.986942,1.18,23.14,3.75,79.7,7.52,2.51,C0D660
竹南,24.708978,120.888897,1.24,23.02,2.89,82.33,6.18,1.17,C0E420
南庄,24.601775,121.000214,1.36,21.76,1.62,86.53,6.48,-0.97,C0E430
明德,24.583486,120.885411,1.12,22.75,3.06,87.2,5.23,0.27,C0E550
通霄,24.471892,120.704622,1.4,23.58,4.31,87.5,5.38,1.18,C0E590
馬都安,24.451272,120.930192,1.11,20.01,-4.32,80.4,7.22,0.31,C0E610
頭份,24.688247,120.912206,1.49,23.53,2.98,78.83,6.18,1.65,C0E730
造橋,24.637056,120.864778,0.92,23.13,2.33,86.93,5.65,0.59,C0E740
苗栗,24.564569,120.824575,0.99,23.69,1.67,78.67,5.07,-0.12,C0E750
銅鑼,24.489681,120.790853,1.1,23.2,2.0,83.87,5.3,0.51,C0E780
西湖,24.562947,120.7485,1.17,22.92,0.53,86.73,5.08,0.26,C0E810
獅潭,24.539133,120.920042,0.87,22.2,-3.51,82.87,5.73,-0.48,C0E820
苑裡,24.439714,120.653053,1.09,23.86,2.38,80.4,4.12,1.53,C0E830
大河,24.618069,120.948578,1.13,22.59,2.41,86.47,5.6,0.13,C0E850
高鐵苗栗,24.60725,120.826094,1.31,23.31,3.39,82.93,5.12,2.04,C0E870
雪山圈谷,24.388594,121.236339,0.79,5.07,3.33,78.33,7.32,-1.25,C0F0A0
石岡,24.276061,120.777644,1.36,22.74,2.64,85.0,4.63,1.47,C0F0B0
中坑,24.248517,120.903319,1.22,19.9,0.01,87.47,6.62,2.19,C0F0C0
審馬陣,24.381675,121.4203,0.86,7.89,4.11,80.03,2.93,0.54,C0F0D0
南湖圈谷,24.363714,121.444667,-0.19,4.96,-2.81,73.43,4.23,0.64,C0F0E0
東勢,24.246428,120.833047,0.97,22.8,1.04,80.97,5.12,0.84,C0F850
大坑,24.173142,120.722289,0.65,24.19,1.17,76.87,4.37,0.71,C0F970
神岡,24.272481,120.658314,0.98,23.42,1.92,85.44,4.82,1.43,C0F9I0
大安,24.345061,120.588025,0.73,23.53,-1.01,82.3,4.17,1.08,C0F9K0
后里,24.310436,120.729725,1.41,23.7,2.22,84.2,4.78,1.16,C0F9L0
豐原,24.254322,120.720692,0.67,23.38,4.66,84.1,4.82,0.63,C0F9M0
大里,24.092464,120.701378,1.08,25.53,1.64,75.1,3.55,-0.32,C0F9N0
潭子,24.213106,120.703933,0.96,24.56,6.27,83.53,4.77,0.71,C0F9O0
清水,24.312297,120.562242,1.08,24.25,1.59,83.43,3.7,0.94,C0F9P0
外埔,24.347817,120.705686,1.06,23.4,4.6,88.7,4.58,0.99,C0F9Q0
龍井,24.184536,120.528972,0.36,23.77,6.61,91.03,5.02,1.51,C0F9R0
烏日,24.107058,120.624103,1.46,25.2,1.07,76.0,2.92,-0.55,C0F9S0
西屯,24.179494,120.641275,0.83,24.3,2.3,78.8,4.83,1.09,C0F9T0
南屯,24.137006,120.637969,0.97,25.15,2.76,76.57,3.25,-0.39,C0F9U0
新社,24.200172,120.815806,0.68,21.87,5.46,89.7,5.13,0.32,C0F9V0
大雅(中科園區),24.21528,120.62445,0.78,23.55,4.7,82.43,5.22,1.81,C0F9X0
桃山,24.432739,121.303808,0.79,7.32,3.56,76.7,7.15,0.93,C0F9Y0
雪山東峰,24.388792,121.268675,0.92,8.42,2.42,72.4,5.8,0.22,C0F9Z0
芬園,24.015678,120.6213,1.28,24.43,1.62,82.23,3.03,-0.47,C0G620
員林,23.946503,120.585597,1.0,24.75,6.83,87.53,2.75,-0.78,C0G650
溪湖,23.94835,120.479122,0.96,24.5,0.7,84.4,3.57,0.4,C0G660
溪州,23.851589,120.499093,0.75,24.0,6.64,85.17,2.58,0.29,C0G720
二林,23.903325,120.376081,0.72,23.72,3.05,87.9,3.33,1.03,C0G730
大城,23.852487,120.320935,0.66,23.71,-0.18,78.77,3.48,0.76,C0G740
福興,24.041289,120.437669,0.46,24.38,4.63,84.53,3.23,0.04,C0G770
秀水,24.03405,120.503869,0.47,24.2,13.8,95.29,3.15,-0.02,C0G780
埔鹽,24.000394,120.431683,0.58,23.77,4.07,87.97,3.02,-0.27,C0G800
埔心,23.947633,120.525456,0.44,24.3,6.05,88.21,3.07,-0.27,C0G810
田尾,23.901669,120.509389,0.81,24.51,4.77,88.2,3.25,-0.35,C0G820
埤頭,23.866003,120.452806,0.63,23.82,0.71,88.47,3.42,-0.03,C0G830
社頭,23.897647,120.5862,0.76,25.07,3.17,79.23,2.83,-0.71,C0G860
二水,23.810742,120.6173,0.77,24.66,2.57,84.68,2.1,-1.21,C0G880
伸港,24.148933,120.484403,0.72,24.1,8.42,90.13,3.35,0.02,C0G890
埔里,23.972169,120.952425,1.05,23.24,-1.91,78.3,4.22,-0.95,C0H890
草屯,23.973672,120.68085,1.11,24.81,3.09,79.83,2.35,-0.79,C0H960
昆陽,24.121322,121.273642,0.62,7.62,2.07,83.3,6.87,0.24,C0H990
神木村,23.532742,120.843667,1.31,17.29,-2.76,81.97,3.95,-1.84,C0H9A0
合歡山,24.143442,121.272547,1.36,6.6,1.42,85.76,12.33,0.74,C0H9C0
廬山,24.033311,121.181808,0.95,17.27,-2.59,77.63,6.68,-1.24,C0I010
信義,23.689694,120.851036,0.91,22.24,-1.53,80.6,3.3,-1.81,C0I080
竹山,23.761225,120.688156,1.24,24.18,9.32,93.3,2.23,-1.55,C0I110
水里,23.812553,120.849792,1.39,23.84,3.81,84.27,3.35,-0.69,C0I360
魚池,23.895703,120.94135,1.17,22.06,-3.83,79.43,4.3,-0.96,C0I370
集集,23.828206,120.801467,0.97,24.03,3.55,83.93,2.62,-1.33,C0I380
仁愛,24.022122,121.132206,1.01,18.8,-4.23,79.93,6.92,-0.24,C0I390
名間,23.837053,120.701447,1.02,24.1,0.56,78.33,1.98,-0.88,C0I410
國姓,24.037803,120.855072,0.96,23.6,-1.55,80.37,4.32,-0.5,C0I420
南投,23.911469,120.687331,0.91,24.83,2.93,78.7,2.27,-0.87,C0I460
梅峰,24.085272,121.173572,0.88,13.06,0.03,84.13,9.25,-0.13,C0I480
萬大林道,23.928228,121.091411,1.24,17.06,3.03,89.0,7.25,0.59,C0I490
小奇萊,24.131764,121.295717,0.88,7.36,3.24,84.4,11.78,3.74,C0I530
崙背,23.75555,120.318925,0.81,23.88,2.55,85.47,2.6,0.33,C0K250
四湖,23.630414,120.227125,0.96,24.31,2.77,82.8,2.58,0.11,C0K280
宜梧,23.536281,120.169329,0.89,24.39,3.12,83.1,3.73,1.06,C0K291
虎尾,23.719183,120.442036,0.67,24.34,0.65,78.53,2.2,-0.74,C0K330
土庫,23.679029,120.395574,0.75,24.16,8.57,89.0,1.98,-0.26,C0K390
斗六,23.720583,120.541127,0.86,24.37,8.16,86.43,1.77,-0.44,C0K400
北港,23.573957,120.292802,0.65,24.34,2.15,80.6,2.05,-0.43,C0K410
西螺,23.800407,120.467394,0.82,24.23,6.25,86.07,2.8,0.55,C0K420
褒忠,23.690938,120.303634,0.6,23.81,2.02,83.23,1.95,-0.08,C0K430
二崙,23.772797,120.408944,0.76,23.95,0.65,82.33,2.45,0.56,C0K440
大埤,23.646074,120.431537,0.78,24.32,5.48,85.3,2.03,-0.42,C0K450
斗南,23.678734,120.478359,0.73,24.27,2.82,79.7,1.88,-0.68,C0K460
林內,23.748675,120.609642,0.82,24.02,1.0,81.97,2.05,-0.49,C0K470
莿桐,23.761192,120.502372,0.88,24.1,0.28,81.23,2.62,0.26,C0K480
元長,23.64981,120.315024,0.58,24.18,5.3,82.83,2.1,-0.14,C0K500
水林,23.572924,120.24597,0.72,24.3,2.03,80.77,2.6,-0.07,C0K510
臺西,23.701547,120.197559,0.78,24.01,2.9,83.0,2.27,0.07,C0K530
蔦松,23.514319,120.229736,0.54,24.11,11.35,90.25,2.6,-0.31,C0K550
棋山,23.68645,120.603417,0.99,24.4,0.51,79.53,2.07,-0.69,C0K560
高鐵雲林,23.737456,120.417944,1.03,24.33,-2.72,80.03,2.25,1.01,C0K580
東後寮,23.369908,120.248065,0.73,24.23,3.97,84.37,2.3,-0.52,C0M520
奮起湖,23.493903,120.699253,0.98,17.91,-1.18,86.13,6.3,0.8,C0M530
中埔,23.42538,120.5229,0.73,24.3,2.75,80.2,1.8,-0.5,C0M640
朴子,23.43463,120.23902,0.75,24.36,1.89,80.77,2.65,-0.38,C0M650
溪口,23.604131,120.403569,0.73,24.08,1.39,82.77,1.98,-0.28,C0M660
大林,23.600616,120.45841,0.8,24.61,3.39,79.97,1.88,-0.92,C0M670
太保,23.455062,120.331455,0.66,24.58,0.79,80.4,2.5,-0.32,C0M680
水上,23.419734,120.388909,0.69,24.41,1.99,80.6,2.42,-0.21,C0M690
竹崎,23.526178,120.555508,0.82,24.18,1.63,81.6,2.08,-0.59,C0M700
東石,23.458927,120.15385,0.79,24.49,-0.02,81.17,2.6,-0.42,C0M710
番路,23.464657,120.554156,0.76,23.78,3.45,81.7,1.97,-0.67,C0M720
嘉義市東區,23.457673,120.460531,0.72,25.43,3.27,76.43,1.97,-0.65,C0M730
六腳,23.492871,120.290625,0.68,24.33,2.4,80.97,2.48,-0.08,C0M740
布袋,23.380878,120.167789,0.73,24.56,1.43,80.87,2.6,-0.55,C0M750
民雄,23.551754,120.428457,0.71,24.66,2.55,79.9,1.9,-0.79,C0M760
嘉義梅山,23.585398,120.555587,0.83,24.18,4.68,84.03,1.87,-0.77,C0M770
鹿草,23.41134,120.30835,0.68,24.57,2.38,80.5,3.17,0.27,C0M780
新港,23.553269,120.345728,0.63,24.47,0.15,77.3,2.2,-0.36,C0M790
茶山,23.299075,120.664767,0.96,23.5,2.55,82.03,4.7,0.42,C0M800
里佳,23.389125,120.716647,1.13,18.53,-2.48,80.67,3.95,-1.26,C0M810
達邦,23.453994,120.749517,1.1,20.37,-4.96,73.17,5.13,0.1,C0M820
表湖,23.24186,120.64166,1.24,22.45,-1.08,80.23,3.47,0.34,C0M850
北寮,23.079561,120.495008,0.9,25.33,-1.71,75.6,2.8,0.45,C0O830
王爺宮,23.222064,120.40085,0.6,24.33,3.52,83.23,2.52,0.04,C0O840
大內,23.11885,120.36083,0.76,25.55,5.78,84.1,2.32,-0.31,C0O860
善化,23.112883,120.297219,0.87,25.06,4.15,85.47,3.48,1.01,C0O900
崎頂,22.959547,120.369317,0.5,24.71,2.55,81.0,2.65,0.72,C0O960
虎頭埤,23.021375,120.347878,0.59,24.78,2.21,80.67,2.82,0.8,C0O970
新市,23.061614,120.298197,0.69,25.43,2.31,82.03,2.83,0.51,C0O980
媽廟,22.99175,120.293525,0.56,25.22,6.21,84.17,2.6,0.75,C0O990
尾寮山,22.833111,120.683889,1.08,20.23,5.42,92.37,5.12,0.24,C0R100
阿禮,22.742908,120.743678,1.16,20.8,-4.81,76.63,2.95,-0.42,C0R130
瑪家,22.682903,120.686639,1.06,22.19,-4.86,76.77,4.22,0.33,C0R140
三地門,22.709889,120.639944,1.1,26.53,5.0,77.47,2.95,0.27,C0R150
鹽埔,22.739558,120.530778,0.73,25.83,4.45,86.57,2.62,0.27,C0R160
屏東,22.660269,120.494072,0.99,26.49,-5.64,70.52,2.85,0.66,C0R170
赤山,22.592333,120.614306,0.92,26.13,-0.71,77.97,2.1,-0.14,C0R190
潮州,22.534361,120.54,0.87,26.21,2.44,80.53,1.28,-0.59,C0R220
來義,22.527306,120.625111,0.66,25.34,2.25,79.92,1.52,-1.11,C0R240
春日,22.370361,120.628306,1.1,26.4,1.19,76.33,0.5,-1.37,C0R260
琉球嶼,22.332244,120.362236,0.53,25.9,1.46,80.67,1.85,0.14,C0R270
高樹,22.826389,120.600806,1.07,26.54,6.34,79.03,2.75,0.34,C0R470
長治,22.693128,120.542622,0.72,26.31,-2.84,73.37,2.57,0.28,C0R480
九如,22.7405,120.490503,0.94,26.39,-1.54,75.43,2.3,0.2,C0R490
崁頂,22.514781,120.506914,0.94,26.21,6.58,86.2,0.87,-1.15,C0R520
佳冬,22.419456,120.552375,1.1,26.38,2.37,80.17,0.9,-1.17,C0R540
新埤,22.467947,120.582894,1.1,26.35,-2.96,76.63,0.77,-1.03,C0R550
新園,22.5434,120.461558,0.86,26.24,-2.55,76.33,1.17,-1.07,C0R560
麟洛,22.65078,120.52719,0.65,26.26,-5.27,70.07,2.63,0.49,C0R570
南州,22.48591,120.50274,0.58,25.71,0.54,79.6,1.08,-0.96,C0R580
里港,22.77919,120.49459,0.61,25.9,3.97,80.73,2.55,0.43,C0R590
舊泰武,22.588194,120.664944,1.24,22.1,-0.71,82.83,3.78,0.16,C0R600
墾雷,21.900836,120.855269,1.02,26.06,1.98,79.87,1.6,0.63,C0R620
東港,22.46247,120.44074,0.92,26.15,1.38,79.73,0.97,0.03,C0R640
竹田,22.58486,120.54344,1.03,26.39,0.9,81.1,1.43,0.18,C0R650
向陽,23.248397,120.986133,0.45,12.5,-1.5,83.0,5.86,-0.08,C0S750
蘭嶼高中,22.04909,121.51214,0.94,25.95,0.68,77.73,5.07,0.87,C0S900
蘭嶼燈塔,22.081197,121.503117,0.85,24.3,-2.92,85.6,3.52,1.11,C0S910
大禹嶺,24.186117,121.316086,0.49,10.28,-1.18,74.7,5.77,-1.1,C0T790
天祥,24.179597,121.495639,1.81,20.93,0.74,81.67,1.5,-1.15,C0T820
鯉魚潭,23.935639,121.508944,1.15,21.93,0.03,89.53,2.8,-0.98,C0T870
西林,23.8119,121.441458,1.73,22.91,-1.15,79.8,1.82,-0.56,C0T900
光復,23.660694,121.424964,1.47,23.07,1.43,90.2,2.57,-0.84,C0T960
月眉山,23.809928,121.539828,1.37,20.63,2.32,95.63,3.05,-0.28,C0T9A0
水源,23.991861,121.537169,1.5,20.31,0.8,90.57,4.47,-0.27,C0T9B0
和中,24.26676,121.74103,1.28,23.48,7.81,93.33,3.8,-1.19,C0T9D0
大坑,23.880628,121.581981,1.63,21.2,0.75,90.53,4.1,0.15,C0T9E0
水璉,23.797131,121.542514,1.01,22.38,2.61,88.13,3.0,0.24,C0T9F0
鳳林山,23.735269,121.420131,0.64,20.23,0.64,95.57,3.32,-0.89,C0T9G0
加路蘭山,23.682947,121.5274,1.49,19.77,1.13,95.73,7.63,2.32,C0T9H0
豐濱,23.583897,121.514806,1.66,22.73,7.88,96.83,6.53,2.49,C0T9I0
雙連埤,24.753033,121.641303,2.21,20.32,2.13,95.83,6.2,0.72,C0U520
礁溪,24.817539,121.765608,1.61,23.23,0.26,82.83,4.03,-0.2,C0U600
玉蘭,24.675286,121.587061,1.96,21.14,2.36,87.9,6.02,0.71,C0U650
太平山,24.505486,121.525656,0.92,13.85,-0.84,86.77,3.98,0.16,C0U710
南山,24.43742,121.38167,2.0,17.69,-7.18,85.53,3.15,0.3,C0U720
龜山島,24.841667,121.953133,0.13,19.82,2.06,94.33,3.47,0.86,C0U750
東澳,24.52196,121.83318,1.18,23.08,3.02,89.13,10.7,6.11,C0U760
南澳,24.44935,121.81022,0.95,23.33,1.31,80.9,5.08,2.12,C0U770
五結,24.68637,121.79794,1.35,23.25,0.44,82.17,11.2,7.29,C0U780
頭城,24.85323,121.8308,1.46,23.45,2.06,84.07,4.25,-0.2,C0U860
大礁溪,24.791042,121.675047,1.76,20.63,3.16,89.0,5.23,0.89,C0U870
三星,24.66812,121.65302,1.63,22.7,0.83,87.5,6.32,2.06,C0U890
內城,24.71813,121.68766,1.63,22.92,3.88,89.07,5.13,1.67,C0U900
冬山,24.63373,121.7937,1.6,23.27,3.16,82.9,12.97,5.06,C0U910
羅東,24.68184,121.74934,1.56,23.02,0.05,84.57,8.9,3.73,C0U940
鶯子嶺,24.89754,121.79244,2.08,17.02,-0.1,96.9,7.17,0.75,C0U950
翠峰湖,24.510856,121.608044,2.09,13.74,-2.39,88.83,4.97,1.2,C0U960
大福,24.80064,121.81389,1.62,23.34,2.21,82.3,4.83,1.74,C0U970
坪林石牌,24.86478,121.77396,2.05,19.89,-11.0,83.0,5.62,-0.13,C0U980
員山,24.74435,121.72247,1.69,23.39,1.52,82.73,5.6,1.92,C0U990
土場,24.576533,121.495333,1.68,21.44,7.33,94.6,3.48,0.51,C0UA00
鴛鴦湖,24.590269,121.412228,1.98,14.69,1.34,92.87,4.87,0.37,C0UA10
多加屯,24.368614,121.373189,0.95,10.36,2.57,79.6,3.03,0.71,C0UA20
白嶺,24.527819,121.519031,2.05,16.46,-0.77,92.8,5.07,0.85,C0UA30
西德山,24.560647,121.752608,2.17,17.41,-0.32,93.63,8.83,3.19,C0UA40
西帽山,24.555361,121.802628,1.89,18.55,2.23,97.0,12.97,3.34,C0UA50
樟樹山,24.41393,121.78325,1.71,20.32,5.02,92.13,5.6,0.5,C0UA60
桃源谷,24.962606,121.888875,1.61,19.54,2.28,96.17,7.45,0.83,C0UA70
復興,23.222403,120.806089,0.52,21.94,-0.99,73.67,4.25,-0.04,C0V210
美濃,22.898742,120.519153,0.83,25.71,-6.11,69.93,2.82,0.26,C0V310
溪埔,22.738578,120.446797,0.71,25.78,3.37,79.35,2.57,0.42,C0V350
內門,22.975481,120.466769,0.55,24.75,0.61,77.73,2.42,0.22,C0V360
古亭坑,22.893178,120.401947,0.68,25.02,-1.88,80.3,3.17,0.97,C0V370
阿公店,22.804194,120.355528,0.36,24.96,2.59,80.97,2.98,1.08,C0V400
鳳山,22.646653,120.356122,0.26,25.95,-2.69,71.1,2.23,0.05,C0V440
鳳森,22.545064,120.392592,0.72,25.93,6.17,82.67,1.33,-0.75,C0V450
新興,22.627422,120.298803,1.22,26.52,5.36,77.83,1.88,-0.56,C0V490
阿蓮,22.883208,120.327508,0.58,25.45,-6.86,71.31,3.68,1.6,C0V530
梓官,22.760558,120.267211,0.95,26.02,0.77,76.67,2.92,1.05,C0V610
永安,22.82315,120.236856,0.52,25.32,0.33,79.67,2.78,1.03,C0V620
茄萣,22.906642,120.182608,0.95,25.75,3.56,77.57,4.67,2.56,C0V630
湖內,22.887139,120.2445,0.79,25.72,0.34,76.79,4.15,2.08,C0V640
彌陀,22.783806,120.246361,0.49,25.47,0.78,77.27,3.95,1.94,C0V650
岡山,22.797078,120.294958,0.38,25.85,4.39,78.03,3.5,1.43,C0V660
仁武,22.701083,120.347722,0.67,26.29,4.57,78.5,3.52,1.44,C0V680
鼓山,22.623325,120.275575,0.46,25.84,7.16,84.17,1.7,-0.36,C0V690
三民,22.645017,120.311233,0.84,26.72,1.89,71.53,2.22,0.18,C0V700
苓雅,22.622742,120.330669,0.66,26.33,4.35,73.07,1.65,-0.43,C0V710
林園,22.507747,120.394511,0.82,27.04,5.4,76.7,1.37,-0.71,C0V720
大寮,22.605614,120.395717,0.83,26.58,2.68,74.73,1.4,-0.61,C0V730
旗山,22.888614,120.483597,0.61,25.74,2.91,75.87,2.9,0.47,C0V740
路竹,22.854997,120.259439,0.7,25.86,4.71,79.28,3.77,1.86,C0V750
橋頭,22.757806,120.30575,1.37,26.94,1.77,76.57,2.78,0.82,C0V760
大社,22.730306,120.346639,0.52,26.09,6.43,78.83,3.52,1.38,C0V770
萬山,22.905944,120.688056,1.11,24.42,-1.8,72.07,2.85,0.02,C0V790
六龜,22.997889,120.633583,0.76,25.14,4.05,77.53,3.18,0.57,C0V800
左營,22.67491,120.28491,0.84,25.94,-0.63,75.0,2.35,-0.04,C0V810
小林,23.148408,120.63325,0.91,23.83,-1.03,73.97,2.38,0.67,C0V820
西嶼,23.5626,119.468436,0.24,22.46,4.34,88.13,2.98,0.64,C0W120
花嶼,23.40007,119.32276,1.03,23.7,6.17,86.7,3.8,2.2,C0W130
金沙,24.488292,118.408778,-0.03,20.59,7.02,83.7,4.02,1.82,C0W140
金寧,24.457703,118.328989,0.42,21.41,7.95,84.73,4.25,2.39,C0W150
烏坵,24.9944,119.44956,-0.81,18.12,3.79,90.27,2.13,1.06,C0W160
東河,23.296598,120.385608,0.93,25.05,-0.06,79.2,2.03,-0.66,C0X050
下營,23.22695,120.256261,0.75,24.84,1.1,78.57,2.78,-0.1,C0X060
佳里,23.173039,120.145086,0.9,25.13,2.75,80.8,3.12,0.51,C0X080
臺南市北區,23.010394,120.194228,0.83,25.89,4.23,77.13,3.32,1.38,C0X100
臺南市南區,22.961189,120.188378,0.61,25.87,5.77,81.1,3.22,1.44,C0X110
麻豆,23.183289,120.248611,0.57,25.22,2.71,79.33,2.48,0.23,C0X120
官田,23.193217,120.315422,1.05,25.84,3.59,79.77,2.43,0.25,C0X130
西港,23.125608,120.203108,1.15,25.9,0.41,78.67,4.55,1.89,C0X140
安定,23.102614,120.227839,1.07,25.51,2.38,81.2,3.88,1.44,C0X150
仁德,22.968258,120.257689,0.59,25.67,2.46,77.3,3.05,1.13,C0X160
關廟,22.963017,120.327797,0.63,25.71,3.85,77.13,2.85,0.85,C0X170
山上,23.0757,120.363253,0.62,25.13,5.44,83.43,2.95,0.24,C0X180
安平,22.993161,120.152181,0.49,25.43,6.52,84.03,3.7,1.82,C0X190
左鎮,23.056758,120.408522,0.64,24.62,4.05,84.47,3.77,1.3,C0X200
白河,23.347466,120.414427,0.75,24.71,2.21,80.37,2.0,-0.71,C0X210
學甲,23.230367,120.182187,0.48,24.36,3.17,79.4,2.63,-0.4,C0X220
鹽水,23.272621,120.247641,0.69,24.5,2.88,80.2,2.22,-0.89,C0X230
關子嶺,23.331169,120.508025,0.8,22.78,1.38,84.0,3.03,-0.18,C0X240
新營,23.310689,120.316681,0.65,24.97,5.55,80.6,2.13,-0.92,C0X250
後壁,23.366358,120.362326,0.77,24.55,2.86,81.23,2.25,-0.34,C0X260
將軍,23.214999,120.13577,0.8,24.64,3.6,81.23,2.63,-0.6,C0X280
北門,23.267772,120.125481,0.35,24.51,3.57,82.1,2.4,-0.74,C0X290
鹿寮,23.386047,120.477331,0.86,24.33,0.28,81.37,1.95,-0.6,C0X300
明里,23.208717,121.262342,1.63,22.77,0.68,90.37,1.0,-1.12,C0Z020
佳心,23.34567,121.21316,1.45,19.36,-0.96,86.9,0.85,-1.14,C0Z050
玉里,23.3215,121.339656,2.26,23.81,-0.94,84.9,1.3,-0.92,C0Z061
舞鶴,23.46811,121.37407,1.84,22.6,0.84,90.67,1.18,-0.81,C0Z070
富源,23.587642,121.378225,1.63,22.45,-0.11,89.7,2.25,-0.71,C0Z080
東華,23.89525,121.549833,1.12,23.23,5.93,93.03,2.6,0.33,C0Z100
吉安光華,23.930925,121.595153,1.56,23.58,-0.72,84.03,2.1,0.69,C0Z150
鳳林,23.746114,121.453411,1.72,23.16,-1.31,83.33,2.02,0.05,C0Z160
卓溪,23.3443,121.3029,1.95,24.15,-1.68,79.73,0.73,-0.47,C0Z170
新城,24.03946,121.60454,1.45,23.64,1.34,81.43,3.08,0.76,C0Z180
富世,24.14743,121.6297,1.51,23.75,2.54,85.77,1.88,0.12,C0Z190
萬榮,23.709219,121.420106,1.61,22.69,5.65,94.2,1.58,-0.07,C0Z200
瑞穗,23.5239,121.39021,1.72,23.02,1.51,87.83,1.93,-0.14,C0Z210
和平林道,24.343922,121.656317,1.65,20.4,2.44,92.23,1.95,-0.14,C0Z220
和平,24.30717,121.77007,1.33,23.63,4.11,80.63,3.23,-0.62,C0Z230
瑞穗林道,23.49284,121.30688,1.84,18.08,-1.44,94.1,2.97,-1.51,C0Z250
蕃薯寮,23.73835,121.540108,1.69,21.63,-0.9,89.03,4.97,1.52,C0Z270
德武,23.47426,121.41071,1.96,23.34,0.14,88.43,1.95,-0.01,C0Z280
赤柯山,23.36893,121.38293,1.78,18.83,-0.79,92.87,2.12,-0.45,C0Z290
東里,23.26853,121.30547,1.95,23.62,1.37,89.43,2.17,0.21,C0Z300
清水斷崖,24.218294,121.689142,1.6,23.75,0.27,84.43,2.13,-2.36,C0Z310
清水林道,23.27125,121.188272,2.12,20.81,-2.02,85.77,2.82,0.07,C0Z320
安通山,23.290728,121.348528,1.79,21.72,-0.06,87.87,1.9,-0.19,C0Z330
口湖工作站,23.589978,120.180394,1.22,23.97,3.52,78.13,1.72,0.36,12J990
東港工作站,22.479997,120.466058,0.84,26.02,2.83,69.0,0.34,-0.26,12Q970
恆春工作站,22.079678,120.714425,0.57,26.09,1.48,71.38,0.29,-0.1,12Q980
萬大發電廠,23.978875,121.139639,1.0,19.28,-6.62,76.93,2.96,-0.48,42HA10
桃園農改場,24.950944,121.030583,1.5,22.74,3.3,84.74,4.54,0.08,72C440
桃改五峰分場,24.612194,121.157167,1.57,18.54,-1.58,87.33,6.23,-0.71,72D080
臺中農改場,24.003028,120.534389,1.0,24.05,2.51,84.0,3.29,0.01,72G600
中改埔里分場,23.903208,120.963364,1.14,21.26,0.68,86.29,6.17,1.75,72HA00
南改斗南分場,23.634556,120.477333,1.14,24.45,2.64,85.12,0.56,-2.31,72K220
南改義竹分場,23.360694,120.279361,0.95,24.48,-1.84,81.5,2.52,0.65,72M360
南改鹿草分場,23.416869,120.283061,1.37,24.13,2.83,83.9,0.02,-0.22,72M700
臺南農改場,23.0605,120.342194,0.7,24.95,1.81,79.91,2.8,1.18,72N100
七股研究中心,23.081672,120.062894,1.47,25.12,1.97,81.74,3.65,1.7,72N240
高雄農改場,22.709333,120.525889,0.73,26.26,2.86,78.52,0.0,-1.83,72Q010
東改班鳩分場,22.829528,121.077694,1.81,23.59,-0.01,83.3,0.83,-1.6,72S200
東改賓朗果園,22.813889,121.071278,1.08,22.5,-5.14,85.11,0.98,-1.47,72S590
花蓮農改場,23.975222,121.563889,1.46,23.38,-0.6,83.0,3.09,0.34,72T250
花改蘭陽分場,24.686306,121.716583,1.76,23.23,0.75,84.47,7.37,3.73,72U480
高改旗南分場,22.857861,120.516667,-0.19,25.52,13.09,86.3,0.11,-1.65,72V140
茶改北部分場,24.955778,121.631222,0.89,19.97,2.91,87.62,4.84,-1.69,82A750
茶改場,24.908472,121.185333,1.45,22.08,0.94,84.57,5.88,0.24,82C160
茶改中部分場,23.875611,120.913583,0.04,20.05,-1.13,85.53,0.95,-4.61,82H320
茶改南部分場,23.762528,120.7405,0.62,22.29,2.11,87.48,2.57,-1.11,82H840
茶改東部分場,22.907694,121.130139,1.3,23.83,-2.0,81.63,0.69,-1.39,82S580
農工中心,24.985917,121.239833,0.82,21.84,2.85,78.42,4.97,-0.17,A2C560
畜試北區分所,24.527806,120.770972,1.31,22.38,5.3,89.1,4.97,2.27,B2E890
畜產試驗所,23.058972,120.336406,0.56,24.7,-1.6,78.88,3.94,1.44,B2N890
畜試南區分所,21.945583,120.802167,0.97,26.2,0.14,76.26,0.67,-0.5,B2Q810
蓮華池,23.918333,120.885278,0.16,21.39,2.84,85.83,3.82,-1.58,E2H360
四湖植物園,23.676986,120.163433,1.2,23.89,2.89,85.72,2.95,0.93,E2K600
農試所(霧峰),24.031261,120.688133,0.85,24.21,-1.13,80.36,2.05,-1.27,G2F820
農試嘉義分所,23.485028,120.473806,0.58,23.77,2.42,82.26,2.28,-0.44,G2L020
農試溪口農場,23.58565,120.408111,2.1,24.32,3.85,83.63,0.87,-0.95,G2M350
農試鳳山分所,22.646611,120.356083,0.37,26.09,5.25,77.1,1.86,-0.15,G2P820
苗栗農改場,24.495722,120.829111,1.7,23.29,0.21,82.3,5.5,0.51,K2E360
苗改生物防治研究中心,24.422861,120.871833,1.76,22.3,0.64,84.66,6.52,2.92,K2E710
種苗改良場,24.225972,120.800917,0.84,21.96,1.0,83.9,4.93,-0.03,K2F750
溪頭,23.670306,120.798194,0.92,17.76,-0.64,90.43,4.77,-0.96,U2H480
臺大和社,23.590856,120.888864,1.32,20.82,-0.92,80.04,0.76,-0.58,U2HA30
臺大內茅埔,23.689722,120.851117,1.15,22.23,0.66,80.9,3.67,0.86,U2HA40
臺大竹山,23.756972,120.681556,0.99,23.85,7.83,84.74,3.07,1.06,U2HA50
板橋,24.997647,121.442017,1.47,23.68,2.39,77.17,4.6,-0.24,466880
蘇澳,24.596736,121.857372,1.53,23.36,4.53,84.28,26.04,20.25,467060
梧棲,24.256003,120.523381,1.04,23.71,2.53,79.73,3.24,-0.46,467770
四堵,24.8926,121.745736,1.74,20.63,-0.95,89.4,4.8,-0.72,C0A540
福山,24.776203,121.502811,1.99,21.12,-7.14,82.18,4.02,-0.91,C0A560
火燒寮,25.002719,121.742892,2.08,20.82,2.48,93.27,4.62,-1.91,C0A650
瑞芳,25.113169,121.801147,1.08,21.59,8.7,95.17,5.78,-1.54,C0A660
福隆,25.017842,121.942083,1.0,21.98,1.06,87.23,5.38,-0.81,C0A880
富貴角,25.263783,121.565258,0.91,21.18,6.04,91.13,5.53,-3.09,C0A920
大直,25.078047,121.542853,1.64,23.7,2.88,79.4,3.62,-0.84,C0A9A0
石牌,25.116342,121.513817,1.52,24.24,-0.7,73.37,3.4,-1.24,C0A9B0
士林,25.090253,121.503019,1.44,23.81,1.13,75.9,3.67,-1.07,C0A9E0
三芝,25.258131,121.501917,1.14,22.41,8.83,88.93,4.58,-1.47,C0AD00
中和,24.992647,121.490444,1.37,23.97,2.04,78.73,4.07,-1.3,C0AG90
大園,25.04775,121.225958,1.04,22.64,2.92,80.43,4.83,-0.03,C0C540
關西,24.7982,121.1739,1.58,22.34,2.29,84.47,5.8,-0.09,C0D390
香山,24.746892,120.905456,1.51,23.03,2.71,86.8,7.57,2.55,C0D570
大湖,24.41494,120.87087,1.34,22.34,-0.43,85.9,6.25,0.52,C0E520
三義,24.410933,120.765972,1.44,21.93,-0.44,85.87,5.87,0.07,C0E530
後龍,24.606489,120.783933,1.06,23.19,7.7,93.17,5.58,0.78,C0E540
卓蘭,24.312764,120.824753,0.8,23.01,3.04,87.9,5.92,1.31,C0E790
大肚,24.15295,120.572117,0.56,22.46,6.84,92.93,4.55,0.94,C0F000
梨山,24.247522,121.243669,1.53,13.91,-2.69,79.1,7.6,-0.66,C0F861
大甲,24.347667,120.640403,1.84,24.28,6.42,89.87,4.58,1.34,C0F930
中竹林,24.103556,120.751061,1.08,22.79,3.26,85.97,3.58,-0.45,C0F9A0
鹿港,24.0753,120.430481,1.0,23.89,0.84,84.07,3.85,0.65,C0G640
竹塘,23.846617,120.382486,0.74,23.92,1.33,81.4,3.83,1.24,C0G750
高鐵彰化,23.875247,120.574608,0.99,24.42,6.23,88.0,2.62,0.97,C0G760
花壇,24.016069,120.552328,0.64,24.68,2.58,83.3,2.83,-1.1,C0G790
北斗,23.877586,120.514222,0.66,24.3,2.62,87.9,3.45,-0.05,C0G840
田中,23.856778,120.588261,0.51,25.0,2.85,86.17,2.07,-1.43,C0G850
芳苑,23.922303,120.320025,0.57,24.11,2.13,86.9,3.05,-0.31,C0G870
中寮,23.884447,120.766406,0.93,23.66,1.39,86.03,2.78,-1.06,C0H950
鳳凰,23.728081,120.787347,1.22,20.09,0.7,90.2,3.77,-1.49,C0I090
草嶺,23.59555,120.693461,1.59,19.93,-0.22,90.17,3.88,-0.25,C0K240
古坑,23.654301,120.559754,0.86,24.23,0.04,79.27,1.95,-0.99,C0K490
雲林東勢,23.674449,120.154778,0.54,24.02,3.3,83.07,2.15,-0.03,C0K520
馬頭山,23.324361,120.582017,1.15,24.42,1.69,80.11,3.5,0.29,C0M410
山美,23.383803,120.668217,0.72,22.81,3.6,85.47,3.08,-1.4,C0M830
曾文,23.219681,120.497328,1.16,25.32,-2.59,75.89,2.77,0.06,C0O810
玉井,23.126042,120.46055,1.3,25.46,0.84,79.43,2.37,0.03,C0O930
安南,23.076694,120.144861,0.79,25.49,10.03,89.27,3.07,0.71,C0O950
萬丹,22.587775,120.490394,0.89,26.74,-1.71,73.0,1.35,-0.78,C0R510
林邊,22.430836,120.509983,0.49,25.74,7.51,86.5,0.93,-0.87,C0R530
甲仙,23.080106,120.591758,0.95,24.58,-0.73,76.63,2.6,-0.14,C0V250
月眉,22.971003,120.539853,1.35,26.51,1.38,74.23,2.83,0.6,C0V260
旗津,22.5886,120.285944,1.11,26.67,5.93,81.77,1.83,-0.33,C0V500
楠梓,22.71975,120.286,1.09,26.22,2.83,76.13,3.2,1.18,C0V670
東引,26.358836,120.483631,-0.0,17.49,5.33,88.33,2.95,0.92,C0W170
柳營,23.257237,120.373569,0.27,24.7,0.54,82.13,2.68,-0.59,C0X270
七股,23.147289,120.086253,0.75,24.89,2.51,80.6,3.18,-0.24,C0X310
臺大竹山,23.756972,120.681556,0.99,23.85,7.83,84.74,3.07,1.06,U2HA50
臺大內茅埔,23.689722,120.851117,1.15,22.23,0.66,80.9,3.67,0.86,U2HA40
臺大和社,23.590856,120.888864,1.32,20.82,-0.92,80.04,0.76,-0.58,U2HA30
臺大溪頭,23.670306,120.798194,0.92,17.76,-0.64,90.43,4.77,-0.96,U2H480
種苗繁殖,24.225972,120.800917,0.84,21.96,1.0,83.9,4.93,-0.03,K2F750
苗改生物防治研究中心,24.422861,120.871833,1.76,22.3,0.64,84.66,6.52,2.92,K2E710
苗栗農改,24.495722,120.829111,1.7,23.29,0.21,82.3,5.5,0.51,K2E360
農試鳳山分所,22.646611,120.356083,0.37,26.09,5.25,77.1,1.86,-0.15,G2P820
農試溪口農場,23.58565,120.408111,2.1,24.32,3.85,83.63,0.87,-0.95,G2M350
農試嘉義分所,23.485028,120.473806,0.58,23.77,2.42,82.26,2.28,-0.44,G2L020
農業試驗所,24.031261,120.688133,0.85,24.21,-1.13,80.36,2.05,-1.27,G2F820
四湖植物園,23.676986,120.163433,1.2,23.89,2.89,85.72,2.95,0.93,E2K600
蓮華池,23.918333,120.885278,0.16,21.39,2.84,85.83,3.82,-1.58,E2H360
畜試南區分所,21.945583,120.802167,0.97,26.2,0.14,76.26,0.67,-0.5,B2Q810
畜試所,23.058972,120.336406,0.56,24.7,-1.6,78.88,3.94,1.44,B2N890
畜試北區分所,24.527806,120.770972,1.31,22.38,5.3,89.1,4.97,2.27,B2E890
古坑花卉中心,23.63353,120.55239,2.81,26.03,-4.71,78.21,1.84,-0.57,A2K570
農工中心,24.985917,121.239833,0.82,21.84,2.85,78.42,4.97,-0.17,A2C560
茶改東部分場,22.907694,121.130139,1.3,23.83,-2.0,81.63,0.69,-1.39,82S580
茶改南部分場,23.762528,120.7405,0.62,22.29,2.11,87.48,2.57,-1.11,82H840
茶改中部分場,23.875611,120.913583,0.04,20.05,-1.13,85.53,0.95,-4.61,82H320
茶改場,24.908472,121.185333,1.45,22.08,0.94,84.57,5.88,0.24,82C160
茶改北部分場,24.955778,121.631222,0.89,19.97,2.91,87.62,4.84,-1.69,82A750
高改旗南分場,22.857861,120.516667,-0.19,25.52,13.09,86.3,0.11,-1.65,72V140
花改蘭陽分場,24.686306,121.716583,1.76,23.23,0.75,84.47,7.37,3.73,72U480
花蓮農改,23.975222,121.563889,1.46,23.38,-0.6,83.0,3.09,0.34,72T250
東改賓朗果園,22.813889,121.071278,1.08,22.5,-5.14,85.11,0.98,-1.47,72S590
東改班鳩分場,22.829528,121.077694,1.81,23.59,-0.01,83.3,0.83,-1.6,72S200
高雄農改,22.709333,120.525889,0.73,26.26,2.86,78.52,0.0,-1.83,72Q010
七股研究中心,23.081672,120.062894,1.47,25.12,1.97,81.74,3.65,1.7,72N240
臺南農改,23.0605,120.342194,0.7,24.95,1.81,79.91,2.8,1.18,72N100
南改鹿草分場,23.416869,120.283061,1.37,24.13,2.83,83.9,0.02,-0.22,72M700
南改義竹分場,23.360694,120.279361,0.95,24.48,-1.84,81.5,2.52,0.65,72M360
南改斗南分場,23.634556,120.477333,1.14,24.45,2.64,85.12,0.56,-2.31,72K220
中改埔里分場,23.903208,120.963364,1.14,21.26,0.68,86.29,6.17,1.75,72HA00
臺中農改,24.003028,120.534389,1.0,24.05,2.51,84.0,3.29,0.01,72G600
桃改五峰分場,24.612194,121.157167,1.57,18.54,-1.58,87.33,6.23,-0.71,72D080
桃園農改,24.950944,121.030583,1.5,22.74,3.3,84.74,4.54,0.08,72C440
萬大發電廠,23.978875,121.139639,1.0,19.28,-6.62,76.93,2.96,-0.48,42HA10
恆春工作站,22.079678,120.714425,0.57,26.09,1.48,71.38,0.29,-0.1,12Q980
東港工作站,22.479997,120.466058,0.84,26.02,2.83,69.0,0.34,-0.26,12Q970
口湖工作站,23.589978,120.180394,1.22,23.97,3.52,78.13,1.72,0.36,12J990
