站名,緯度,經度,平均溫距平,本年度平均溫,平均溼度距平,本年度日均相對溼度,本年度日均降水量,日均降水量距平,站號
淡水,25.164889,121.448906,-0.8,26.32,6.54,83.03,21.9,10.4,466900
鞍部,25.182586,121.529731,-0.44,20.9,4.88,94.07,47.05,18.6,466910
臺北,25.037658,121.514853,-0.64,27.26,6.65,80.29,13.97,1.92,466920
竹子湖,25.162078,121.544547,-0.64,22.36,-0.93,83.93,40.78,15.16,466930
基隆,25.133314,121.740475,-0.61,26.73,1.55,76.89,25.0,10.11,466940
花蓮,23.975128,121.613275,0.19,27.39,-2.24,75.55,8.44,-3.81,466990
新屋,25.006744,121.047486,-0.63,26.82,-3.5,75.2,7.38,3.9,467050
宜蘭,24.763975,121.756528,-0.25,26.78,-0.24,78.53,17.74,3.36,467080
金門,24.407306,118.289281,0.98,28.44,-9.93,65.86,0.1,-3.05,467110
澎湖,23.565503,119.563094,-0.17,27.82,-0.54,79.23,0.02,-4.33,467350
臺南,22.993239,120.204772,-0.34,28.44,-3.71,71.37,6.21,-0.29,467410
永康,23.038386,120.2367,-0.49,27.66,0.14,74.93,10.16,2.68,467420
嘉義,23.495925,120.432906,0.06,27.75,-4.4,74.8,4.56,-4.32,467480
臺中,24.145736,120.684075,-0.23,27.72,3.83,78.23,4.94,-0.97,467490
阿里山,23.508208,120.813242,-0.8,13.32,0.11,91.93,3.98,-11.9,467530
大武,22.355675,120.903789,-0.17,27.36,3.28,81.4,8.12,-4.65,467540
玉山,23.487614,120.959522,0.5,8.01,-0.14,76.83,4.45,-7.03,467550
新竹,24.827853,121.014219,-0.46,27.18,-2.96,71.03,3.41,-3.79,467571
恆春,22.003897,120.746339,-0.34,27.6,4.07,81.47,12.29,1.02,467590
成功,23.097486,121.373428,-0.19,26.91,-1.67,77.07,5.29,-5.7,467610
日月潭,23.881325,120.90805,-0.2,22.11,-5.14,79.07,3.83,-3.44,467650
臺東,22.752211,121.154586,-0.32,27.53,0.17,76.76,7.76,-2.14,467660
馬祖,26.169269,119.923419,0.33,26.48,-8.43,73.93,1.67,-2.08,467990
山佳,24.974944,121.402008,-0.67,26.79,3.27,78.73,9.68,0.7,C0A520
坪林,24.938183,121.70975,-0.73,23.69,5.02,94.07,26.0,6.99,C0A530
泰平,24.971197,121.823711,-0.53,22.86,-0.51,91.91,30.77,7.95,C0A550
桶後,24.848222,121.597992,-0.66,23.2,0.49,89.87,17.7,-2.29,C0A570
石碇,24.993969,121.662917,-0.94,24.02,-0.26,87.33,28.87,12.98,C0A640
大坪,25.165914,121.632969,-0.57,23.83,0.04,89.33,30.92,11.7,C0A860
五指山,25.132153,121.608692,-0.62,21.61,-0.5,93.65,31.17,13.14,C0A870
雙溪,25.036003,121.864242,-0.36,25.59,0.66,87.1,27.5,9.41,C0A890
三和,25.233153,121.595236,-1.06,24.38,5.42,92.56,24.55,10.46,C0A931
金山,25.223628,121.643967,-0.61,26.15,3.58,84.7,19.12,9.42,C0A940
鼻頭角,25.129036,121.923372,-0.52,26.28,-3.66,81.97,10.82,4.84,C0A950
三貂角,25.007606,122.002058,-1.12,25.4,8.56,91.27,11.47,3.13,C0A970
社子,25.109508,121.469681,-0.92,26.96,1.33,75.23,15.78,7.01,C0A980
天母,25.117494,121.537169,-0.83,26.8,2.33,75.63,17.88,4.41,C0A9C0
內湖,25.079422,121.57545,-0.84,26.94,4.97,80.43,17.5,4.01,C0A9F0
大屯山,25.175675,121.522408,-1.14,18.82,2.77,97.6,35.82,14.69,C0AC40
三峽,24.939025,121.369728,-0.87,26.84,2.35,78.47,8.43,2.21,C0AC60
信義,25.037822,121.564597,-0.9,26.62,1.87,78.13,18.68,9.99,C0AC70
文山,25.00235,121.575728,-1.14,25.89,2.08,82.5,19.67,9.35,C0AC80
新莊,25.051478,121.446756,-1.34,27.03,3.25,74.07,9.05,3.66,C0ACA0
八里,25.150211,121.403947,-0.86,27.1,0.18,73.7,16.27,10.48,C0AD10
蘆洲,25.086594,121.472331,-1.08,27.61,-2.09,71.27,11.03,5.73,C0AD30
土城,24.973208,121.445169,-0.87,26.31,0.8,77.73,10.75,4.02,C0AD40
鶯歌,24.951533,121.346294,-1.03,26.48,4.36,82.7,7.52,2.34,C0AD50
汐止,25.066881,121.658778,-0.79,26.48,3.22,84.57,28.28,15.59,C0AH00
永和,25.01125,121.508111,-0.79,27.17,5.07,77.5,12.7,4.55,C0AH10
五分山,25.07125,121.780794,-0.87,20.94,1.28,95.35,32.09,9.33,C0AH30
平等,25.129142,121.577086,-0.36,24.66,1.45,85.9,27.85,7.55,C0AH40
林口,25.072181,121.38084,-0.93,25.21,10.03,95.4,13.4,6.68,C0AH50
松山,25.04871,121.55042,-0.82,27.21,0.65,68.77,15.3,5.63,C0AH70
深坑,25.002703,121.628328,-0.74,25.35,1.75,85.5,23.75,11.79,C0AH80
福山植物園,24.760717,121.58135,-0.33,21.46,0.14,92.73,22.6,5.62,C0AH90
五股,25.07445,121.42728,-0.41,25.77,-2.34,83.4,12.25,4.36,C0AI00
屈尺,24.92184,121.54475,-0.22,25.6,0.3,84.07,17.67,2.95,C0AI10
白沙灣,25.283128,121.519058,0.12,26.35,3.87,84.57,12.22,1.43,C0AI20
三重,25.057328,121.500629,-0.21,27.21,-0.27,78.67,9.08,2.73,C0AI30
石牌,25.115597,121.513139,-0.37,27.14,0.27,71.03,14.62,5.12,C0AI40
七堵,25.094819,121.71713,-0.34,26.36,-0.52,83.33,26.98,8.74,C0B010
基隆嶼,25.19141,121.78391,-0.05,26.41,8.63,97.37,6.46,-1.99,C0B020
復興,24.820208,121.352281,-1.38,22.97,1.19,81.7,12.78,-1.04,C0C460
桃園,24.992425,121.323172,-0.89,27.01,3.83,74.2,10.81,4.31,C0C480
八德,24.928708,121.283289,-0.68,26.5,2.2,77.47,9.33,3.86,C0C490
觀音,25.027072,121.153317,-0.77,26.2,1.38,79.27,8.1,3.18,C0C590
蘆竹,25.084275,121.265767,-0.75,26.46,1.85,81.1,10.17,6.69,C0C620
大溪,24.882853,121.265547,-0.93,25.36,2.24,77.37,7.55,1.75,C0C630
平鎮,24.897503,121.214636,-1.83,24.2,0.81,78.67,5.6,-0.55,C0C650
楊梅,24.912375,121.143047,-1.05,25.84,3.5,78.2,6.55,1.19,C0C660
龍潭,24.870056,121.221389,-0.98,25.01,1.18,77.93,8.63,1.83,C0C670
龜山,25.02846,121.38656,-0.93,25.0,1.7,80.53,11.78,5.57,C0C680
中壢,24.977661,121.256375,-0.31,26.14,-0.78,75.07,7.7,2.1,C0C700
大溪永福,24.892936,121.324975,-0.09,25.05,-3.03,82.23,10.08,3.18,C0C710
梅花,24.678347,121.208558,-0.27,23.5,0.6,84.03,5.72,-7.12,C0D360
峨眉,24.6905,121.017189,-0.53,25.86,0.3,84.8,4.22,0.1,C0D430
打鐵坑,24.849664,121.150789,-0.77,24.75,4.08,88.17,7.72,-0.19,C0D480
橫山,24.71116,121.11693,-1.02,24.69,0.98,84.13,6.6,-0.39,C0D540
雪霸,24.526972,121.11605,-0.99,16.21,-2.25,85.3,5.43,-4.42,C0D550
竹東,24.767147,121.057881,-0.37,26.53,3.45,75.3,4.73,-0.56,C0D560
寶山,24.735006,121.025192,-0.87,25.1,3.21,85.5,4.6,-1.72,C0D580
新豐,24.87068,120.97721,-1.06,25.77,3.07,82.07,3.57,-0.79,C0D590
湖口,24.904794,121.043628,-0.9,26.33,1.41,77.4,4.87,0.43,C0D650
新竹市東區,24.798681,120.986942,-0.36,26.86,0.69,74.77,3.08,-0.86,C0D660
竹南,24.708978,120.888897,-0.62,26.57,1.29,77.03,1.78,-3.39,C0E420
南庄,24.601775,121.000214,-0.64,24.38,2.34,87.03,4.35,-5.98,C0E430
明德,24.583486,120.885411,-0.82,26.08,0.81,81.5,1.92,-1.2,C0E550
通霄,24.471892,120.704622,-0.74,26.36,0.25,81.93,0.83,-1.2,C0E590
馬都安,24.451272,120.930192,-0.7,21.87,-1.25,83.7,2.75,-4.68,C0E610
頭份,24.688247,120.912206,-0.7,27.15,1.95,73.93,1.67,-2.16,C0E730
造橋,24.637056,120.864778,-0.69,26.77,0.61,80.77,1.35,-1.59,C0E740
苗栗,24.564569,120.824575,-0.73,27.11,-0.18,73.13,1.55,-1.0,C0E750
銅鑼,24.489681,120.790853,-0.65,26.33,-1.22,78.23,1.18,-1.9,C0E780
西湖,24.562947,120.7485,-0.93,25.77,1.03,85.9,0.78,-1.12,C0E810
獅潭,24.539133,120.920042,-0.69,24.94,-4.77,81.17,4.88,-0.52,C0E820
苑裡,24.439714,120.653053,-0.39,27.5,-2.13,74.83,0.33,-1.47,C0E830
大河,24.618069,120.948578,-0.45,25.87,-1.59,80.37,2.13,-2.54,C0E850
高鐵苗栗,24.60725,120.826094,-0.66,26.77,0.9,76.23,1.18,-0.14,C0E870
雪山圈谷,24.388594,121.236339,-0.15,7.88,-7.26,74.0,3.65,-3.87,C0F0A0
石岡,24.276061,120.777644,-0.63,25.54,0.36,81.07,2.5,1.42,C0F0B0
中坑,24.248517,120.903319,-0.76,21.37,2.18,94.33,4.05,-0.44,C0F0C0
審馬陣,24.381675,121.4203,0.03,10.69,-4.8,74.07,15.18,2.87,C0F0D0
東勢,24.246428,120.833047,-0.72,25.27,-1.03,78.43,1.82,-1.7,C0F850
大坑,24.173142,120.722289,-0.78,27.1,-0.71,72.83,6.93,3.65,C0F970
神岡,24.272481,120.658314,-0.65,26.47,-1.84,77.5,0.48,-1.15,C0F9I0
大安,24.345061,120.588025,-0.68,27.0,-3.66,76.83,0.22,-1.12,C0F9K0
后里,24.310436,120.729725,-0.28,26.59,0.05,79.3,1.35,-0.97,C0F9L0
豐原,24.254322,120.720692,-0.69,26.44,1.01,76.8,1.15,-1.44,C0F9M0
大里,24.092464,120.701378,-0.28,28.61,-0.6,71.23,5.7,2.74,C0F9N0
潭子,24.213106,120.703933,-0.5,27.77,2.1,75.37,1.48,-0.81,C0F9O0
清水,24.312297,120.562242,-0.55,27.47,-2.36,78.3,0.13,-0.88,C0F9P0
外埔,24.347817,120.705686,-0.43,26.6,-2.74,80.9,0.85,-1.61,C0F9Q0
龍井,24.184536,120.528972,-0.83,27.42,6.18,86.67,0.2,-0.95,C0F9R0
烏日,24.107058,120.624103,-0.4,28.13,-2.42,70.2,3.65,1.21,C0F9S0
西屯,24.179494,120.641275,-0.56,27.51,-0.87,73.67,1.32,-0.08,C0F9T0
南屯,24.137006,120.637969,-0.41,28.47,-1.18,70.67,3.63,1.3,C0F9U0
新社,24.200172,120.815806,-0.3,24.86,1.24,83.8,2.52,-1.57,C0F9V0
大雅(中科園區),24.21528,120.62445,-0.77,26.53,0.72,78.0,0.43,-1.08,C0F9X0
桃山,24.432739,121.303808,-0.28,9.85,-4.34,79.6,0.0,-11.92,C0F9Y0
雪山東峰,24.388792,121.268675,-0.17,10.76,-5.81,76.17,1.98,-6.1,C0F9Z0
芬園,24.015678,120.6213,-0.38,27.01,1.25,82.53,4.92,1.77,C0G620
員林,23.946503,120.585597,-0.31,27.66,2.41,81.43,1.77,-3.49,C0G650
溪湖,23.94835,120.479122,-0.36,27.57,-3.58,77.83,1.75,-0.35,C0G660
溪州,23.851589,120.499093,-0.39,27.17,-0.97,78.03,1.3,-1.82,C0G720
二林,23.903325,120.376081,-0.49,26.96,-3.04,82.9,2.02,0.01,C0G730
大城,23.852487,120.320935,-0.26,27.32,-2.88,76.37,0.72,-2.48,C0G740
福興,24.041289,120.437669,-0.69,28.17,-0.18,78.53,0.32,-1.16,C0G770
秀水,24.03405,120.503869,-0.66,27.92,-4.53,73.8,0.37,-1.28,C0G780
埔鹽,24.000394,120.431683,-0.63,27.27,-1.8,79.67,0.87,-0.54,C0G800
埔心,23.947633,120.525456,-0.06,28.5,0.51,76.13,1.7,-0.31,C0G810
田尾,23.901669,120.509389,-0.07,28.21,-5.31,77.43,1.6,-0.57,C0G820
埤頭,23.866003,120.452806,-0.89,26.97,-3.84,83.23,0.58,-1.71,C0G830
社頭,23.897647,120.5862,-0.58,28.17,-1.3,72.13,3.57,0.53,C0G860
二水,23.810742,120.6173,-0.79,27.1,-3.32,75.87,4.57,0.01,C0G880
伸港,24.148933,120.484403,-0.56,27.76,0.8,80.27,0.1,-1.11,C0G890
埔里,23.972169,120.952425,-0.45,25.67,-2.01,78.07,3.12,-1.11,C0H890
草屯,23.973672,120.68085,-0.26,27.9,0.9,76.67,4.25,1.38,C0H960
昆陽,24.121322,121.273642,-0.0,10.71,-3.83,82.3,4.38,-3.27,C0H990
神木村,23.532742,120.843667,-0.11,18.65,-1.95,89.67,4.62,-6.4,C0H9A0
廬山,24.033311,121.181808,-0.28,19.28,-4.91,81.1,3.23,-5.06,C0I010
信義,23.689694,120.851036,-0.54,24.24,-5.1,82.23,2.98,-2.65,C0I080
竹山,23.761225,120.688156,0.14,26.82,-5.18,76.12,4.2,-4.34,C0I110
水里,23.812553,120.849792,-0.33,26.11,-5.97,74.97,1.97,-1.42,C0I360
魚池,23.895703,120.94135,-0.48,24.0,-4.9,81.53,4.5,-0.66,C0I370
集集,23.828206,120.801467,-0.52,26.34,1.58,85.27,3.18,-1.66,C0I380
仁愛,24.022122,121.132206,-0.47,21.0,-2.91,82.83,3.47,-1.54,C0I390
名間,23.837053,120.701447,-0.39,26.66,-3.55,77.6,4.53,-1.1,C0I410
國姓,24.037803,120.855072,-0.47,26.35,-5.3,78.7,3.52,0.1,C0I420
南投,23.911469,120.687331,-0.45,27.58,-0.9,75.1,2.3,-1.3,C0I460
梅峰,24.085272,121.173572,-0.31,15.55,-2.07,86.6,3.55,-4.23,C0I480
萬大林道,23.928228,121.091411,-0.4,18.81,2.47,93.47,3.12,-2.69,C0I490
小奇萊,24.131764,121.295717,0.09,10.66,-7.96,75.42,2.63,-6.52,C0I530
崙背,23.75555,120.318925,-0.32,27.11,-1.89,81.17,0.45,-1.5,C0K250
四湖,23.630414,120.227125,-0.03,27.84,-2.72,77.07,0.25,-3.26,C0K280
宜梧,23.536281,120.169329,-0.46,27.55,-1.24,79.17,0.32,-1.8,C0K291
虎尾,23.719183,120.442036,-0.73,27.34,-1.21,77.03,8.18,2.29,C0K330
土庫,23.679029,120.395574,-0.46,27.27,-0.45,77.97,1.48,-2.37,C0K390
斗六,23.720583,120.541127,-0.49,27.18,4.89,85.63,6.77,0.36,C0K400
北港,23.573957,120.292802,-0.36,27.55,-3.54,76.2,0.87,-2.75,C0K410
西螺,23.800407,120.467394,-0.56,27.1,-5.36,76.6,1.8,-1.68,C0K420
褒忠,23.690938,120.303634,-0.46,27.08,-2.74,78.03,1.13,-2.18,C0K430
二崙,23.772797,120.408944,-0.6,26.93,-1.19,79.5,4.88,1.75,C0K440
大埤,23.646074,120.431537,-0.46,27.24,-3.73,76.57,1.7,-2.81,C0K450
斗南,23.678734,120.478359,-0.45,27.2,-1.05,76.8,3.22,-2.03,C0K460
林內,23.748675,120.609642,-0.53,26.55,0.35,84.5,5.57,0.17,C0K470
莿桐,23.761192,120.502372,-0.5,26.98,0.05,79.37,2.82,-1.27,C0K480
元長,23.64981,120.315024,-0.44,27.39,0.23,78.6,0.72,-3.45,C0K500
水林,23.572924,120.24597,-0.31,27.6,-2.53,76.03,0.13,-4.25,C0K510
臺西,23.701547,120.197559,-0.4,27.19,-1.68,78.9,0.17,-3.01,C0K530
蔦松,23.514319,120.229736,-0.43,27.55,-2.04,78.67,1.22,-3.09,C0K550
棋山,23.68645,120.603417,-0.31,26.94,-2.76,79.53,7.48,-0.96,C0K560
高鐵雲林,23.737456,120.417944,-0.54,27.42,0.49,80.07,7.25,4.41,C0K580
東後寮,23.369908,120.248065,-0.42,27.14,-2.48,77.53,3.85,-2.2,C0M520
奮起湖,23.493903,120.699253,-0.42,19.01,0.59,94.33,4.98,-11.23,C0M530
中埔,23.42538,120.5229,-0.46,26.58,2.08,81.97,6.8,-4.02,C0M640
朴子,23.43463,120.23902,-0.43,27.33,-2.72,76.9,2.6,-3.16,C0M650
溪口,23.604131,120.403569,-0.42,27.16,-4.33,78.17,0.55,-2.58,C0M660
大林,23.600616,120.45841,-0.41,27.44,0.01,78.43,1.33,-5.59,C0M670
太保,23.455062,120.331455,-0.43,27.57,-1.73,77.9,0.75,-5.23,C0M680
水上,23.419734,120.388909,-0.43,27.13,0.63,79.17,3.75,-2.73,C0M690
竹崎,23.526178,120.555508,-0.38,26.43,1.04,83.47,10.15,-1.45,C0M700
東石,23.458927,120.15385,-0.42,27.49,-2.26,77.1,0.45,-4.32,C0M710
番路,23.464657,120.554156,-0.52,25.94,0.18,80.1,6.98,-3.68,C0M720
嘉義市東區,23.457673,120.460531,-0.35,28.01,7.97,85.75,6.4,-2.88,C0M730
六腳,23.492871,120.290625,-0.43,27.43,-1.12,77.37,0.45,-4.49,C0M740
布袋,23.380878,120.167789,-0.3,27.69,-3.87,76.67,0.75,-4.92,C0M750
民雄,23.551754,120.428457,-0.39,27.63,0.88,80.93,2.37,-4.56,C0M760
嘉義梅山,23.585398,120.555587,-0.46,26.62,5.01,85.47,8.27,-1.88,C0M770
鹿草,23.41134,120.30835,-0.4,27.59,-2.34,75.67,0.67,-5.84,C0M780
新港,23.553269,120.345728,-0.49,27.6,-6.54,72.0,2.48,-2.66,C0M790
茶山,23.299075,120.664767,-0.53,24.48,-1.89,84.13,5.5,-6.6,C0M800
里佳,23.389125,120.716647,-0.52,19.47,0.17,91.37,6.97,-6.1,C0M810
達邦,23.453994,120.749517,-0.44,21.56,-3.71,81.3,3.85,-6.33,C0M820
表湖,23.24186,120.64166,-0.38,23.2,1.01,90.4,4.03,-0.63,C0M850
北寮,23.079561,120.495008,-0.42,26.66,0.31,85.4,12.12,1.7,C0O830
王爺宮,23.222064,120.40085,-0.82,26.3,0.81,86.17,7.32,-2.98,C0O840
大內,23.11885,120.36083,-0.61,27.61,2.98,85.5,6.3,-1.43,C0O860
善化,23.112883,120.297219,-0.3,27.53,3.69,85.97,5.73,-0.94,C0O900
崎頂,22.959547,120.369317,-0.7,26.22,-0.05,83.8,4.75,-4.4,C0O960
虎頭埤,23.021375,120.347878,-0.71,26.57,-5.04,78.13,7.77,-1.85,C0O970
新市,23.061614,120.298197,-0.58,27.48,-0.16,80.8,7.35,-1.04,C0O980
媽廟,22.99175,120.293525,-0.74,27.41,2.81,84.57,6.9,-2.26,C0O990
尾寮山,22.833111,120.683889,-0.2,21.19,-1.7,91.5,7.53,-15.03,C0R100
阿禮,22.742908,120.743678,-0.78,21.21,2.15,90.37,3.47,-8.57,C0R130
瑪家,22.682903,120.686639,-0.42,22.99,-5.73,83.93,4.8,-12.51,C0R140
三地門,22.709889,120.639944,-0.01,27.37,9.37,89.93,5.3,-10.77,C0R150
鹽埔,22.739558,120.530778,-0.46,27.33,4.36,92.63,6.37,-4.66,C0R160
屏東,22.660269,120.494072,-0.48,27.57,-11.52,71.43,7.82,-3.3,C0R170
赤山,22.592333,120.614306,-0.42,27.22,-0.12,86.37,11.27,-5.78,C0R190
潮州,22.534361,120.54,-0.15,27.57,0.92,81.0,7.78,-3.79,C0R220
來義,22.527306,120.625111,-0.66,26.53,2.97,87.5,9.58,-4.83,C0R240
春日,22.370361,120.628306,-0.61,26.62,3.52,87.2,9.8,-2.93,C0R260
琉球嶼,22.332244,120.362236,-0.65,27.1,1.2,87.31,4.8,-2.05,C0R270
貓鼻頭,21.921774,120.7358,-0.12,27.4,4.44,88.5,20.25,10.36,C0R350
高樹,22.826389,120.600806,-0.01,27.82,1.58,82.13,2.93,-9.39,C0R470
長治,22.693128,120.542622,-0.39,27.55,-3.96,79.3,8.05,-3.63,C0R480
九如,22.7405,120.490503,-0.33,27.84,-4.2,78.83,5.18,-3.66,C0R490
崁頂,22.514781,120.506914,-0.3,27.98,-0.73,80.63,6.48,-3.67,C0R520
佳冬,22.419456,120.552375,-0.07,28.01,-1.54,79.73,6.13,-3.38,C0R540
新埤,22.467947,120.582894,-0.25,27.39,-3.13,81.5,9.88,-1.24,C0R550
新園,22.5434,120.461558,-0.45,27.83,-2.59,79.23,5.73,-4.8,C0R560
麟洛,22.65078,120.52719,-0.31,27.98,-2.05,77.5,6.72,-4.21,C0R570
南州,22.48591,120.50274,-0.55,27.48,-3.59,77.0,6.32,-3.31,C0R580
里港,22.77919,120.49459,-0.58,27.39,1.41,84.5,4.6,-3.97,C0R590
舊泰武,22.588194,120.664944,-0.17,23.5,-0.04,88.13,10.27,-13.88,C0R600
墾雷,21.900836,120.855269,-0.96,26.9,7.6,93.0,41.25,27.59,C0R620
東港,22.46247,120.44074,-0.38,27.99,-0.34,81.93,3.82,-2.01,C0R640
竹田,22.58486,120.54344,-0.3,27.76,0.07,84.37,7.8,-1.53,C0R650
下馬,23.150427,121.070312,-0.49,21.87,1.6,87.03,3.2,0.61,C0S660
太麻里,22.60902,120.98533,0.7,24.47,-0.78,85.03,6.58,-3.57,C0S690
知本,22.684866,121.005642,-0.42,23.41,0.95,89.67,7.45,-7.46,C0S700
鹿野,22.917711,121.122994,-0.61,23.73,-0.08,84.83,7.65,-4.78,C0S710
綠島,22.6672,121.47533,-0.44,26.26,0.2,86.9,7.95,-1.45,C0S730
池上,23.119628,121.209469,-0.32,24.71,0.32,87.0,5.42,-7.15,C0S740
向陽,23.248397,120.986133,0.3,14.45,1.97,93.4,4.8,-12.86,C0S750
紅石,23.069131,121.126219,-0.28,17.4,1.72,96.1,5.57,-4.54,C0S760
大溪山,22.478475,120.943325,-0.01,24.28,-0.07,88.8,10.95,-3.41,C0S770
金崙,22.538122,120.966875,-1.01,25.02,2.03,87.03,7.88,-5.6,C0S790
東河,22.972672,121.303986,-1.06,26.51,1.03,83.4,4.87,-4.64,C0S810
長濱,23.286817,121.411975,-0.34,25.81,2.3,81.2,6.28,-1.91,C0S830
南田,22.279725,120.889208,-0.36,26.86,-0.47,85.13,7.5,-4.75,C0S840
關山,23.0395,121.175017,-0.39,25.57,0.4,85.27,4.68,-8.52,C0S890
蘭嶼高中,22.04909,121.51214,-0.45,27.62,-0.13,80.13,11.37,3.51,C0S900
蘭嶼燈塔,22.081197,121.503117,-0.5,25.86,5.54,91.83,6.47,0.93,C0S910
金峰嘉蘭,22.594789,120.960825,-0.22,26.17,1.32,84.13,6.13,2.57,C0S920
延平,22.902581,121.084058,-0.19,25.46,-0.02,81.67,6.05,0.87,C0S930
石寧山,23.223772,121.406639,-0.58,26.17,1.87,81.9,7.17,3.32,C0S940
七塊厝,22.954453,121.229922,-0.25,24.25,0.18,87.57,7.62,2.69,C0S950
加津林,22.416211,120.926942,-0.29,26.96,0.35,79.73,8.73,3.52,C0S970
勝林山,22.430439,120.8938,-0.08,21.43,2.64,95.83,10.38,4.21,C0S980
山豬窟,22.318619,120.857372,-0.46,24.5,0.77,87.4,9.0,3.54,C0S990
歷坵,22.520969,120.89185,-0.38,23.43,4.75,93.67,5.97,2.66,C0SA00
檳榔四格山,22.810031,121.109308,-0.33,24.34,1.03,87.97,9.25,1.2,C0SA10
金崙山,22.567419,120.959667,-0.44,21.16,2.4,94.47,8.72,3.28,C0SA20
都歷,23.020333,121.323642,-0.35,26.44,0.45,78.4,6.65,2.66,C0SA30
瑞和,22.974361,121.156697,-0.17,25.57,-0.3,83.63,8.65,3.03,C0SA40
土坂,22.453108,120.887572,-0.34,25.54,0.98,86.63,7.85,3.35,C0SA80
大禹嶺,24.186117,121.316086,-0.58,12.0,-1.38,85.13,5.32,-3.19,C0T790
天祥,24.179597,121.495639,0.19,23.44,-0.57,80.83,6.85,-7.76,C0T820
鯉魚潭,23.935639,121.508944,-0.34,24.87,0.25,86.17,5.45,-9.23,C0T870
西林,23.8119,121.441458,-0.07,25.57,-1.67,76.9,5.75,-6.44,C0T900
光復,23.660694,121.424964,-0.17,25.68,2.29,87.83,6.48,-6.39,C0T960
月眉山,23.809928,121.539828,-0.53,23.21,3.45,95.13,7.03,-5.56,C0T9A0
水源,23.991861,121.537169,0.11,23.46,-1.54,84.3,7.57,-8.29,C0T9B0
和中,24.26676,121.74103,-0.2,26.68,6.89,93.53,8.05,-4.29,C0T9D0
大坑,23.880628,121.581981,-0.32,23.87,-1.15,86.07,5.0,-7.4,C0T9E0
水璉,23.797131,121.542514,-0.84,25.0,0.59,83.57,7.78,-4.96,C0T9F0
鳳林山,23.735269,121.420131,-1.03,23.08,7.59,96.33,6.6,-6.84,C0T9G0
加路蘭山,23.682947,121.5274,-0.42,22.62,2.61,90.53,10.07,-1.51,C0T9H0
豐濱,23.583897,121.514806,-0.3,25.35,-4.56,81.17,6.85,-5.27,C0T9I0
靜浦,23.455167,121.495028,0.11,26.42,1.05,83.83,6.1,-3.76,C0T9M0
富里,23.171639,121.249378,-0.24,25.09,0.45,85.33,6.57,0.51,C0T9N0
雙連埤,24.753033,121.641303,-0.49,22.49,2.88,97.2,18.22,4.92,C0U520
礁溪,24.817539,121.765608,-0.48,26.19,-4.29,83.87,16.37,1.75,C0U600
玉蘭,24.675286,121.587061,-0.38,23.7,-0.72,81.63,23.1,4.01,C0U650
太平山,24.505486,121.525656,-1.2,14.62,1.08,94.6,17.4,-9.15,C0U710
南山,24.43742,121.38167,-0.26,19.75,0.81,92.9,6.45,0.53,C0U720
龜山島,24.841667,121.953133,-2.1,22.76,1.93,94.37,6.98,1.81,C0U750
東澳,24.52196,121.83318,-0.45,26.53,-2.71,79.63,23.57,4.15,C0U760
南澳,24.44935,121.81022,-0.77,26.36,-6.72,73.03,21.4,7.14,C0U770
五結,24.68637,121.79794,-1.0,26.22,-3.21,75.77,20.78,9.63,C0U780
頭城,24.85323,121.8308,-0.34,26.71,-3.76,80.3,17.85,6.61,C0U860
大礁溪,24.791042,121.675047,-0.49,23.17,0.07,85.1,17.7,5.09,C0U870
三星,24.66812,121.65302,-0.42,25.51,1.47,88.2,24.65,9.51,C0U890
內城,24.71813,121.68766,-0.33,25.84,-1.64,80.17,17.03,7.13,C0U900
冬山,24.63373,121.7937,-0.44,26.23,-1.9,77.33,19.28,7.99,C0U910
羅東,24.68184,121.74934,-0.49,25.77,1.32,80.77,20.4,9.86,C0U940
鶯子嶺,24.89754,121.79244,-0.61,19.27,4.2,98.9,26.23,6.67,C0U950
翠峰湖,24.510856,121.608044,-0.45,15.17,0.59,94.03,25.48,2.92,C0U960
大福,24.80064,121.81389,-0.21,26.57,-4.73,77.77,15.97,7.38,C0U970
坪林石牌,24.86478,121.77396,-0.41,22.08,1.67,95.03,23.55,8.42,C0U980
員山,24.74435,121.72247,-0.22,26.39,-1.7,77.93,16.77,6.91,C0U990
土場,24.576533,121.495333,-0.59,23.64,8.93,99.0,17.33,5.93,C0UA00
鴛鴦湖,24.590269,121.412228,-0.63,16.24,4.8,98.67,13.47,1.69,C0UA10
多加屯,24.368614,121.373189,-0.36,12.03,-2.5,85.23,12.03,1.44,C0UA20
白嶺,24.527819,121.519031,-0.59,18.19,0.6,94.7,14.4,-0.31,C0UA30
西德山,24.560647,121.752608,-0.51,19.27,0.16,92.67,31.93,11.61,C0UA40
西帽山,24.555361,121.802628,-0.51,21.01,6.37,98.5,37.83,14.07,C0UA50
樟樹山,24.41393,121.78325,-0.19,23.38,-1.6,83.43,18.08,7.16,C0UA60
桃源谷,24.962606,121.888875,-0.53,22.3,0.94,97.1,20.12,3.78,C0UA70
復興,23.222403,120.806089,-0.29,23.67,-1.23,80.87,2.65,-6.69,C0V210
美濃,22.898742,120.519153,0.01,27.42,-9.0,73.87,6.63,-6.38,C0V310
溪埔,22.738578,120.446797,-0.16,27.8,-2.38,80.03,4.4,-5.38,C0V350
內門,22.975481,120.466769,-0.57,26.56,-3.04,82.6,5.25,-6.15,C0V360
古亭坑,22.893178,120.401947,-0.28,26.67,-4.74,81.3,5.7,-3.89,C0V370
阿公店,22.804194,120.355528,-0.31,27.56,-0.91,80.53,6.18,-3.27,C0V400
鳳山,22.646653,120.356122,-0.93,27.63,-7.12,74.0,3.07,-6.09,C0V440
鳳森,22.545064,120.392592,-0.6,27.28,2.77,88.17,5.25,-5.23,C0V450
新興,22.627422,120.298803,-0.42,28.4,5.52,81.83,8.07,-0.86,C0V490
阿蓮,22.883208,120.327508,-0.86,27.55,-10.4,70.0,6.65,-2.08,C0V530
梓官,22.760558,120.267211,-0.57,28.2,-0.72,77.73,4.05,-3.27,C0V610
永安,22.82315,120.236856,-0.77,27.7,-3.41,78.53,8.15,0.43,C0V620
茄萣,22.906642,120.182608,-0.79,27.82,-0.7,75.83,8.4,-0.55,C0V630
湖內,22.887139,120.2445,-0.23,28.12,-1.39,78.97,3.92,-3.39,C0V640
彌陀,22.783806,120.246361,-0.69,27.82,-6.67,74.07,3.45,-3.32,C0V650
岡山,22.797078,120.294958,-0.78,28.18,1.57,78.07,6.45,-2.27,C0V660
仁武,22.701083,120.347722,-0.81,27.97,-2.66,75.87,5.25,-2.7,C0V680
鼓山,22.623325,120.275575,-0.42,28.31,-0.88,78.03,8.1,0.19,C0V690
三民,22.645017,120.311233,-0.68,28.58,1.0,73.47,8.47,-0.63,C0V700
苓雅,22.622742,120.330669,-0.39,28.54,-0.25,73.0,5.8,-3.17,C0V710
林園,22.507747,120.394511,-0.38,28.71,1.42,77.27,5.77,-3.03,C0V720
大寮,22.605614,120.395717,-0.52,28.32,5.58,83.83,4.2,-4.49,C0V730
旗山,22.888614,120.483597,-0.56,27.33,0.45,81.23,5.0,-5.47,C0V740
路竹,22.854997,120.259439,-0.45,28.35,-1.03,76.62,11.17,2.85,C0V750
橋頭,22.757806,120.30575,-0.62,28.4,-1.46,76.5,5.05,-2.69,C0V760
大社,22.730306,120.346639,-0.62,28.07,3.34,80.93,4.6,-4.82,C0V770
萬山,22.905944,120.688056,-0.24,25.07,-1.84,83.8,4.35,-6.48,C0V790
六龜,22.997889,120.633583,-0.32,26.57,0.12,81.1,5.32,-8.79,C0V800
左營,22.67491,120.28491,-0.52,27.91,4.73,85.67,7.23,-1.53,C0V810
小林,23.148408,120.63325,-0.43,24.93,0.2,83.9,2.2,0.23,C0V820
東莒,25.9652,119.98069,-2.35,24.0,-12.89,65.3,0.53,-2.09,C0W110
西嶼,23.5626,119.468436,-0.7,25.92,-1.72,84.57,0.0,-1.42,C0W120
花嶼,23.40007,119.32276,-0.41,26.79,-2.83,82.1,0.02,-2.56,C0W130
金沙,24.488292,118.408778,0.2,27.92,-7.56,67.93,0.25,-1.04,C0W140
金寧,24.457703,118.328989,0.27,28.76,-8.25,65.47,0.07,-0.87,C0W150
烏坵,24.9944,119.44956,0.09,26.85,-4.94,77.37,0.52,-0.13,C0W160
東河,23.296598,120.385608,-0.51,27.36,-0.62,81.6,6.47,-2.38,C0X050
下營,23.22695,120.256261,-0.34,27.45,-2.14,79.4,2.37,-5.49,C0X060
佳里,23.173039,120.145086,-0.49,27.84,-0.47,79.5,1.97,-3.91,C0X080
臺南市北區,23.010394,120.194228,-0.51,28.45,0.94,74.23,8.37,-0.86,C0X100
臺南市南區,22.961189,120.188378,-0.56,28.38,-0.88,77.8,5.02,-3.34,C0X110
麻豆,23.183289,120.248611,-0.73,27.88,-1.07,76.33,3.92,-3.13,C0X120
官田,23.193217,120.315422,-0.3,28.24,-0.18,79.9,5.1,-1.34,C0X130
西港,23.125608,120.203108,-0.28,28.41,-0.89,77.07,5.13,-3.79,C0X140
安定,23.102614,120.227839,-0.12,28.36,-2.5,76.9,5.03,-3.85,C0X150
仁德,22.968258,120.257689,-0.59,27.99,-0.63,77.47,4.05,-3.44,C0X160
關廟,22.963017,120.327797,-0.67,27.85,1.09,77.6,7.08,-2.36,C0X170
山上,23.0757,120.363253,-0.66,27.1,3.43,85.43,9.13,-0.15,C0X180
安平,22.993161,120.152181,-0.85,27.92,6.41,85.63,5.22,-2.86,C0X190
左鎮,23.056758,120.408522,-0.63,26.61,1.68,86.5,6.8,-2.66,C0X200
白河,23.347466,120.414427,-0.52,27.19,0.99,81.63,7.68,-0.15,C0X210
學甲,23.230367,120.182187,-0.67,27.14,-1.09,77.03,4.48,-2.89,C0X220
鹽水,23.272621,120.247641,-0.67,27.1,-1.78,78.7,3.2,-3.85,C0X230
關子嶺,23.331169,120.508025,-0.45,24.78,0.47,86.9,9.4,-6.38,C0X240
新營,23.310689,120.316681,-0.48,27.63,-0.66,78.03,2.13,-4.94,C0X250
後壁,23.366358,120.362326,-0.5,27.22,-1.22,80.47,2.02,-4.96,C0X260
將軍,23.214999,120.13577,-0.42,27.46,-0.15,79.3,1.6,-6.16,C0X280
北門,23.267772,120.125481,-0.55,27.52,0.45,80.17,3.42,-4.5,C0X290
鹿寮,23.386047,120.477331,-0.57,26.5,-0.74,84.33,11.08,0.86,C0X300
明里,23.208717,121.262342,-0.24,24.77,4.52,91.7,6.43,-8.29,C0Z020
佳心,23.34567,121.21316,-0.26,21.39,0.77,86.4,8.45,-2.66,C0Z050
玉里,23.3215,121.339656,-0.07,25.61,3.16,86.97,6.3,-5.41,C0Z061
舞鶴,23.46811,121.37407,-0.07,24.64,1.03,90.2,4.92,-5.76,C0Z070
富源,23.587642,121.378225,-0.16,24.75,-1.26,87.6,5.47,-6.48,C0Z080
東華,23.89525,121.549833,-0.26,26.46,-0.02,83.47,5.33,-4.48,C0Z100
吉安光華,23.930925,121.595153,-0.11,26.59,-3.89,82.3,5.43,0.68,C0Z150
鳳林,23.746114,121.453411,-0.4,25.97,-1.8,80.27,5.1,-0.93,C0Z160
卓溪,23.3443,121.3029,0.16,26.01,0.31,82.5,5.75,-3.35,C0Z170
新城,24.03946,121.60454,-0.05,26.78,-5.94,76.07,6.92,-0.44,C0Z180
富世,24.14743,121.6297,-0.15,26.75,0.03,85.0,6.57,1.15,C0Z190
萬榮,23.709219,121.420106,-0.51,25.49,5.15,89.7,4.48,-1.72,C0Z200
瑞穗,23.5239,121.39021,-0.28,25.42,3.11,87.67,5.53,-2.22,C0Z210
和平林道,24.343922,121.656317,-0.23,23.12,-2.22,86.0,13.58,3.54,C0Z220
和平,24.30717,121.77007,-0.41,26.92,-2.21,70.3,5.8,0.77,C0Z230
瑞穗林道,23.49284,121.30688,-0.32,20.08,-0.23,93.37,9.33,-1.46,C0Z250
蕃薯寮,23.73835,121.540108,-0.34,24.48,-4.48,84.93,8.68,1.63,C0Z270
德武,23.47426,121.41071,-0.56,25.1,0.41,86.4,5.98,-1.09,C0Z280
赤柯山,23.36893,121.38293,-0.39,20.98,1.13,90.63,8.07,-1.98,C0Z290
東里,23.26853,121.30547,-0.48,25.31,1.8,91.07,7.82,-0.11,C0Z300
清水斷崖,24.218294,121.689142,-0.5,26.24,6.19,86.1,9.73,1.78,C0Z310
清水林道,23.27125,121.188272,-0.57,22.22,1.27,88.07,6.32,-4.98,C0Z320
安通山,23.290728,121.348528,-0.35,23.7,0.51,85.53,5.83,-0.64,C0Z330
口湖工作站,23.589978,120.180394,-0.34,27.18,0.19,72.1,0.07,-0.32,12J990
東港工作站,22.479997,120.466058,-0.45,27.88,1.23,70.79,2.75,0.02,12Q970
恆春工作站,22.079678,120.714425,-0.55,27.29,1.13,72.67,3.8,1.55,12Q980
萬大發電廠,23.978875,121.139639,-0.19,21.88,-2.3,85.68,1.77,-0.51,42HA10
桃園農改場,24.950944,121.030583,-0.55,26.25,0.6,81.5,5.84,0.66,72C440
桃改五峰分場,24.612194,121.157167,-0.53,20.34,-1.1,88.26,4.87,-7.82,72D080
臺中農改場,24.003028,120.534389,-0.14,27.5,-1.49,79.63,1.22,-2.98,72G600
中改埔里分場,23.903208,120.963364,-0.22,23.52,-1.14,86.86,4.31,1.0,72HA00
南改斗南分場,23.634556,120.477333,-0.19,27.25,-0.81,81.38,2.33,-4.71,72K220
南改義竹分場,23.360694,120.279361,-0.46,27.32,-3.25,79.66,0.9,-4.16,72M360
南改鹿草分場,23.416869,120.283061,-0.19,27.12,-0.23,80.13,0.2,-0.77,72M700
臺南農改場,23.0605,120.342194,-0.48,26.87,6.02,83.61,9.59,1.76,72N100
七股研究中心,23.081672,120.062894,-0.46,27.54,1.15,80.67,2.25,1.09,72N240
高雄農改場,22.709333,120.525889,-0.28,27.55,3.03,85.36,6.61,-5.32,72Q010
東改班鳩分場,22.829528,121.077694,-0.27,25.37,0.58,83.75,6.41,-6.2,72S200
東改賓朗果園,22.813889,121.071278,-0.59,24.68,-2.78,85.54,6.79,-4.8,72S590
花蓮農改場,23.975222,121.563889,-0.05,26.29,-0.32,82.56,9.2,-3.12,72T250
花改蘭陽分場,24.686306,121.716583,-0.34,25.98,-1.1,82.77,20.1,4.53,72U480
高改旗南分場,22.857861,120.516667,-0.93,27.26,8.19,85.07,3.93,-6.18,72V140
茶改北部分場,24.955778,121.631222,-0.33,23.4,3.15,88.14,26.59,8.09,82A750
茶改場,24.908472,121.185333,-0.61,25.42,-0.49,82.45,7.47,-1.93,82C160
茶改中部分場,23.875611,120.913583,-1.32,21.99,1.41,88.67,3.02,-3.94,82H320
茶改南部分場,23.762528,120.7405,-0.59,24.73,3.97,92.83,4.98,-5.29,82H840
茶改東部分場,22.907694,121.130139,-0.42,25.88,0.22,83.69,5.44,-7.06,82S580
農工中心,24.985917,121.239833,-1.04,26.01,4.48,77.29,10.07,2.84,A2C560
畜試北區分所,24.527806,120.770972,-0.45,25.71,1.4,82.66,1.62,0.6,B2E890
畜產試驗所,23.058972,120.336406,-0.55,26.74,1.48,85.52,10.58,1.11,B2N890
畜試南區分所,21.945583,120.802167,-0.48,27.19,-0.78,79.97,11.75,1.09,B2Q810
蓮華池,23.918333,120.885278,-1.57,23.34,6.69,88.04,6.07,-1.08,E2H360
四湖植物園,23.676986,120.163433,-0.24,27.48,-1.01,79.11,0.05,-0.07,E2K600
農試所(霧峰),24.031261,120.688133,-0.36,27.2,-4.16,78.54,4.89,-0.03,G2F820
農試嘉義分所,23.485028,120.473806,-0.59,26.53,3.08,84.13,4.87,-2.24,G2L020
農試溪口農場,23.58565,120.408111,-0.66,27.28,-2.28,80.04,0.52,-0.09,G2M350
農試鳳山分所,22.646611,120.356083,-0.21,27.73,4.26,81.93,2.78,-5.15,G2P820
苗栗農改場,24.495722,120.829111,-0.66,25.8,-2.74,81.18,1.98,-4.76,K2E360
苗改生物防治研究中心,24.422861,120.871833,-0.25,24.86,-0.46,82.96,1.86,0.68,K2E710
種苗改良場,24.225972,120.800917,-0.78,24.23,4.7,85.28,2.02,-4.71,K2F750
溪頭,23.670306,120.798194,-0.43,19.54,0.91,93.52,3.9,-5.84,U2H480
臺大和社,23.590856,120.888864,-0.18,22.32,-0.45,84.86,2.68,-0.54,U2HA30
臺大內茅埔,23.689722,120.851117,-0.23,24.2,-0.83,83.39,3.09,-0.73,U2HA40
臺大竹山,23.756972,120.681556,-0.41,26.44,12.81,94.67,2.94,-1.16,U2HA50
板橋,24.997647,121.442017,-0.7,27.02,3.1,75.87,10.41,1.1,466880
蘇澳,24.596736,121.857372,-0.29,26.7,0.03,78.41,19.67,4.25,467060
梧棲,24.256003,120.523381,-0.41,27.3,-2.07,74.55,0.32,-3.44,467770
四堵,24.8926,121.745736,-1.0,22.65,2.45,92.63,25.18,4.01,C0A540
福山,24.776203,121.502811,-0.71,22.81,1.28,91.7,16.8,-4.26,C0A560
火燒寮,25.002719,121.742892,-0.18,23.69,4.06,94.2,33.98,15.15,C0A650
福隆,25.017842,121.942083,-1.0,25.29,0.02,86.37,8.0,-5.02,C0A880
富貴角,25.263783,121.565258,-0.62,25.16,5.71,91.83,19.13,8.69,C0A920
大直,25.078047,121.542853,-0.62,27.02,3.03,76.73,13.75,2.72,C0A9A0
石牌,25.116342,121.513817,2.71,31.0,-12.38,59.0,0.0,-10.6,C0A9B0
士林,25.090253,121.503019,-0.77,27.29,1.64,72.6,11.58,2.04,C0A9E0
三芝,25.258131,121.501917,-0.32,27.08,0.72,77.83,18.02,10.66,C0AD00
中和,24.992647,121.490444,-0.81,27.28,2.6,75.27,12.15,4.43,C0AG90
大園,25.04775,121.225958,-1.42,26.32,2.14,76.07,8.47,4.14,C0C540
關西,24.7982,121.1739,-0.83,25.6,2.09,81.5,7.42,-0.55,C0D390
香山,24.746892,120.905456,-0.79,26.64,3.55,83.7,3.0,-0.9,C0D570
大湖,24.41494,120.87087,-0.31,24.97,-5.66,80.23,2.07,-1.64,C0E520
三義,24.410933,120.765972,-0.28,24.73,-0.89,83.07,2.7,-5.49,C0E530
後龍,24.606489,120.783933,-0.68,26.72,-2.13,80.37,0.75,-1.19,C0E540
卓蘭,24.312764,120.824753,-0.58,25.85,-1.33,79.57,2.98,-0.57,C0E790
大肚,24.15295,120.572117,-0.67,25.81,2.97,87.73,0.63,-1.06,C0F000
梨山,24.247522,121.243669,0.13,16.11,-9.68,76.07,2.53,-6.09,C0F861
大甲,24.347667,120.640403,0.33,27.85,0.59,84.27,0.32,-1.39,C0F930
中竹林,24.103556,120.751061,-0.04,25.58,-2.35,81.77,4.67,0.86,C0F9A0
鹿港,24.0753,120.430481,-0.44,27.53,-5.59,75.6,0.32,-3.59,C0G640
竹塘,23.846617,120.382486,-0.46,27.14,-2.72,77.53,1.48,-1.66,C0G750
高鐵彰化,23.875247,120.574608,-0.7,27.38,7.78,84.77,4.43,2.81,C0G760
花壇,24.016069,120.552328,-0.21,28.04,-2.43,77.67,1.75,-0.75,C0G790
北斗,23.877586,120.514222,-0.66,27.25,-1.38,81.07,2.45,0.15,C0G840
田中,23.856778,120.588261,0.2,28.91,-5.3,75.0,4.02,0.6,C0G850
芳苑,23.922303,120.320025,-0.28,27.6,-6.14,79.43,0.27,-1.81,C0G870
中寮,23.884447,120.766406,-0.39,26.09,0.7,85.93,4.6,-0.96,C0H950
鳳凰,23.728081,120.787347,-0.1,22.07,-1.21,89.13,4.68,-6.14,C0I090
草嶺,23.59555,120.693461,0.06,21.26,2.67,96.47,5.5,-8.75,C0K240
古坑,23.654301,120.559754,-0.29,26.95,-2.61,77.73,4.17,-2.73,C0K490
雲林東勢,23.674449,120.154778,-0.59,27.32,-2.14,77.1,0.55,-3.16,C0K520
馬頭山,23.324361,120.582017,-0.04,25.48,-3.09,83.5,8.22,-4.93,C0M410
山美,23.383803,120.668217,-0.44,23.97,2.78,91.8,7.38,-7.15,C0M830
曾文,23.219681,120.497328,-0.14,26.52,5.1,91.57,8.08,-7.18,C0O810
玉井,23.126042,120.46055,-0.91,25.78,-4.18,80.83,6.4,-4.81,C0O930
安南,23.076694,120.144861,-0.65,27.84,-2.25,79.17,9.27,1.4,C0O950
萬丹,22.587775,120.490394,-0.41,28.21,-1.33,76.83,4.73,-5.96,C0R510
林邊,22.430836,120.509983,-0.82,27.16,-4.69,73.73,3.85,-2.87,C0R530
甲仙,23.080106,120.591758,-0.25,25.32,-1.38,85.53,8.08,-6.23,C0V250
月眉,22.971003,120.539853,0.17,27.74,0.31,80.63,8.27,-3.86,C0V260
旗津,22.5886,120.285944,-0.48,28.28,3.39,83.8,6.52,-0.66,C0V500
楠梓,22.71975,120.286,-0.21,28.58,-0.96,74.47,5.32,-2.97,C0V670
東引,26.358836,120.483631,-0.04,26.4,-3.17,74.93,2.65,0.8,C0W170
柳營,23.257237,120.373569,-0.74,26.61,0.97,86.0,7.45,-3.49,C0X270
七股,23.147289,120.086253,-0.63,27.35,-0.55,80.73,3.0,-6.96,C0X310
臺大竹山,23.756972,120.681556,-0.41,26.44,12.81,94.67,2.94,-1.16,U2HA50
臺大內茅埔,23.689722,120.851117,-0.23,24.2,-0.83,83.39,3.09,-0.73,U2HA40
臺大和社,23.590856,120.888864,-0.18,22.32,-0.45,84.86,2.68,-0.54,U2HA30
臺大溪頭,23.670306,120.798194,-0.43,19.54,0.91,93.52,3.9,-5.84,U2H480
種苗繁殖,24.225972,120.800917,-0.78,24.23,4.7,85.28,2.02,-4.71,K2F750
苗改生物防治研究中心,24.422861,120.871833,-0.25,24.86,-0.46,82.96,1.86,0.68,K2E710
苗栗農改,24.495722,120.829111,-0.66,25.8,-2.74,81.18,1.98,-4.76,K2E360
農試鳳山分所,22.646611,120.356083,-0.21,27.73,4.26,81.93,2.78,-5.15,G2P820
農試溪口農場,23.58565,120.408111,-0.66,27.28,-2.28,80.04,0.52,-0.09,G2M350
農試嘉義分所,23.485028,120.473806,-0.59,26.53,3.08,84.13,4.87,-2.24,G2L020
農業試驗所,24.031261,120.688133,-0.36,27.2,-4.16,78.54,4.89,-0.03,G2F820
四湖植物園,23.676986,120.163433,-0.24,27.48,-1.01,79.11,0.05,-0.07,E2K600
蓮華池,23.918333,120.885278,-1.57,23.34,6.69,88.04,6.07,-1.08,E2H360
畜試南區分所,21.945583,120.802167,-0.48,27.19,-0.78,79.97,11.75,1.09,B2Q810
畜試所,23.058972,120.336406,-0.55,26.74,1.48,85.52,10.58,1.11,B2N890
畜試北區分所,24.527806,120.770972,-0.45,25.71,1.4,82.66,1.62,0.6,B2E890
古坑花卉中心,23.63353,120.55239,-0.61,26.29,-6.79,80.21,3.09,0.65,A2K570
農工中心,24.985917,121.239833,-1.04,26.01,4.48,77.29,10.07,2.84,A2C560
茶改東部分場,22.907694,121.130139,-0.42,25.88,0.22,83.69,5.44,-7.06,82S580
茶改南部分場,23.762528,120.7405,-0.59,24.73,3.97,92.83,4.98,-5.29,82H840
茶改中部分場,23.875611,120.913583,-1.32,21.99,1.41,88.67,3.02,-3.94,82H320
茶改場,24.908472,121.185333,-0.61,25.42,-0.49,82.45,7.47,-1.93,82C160
茶改北部分場,24.955778,121.631222,-0.33,23.4,3.15,88.14,26.59,8.09,82A750
高改旗南分場,22.857861,120.516667,-0.93,27.26,8.19,85.07,3.93,-6.18,72V140
花改蘭陽分場,24.686306,121.716583,-0.34,25.98,-1.1,82.77,20.1,4.53,72U480
花蓮農改,23.975222,121.563889,-0.05,26.29,-0.32,82.56,9.2,-3.12,72T250
東改賓朗果園,22.813889,121.071278,-0.59,24.68,-2.78,85.54,6.79,-4.8,72S590
東改班鳩分場,22.829528,121.077694,-0.27,25.37,0.58,83.75,6.41,-6.2,72S200
高雄農改,22.709333,120.525889,-0.28,27.55,3.03,85.36,6.61,-5.32,72Q010
七股研究中心,23.081672,120.062894,-0.46,27.54,1.15,80.67,2.25,1.09,72N240
臺南農改,23.0605,120.342194,-0.48,26.87,6.02,83.61,9.59,1.76,72N100
南改鹿草分場,23.416869,120.283061,-0.19,27.12,-0.23,80.13,0.2,-0.77,72M700
南改義竹分場,23.360694,120.279361,-0.46,27.32,-3.25,79.66,0.9,-4.16,72M360
南改斗南分場,23.634556,120.477333,-0.19,27.25,-0.81,81.38,2.33,-4.71,72K220
中改埔里分場,23.903208,120.963364,-0.22,23.52,-1.14,86.86,4.31,1.0,72HA00
臺中農改,24.003028,120.534389,-0.14,27.5,-1.49,79.63,1.22,-2.98,72G600
桃改五峰分場,24.612194,121.157167,-0.53,20.34,-1.1,88.26,4.87,-7.82,72D080
桃園農改,24.950944,121.030583,-0.55,26.25,0.6,81.5,5.84,0.66,72C440
萬大發電廠,23.978875,121.139639,-0.19,21.88,-2.3,85.68,1.77,-0.51,42HA10
恆春工作站,22.079678,120.714425,-0.55,27.29,1.13,72.67,3.8,1.55,12Q980
東港工作站,22.479997,120.466058,-0.45,27.88,1.23,70.79,2.75,0.02,12Q970
口湖工作站,23.589978,120.180394,-0.34,27.18,0.19,72.1,0.07,-0.32,12J990
