站名,緯度,經度,平均溫距平,本年度平均溫,平均溼度距平,本年度日均相對溼度,本年度日均降水量,日均降水量距平,站號
淡水,25.164889,121.448906,1.86,19.63,7.05,86.35,4.81,0.08,466900
鞍部,25.182586,121.529731,1.29,14.33,1.77,90.76,8.9,1.0,466910
臺北,25.037658,121.514853,1.85,20.77,-0.27,75.13,7.92,2.43,466920
竹子湖,25.162078,121.544547,1.39,16.03,3.05,88.58,6.61,0.47,466930
基隆,25.133314,121.740475,1.45,19.56,3.76,81.07,6.98,-1.3,466940
花蓮,23.975128,121.613275,1.11,21.27,3.52,79.7,4.41,1.65,466990
新屋,25.006744,121.047486,1.27,19.24,5.24,87.0,5.99,0.76,467050
宜蘭,24.763975,121.756528,1.48,20.48,1.06,78.84,2.37,-1.66,467080
金門,24.407306,118.289281,2.17,17.58,1.0,77.0,1.38,-1.37,467110
澎湖,23.565503,119.563094,1.81,21.77,2.85,81.1,0.94,-0.68,467350
臺南,22.993239,120.204772,1.71,23.26,-1.03,71.6,1.02,0.18,467410
永康,23.038386,120.2367,1.77,22.98,1.02,72.3,1.1,0.29,467420
嘉義,23.495925,120.432906,2.18,22.37,-2.51,75.52,2.07,0.53,467480
臺中,24.145736,120.684075,2.15,22.29,-3.21,70.2,2.04,-0.44,467490
阿里山,23.508208,120.813242,0.28,9.67,-0.27,81.71,4.4,-0.03,467530
大武,22.355675,120.903789,0.79,23.17,2.5,74.84,2.95,1.7,467540
玉山,23.487614,120.959522,1.25,2.71,0.2,75.9,2.87,-0.05,467550
新竹,24.827853,121.014219,1.88,20.03,0.93,79.13,3.5,-1.58,467571
恆春,22.003897,120.746339,0.78,24.01,9.04,80.0,0.43,-0.12,467590
成功,23.097486,121.373428,0.88,21.64,3.13,80.1,4.14,1.66,467610
日月潭,23.881325,120.90805,1.2,17.96,-4.05,76.48,3.33,0.24,467650
臺東,22.752211,121.154586,0.95,22.59,4.99,77.9,1.87,0.6,467660
馬祖,26.169269,119.923419,1.63,14.1,3.2,86.13,6.68,3.03,467990
山佳,24.974944,121.402008,1.64,19.99,1.86,81.29,8.85,3.46,C0A520
坪林,24.938183,121.70975,1.5,17.74,4.58,94.26,4.73,0.12,C0A530
泰平,24.971197,121.823711,1.35,16.57,3.18,96.45,7.56,-0.58,C0A550
桶後,24.848222,121.597992,1.62,17.36,-2.23,89.58,5.19,-0.21,C0A570
石碇,24.993969,121.662917,1.49,17.96,-1.11,86.52,6.76,1.62,C0A640
大坪,25.165914,121.632969,1.22,16.96,8.47,99.06,14.37,0.79,C0A860
五指山,25.132153,121.608692,1.64,15.45,2.99,95.19,7.79,0.31,C0A870
雙溪,25.036003,121.864242,1.2,18.56,1.57,90.39,4.66,-1.74,C0A890
三和,25.233153,121.595236,1.1,17.65,2.75,91.0,13.97,0.97,C0A931
金山,25.223628,121.643967,1.02,18.42,4.95,89.87,8.61,1.13,C0A940
鼻頭角,25.129036,121.923372,0.79,18.94,6.72,90.1,2.44,-0.03,C0A950
三貂角,25.007606,122.002058,0.51,18.55,10.9,95.29,5.48,0.41,C0A970
社子,25.109508,121.469681,1.72,20.21,-2.84,76.48,5.21,0.94,C0A980
天母,25.117494,121.537169,1.75,20.47,1.47,76.87,5.08,1.06,C0A9C0
內湖,25.079422,121.57545,1.64,20.47,-0.17,77.81,5.58,1.53,C0A9F0
大屯山,25.175675,121.522408,0.93,12.61,1.64,95.65,7.08,1.12,C0AC40
三峽,24.939025,121.369728,1.42,19.88,4.1,84.52,7.55,2.14,C0AC60
信義,25.037822,121.564597,1.46,20.0,-0.67,78.26,8.06,3.5,C0AC70
文山,25.00235,121.575728,1.23,19.51,0.97,82.45,7.55,3.01,C0AC80
新莊,25.051478,121.446756,1.23,20.11,3.91,78.97,7.35,2.8,C0ACA0
八里,25.150211,121.403947,1.58,19.78,2.09,82.39,4.84,0.65,C0AD10
蘆洲,25.086594,121.472331,1.71,20.7,-2.97,73.13,5.39,1.53,C0AD30
土城,24.973208,121.445169,1.37,19.67,-0.03,79.9,9.05,3.8,C0AD40
鶯歌,24.951533,121.346294,1.34,19.55,9.94,92.65,7.32,2.51,C0AD50
汐止,25.066881,121.658778,1.19,19.48,2.73,88.16,6.42,0.83,C0AH00
永和,25.01125,121.508111,1.77,20.71,12.17,89.45,9.31,3.36,C0AH10
五分山,25.07125,121.780794,2.1,16.01,2.43,96.61,10.9,0.27,C0AH30
平等,25.129142,121.577086,1.21,18.04,4.1,88.97,5.23,1.23,C0AH40
林口,25.072181,121.38084,0.65,18.11,3.94,89.0,4.97,0.49,C0AH50
松山,25.04871,121.55042,0.36,20.56,-0.02,68.32,7.1,2.41,C0AH70
深坑,25.002703,121.628328,0.36,19.09,1.09,86.16,6.03,1.85,C0AH80
福山植物園,24.760717,121.58135,0.61,15.4,0.52,93.35,4.08,-1.17,C0AH90
五股,25.07445,121.42728,0.53,19.09,0.37,87.84,5.89,-0.19,C0AI00
屈尺,24.92184,121.54475,0.57,19.48,0.74,84.71,6.23,0.09,C0AI10
白沙灣,25.283128,121.519058,0.31,18.93,0.68,80.35,5.05,-0.15,C0AI20
三重,25.057328,121.500629,0.0,20.41,0.0,82.97,5.87,0.0,C0AI30
石牌,25.115597,121.513139,0.32,20.63,-0.87,71.77,5.15,-0.03,C0AI40
七堵,25.094819,121.71713,0.33,19.31,0.85,87.94,7.27,0.5,C0B010
基隆嶼,25.19141,121.78391,0.35,18.84,-1.45,84.74,3.16,-0.85,C0B020
復興,24.820208,121.352281,1.72,17.69,-0.28,83.13,9.68,3.71,C0C460
桃園,24.992425,121.323172,1.52,19.7,2.11,77.45,7.03,2.09,C0C480
八德,24.928708,121.283289,1.51,19.39,-1.51,79.55,7.05,1.16,C0C490
觀音,25.027072,121.153317,1.63,18.87,1.35,82.77,6.47,1.44,C0C590
蘆竹,25.084275,121.265767,0.99,18.82,2.86,84.45,5.94,1.24,C0C620
大溪,24.882853,121.265547,1.54,18.55,1.69,80.87,6.68,1.38,C0C630
平鎮,24.897503,121.214636,1.23,18.09,2.67,83.9,5.26,-0.11,C0C650
楊梅,24.912375,121.143047,1.18,18.79,3.24,82.84,6.45,-0.08,C0C660
龍潭,24.870056,121.221389,1.26,18.12,-0.6,81.77,6.56,-0.87,C0C670
龜山,25.02846,121.38656,0.22,18.18,1.25,80.68,7.66,2.41,C0C680
中壢,24.977661,121.256375,0.2,18.9,3.2,80.71,6.29,1.23,C0C700
大溪永福,24.892936,121.324975,0.33,18.46,2.63,88.94,8.23,-0.06,C0C710
梅花,24.678347,121.208558,1.25,16.92,3.45,90.45,7.39,1.11,C0D360
峨眉,24.6905,121.017189,1.73,19.32,0.13,87.23,4.85,-0.61,C0D430
打鐵坑,24.849664,121.150789,1.59,18.1,2.26,88.39,5.34,-0.2,C0D480
橫山,24.71116,121.11693,1.49,18.53,0.38,85.77,4.28,-1.47,C0D540
雪霸,24.526972,121.11605,0.9,12.5,0.45,80.1,5.16,-1.51,C0D550
竹東,24.767147,121.057881,2.33,19.65,1.64,78.68,4.56,-0.71,C0D560
寶山,24.735006,121.025192,1.71,18.71,2.81,87.32,4.79,-0.94,C0D580
新豐,24.87068,120.97721,1.67,18.69,3.08,85.87,4.63,-0.04,C0D590
湖口,24.904794,121.043628,1.36,19.1,-2.76,79.84,4.89,0.17,C0D650
新竹市東區,24.798681,120.986942,1.73,19.79,-0.09,78.16,3.74,-1.55,C0D660
竹南,24.708978,120.888897,1.73,19.61,-0.72,79.61,3.13,-1.02,C0E420
南庄,24.601775,121.000214,1.52,18.37,0.32,85.68,5.06,-1.05,C0E430
明德,24.583486,120.885411,1.48,19.25,-2.31,82.97,3.56,-0.96,C0E550
通霄,24.471892,120.704622,1.3,19.74,-1.81,83.9,3.27,-0.19,C0E590
馬都安,24.451272,120.930192,1.11,16.91,-1.47,82.94,3.12,-1.78,C0E610
頭份,24.688247,120.912206,1.84,20.08,1.16,78.26,3.55,-0.83,C0E730
造橋,24.637056,120.864778,1.64,19.78,1.66,87.83,3.42,-1.07,C0E740
苗栗,24.564569,120.824575,1.64,20.2,-2.37,77.42,3.61,-0.87,C0E750
銅鑼,24.489681,120.790853,1.77,19.92,-0.55,82.81,3.94,-0.46,C0E780
西湖,24.562947,120.7485,1.37,19.23,1.63,87.81,3.6,0.0,C0E810
獅潭,24.539133,120.920042,1.3,18.71,-5.5,83.16,4.48,-0.66,C0E820
苑裡,24.439714,120.653053,1.22,20.15,-1.85,78.16,2.71,-0.84,C0E830
大河,24.618069,120.948578,1.39,19.05,-1.39,84.23,4.19,-2.43,C0E850
高鐵苗栗,24.60725,120.826094,0.65,19.92,1.7,83.16,2.98,-1.26,C0E870
雪山圈谷,24.388594,121.236339,0.61,1.78,7.84,84.38,5.32,-4.13,C0F0A0
石岡,24.276061,120.777644,0.98,19.74,-1.44,82.71,2.18,-1.39,C0F0B0
中坑,24.248517,120.903319,0.49,17.23,5.15,91.39,3.27,-1.28,C0F0C0
審馬陣,24.381675,121.4203,0.78,5.48,7.75,83.42,3.55,-1.25,C0F0D0
東勢,24.246428,120.833047,1.36,19.92,-0.25,81.29,2.71,-0.43,C0F850
大坑,24.173142,120.722289,1.63,21.71,-4.3,71.71,2.35,-0.13,C0F970
神岡,24.272481,120.658314,1.29,20.0,-2.23,83.1,1.34,-1.42,C0F9I0
大安,24.345061,120.588025,1.45,20.45,-3.06,80.74,2.81,0.37,C0F9K0
后里,24.310436,120.729725,1.82,20.46,-2.89,81.23,1.37,-1.49,C0F9L0
豐原,24.254322,120.720692,1.18,20.27,1.83,82.1,1.74,-1.31,C0F9M0
大里,24.092464,120.701378,1.79,22.89,-1.22,72.13,1.35,-0.99,C0F9N0
潭子,24.213106,120.703933,1.58,21.54,7.28,85.58,2.06,-0.63,C0F9O0
清水,24.312297,120.562242,1.55,20.86,1.1,83.52,3.15,0.91,C0F9P0
外埔,24.347817,120.705686,1.74,20.5,-1.63,82.1,1.44,-1.25,C0F9Q0
龍井,24.184536,120.528972,1.18,20.94,8.47,91.45,1.44,-0.68,C0F9R0
烏日,24.107058,120.624103,1.88,22.06,-3.05,71.9,1.32,-0.97,C0F9S0
西屯,24.179494,120.641275,1.52,21.22,-0.39,76.97,2.16,-0.17,C0F9T0
南屯,24.137006,120.637969,1.74,22.42,-1.19,72.68,1.44,-0.79,C0F9U0
新社,24.200172,120.815806,1.81,19.9,0.0,83.71,2.48,-0.85,C0F9V0
大雅(中科園區),24.21528,120.62445,1.08,20.3,4.53,83.55,1.89,-1.39,C0F9X0
桃山,24.432739,121.303808,1.07,5.04,3.97,77.29,3.71,-3.38,C0F9Y0
雪山東峰,24.388792,121.268675,0.89,5.82,4.9,75.39,3.27,-3.15,C0F9Z0
芬園,24.015678,120.6213,1.89,21.61,0.02,81.19,1.26,-0.74,C0G620
員林,23.946503,120.585597,2.14,22.54,1.33,80.74,1.6,-0.31,C0G650
溪湖,23.94835,120.479122,2.0,21.98,-4.06,78.0,0.85,-0.86,C0G660
溪州,23.851589,120.499093,1.47,21.29,-1.35,78.1,1.63,-1.25,C0G720
二林,23.903325,120.376081,1.33,20.77,-1.43,84.03,0.77,-0.97,C0G730
大城,23.852487,120.320935,1.62,21.24,-1.11,77.68,1.21,-1.02,C0G740
福興,24.041289,120.437669,1.87,22.07,-3.36,75.9,1.24,-0.57,C0G770
秀水,24.03405,120.503869,1.5,21.67,-3.84,77.52,1.44,-0.45,C0G780
埔鹽,24.000394,120.431683,1.38,21.02,0.95,86.23,1.31,-0.21,C0G800
埔心,23.947633,120.525456,2.05,22.28,-2.82,76.97,1.27,-0.6,C0G810
田尾,23.901669,120.509389,1.85,21.98,-4.69,79.97,1.29,-0.54,C0G820
埤頭,23.866003,120.452806,1.33,21.2,1.3,90.42,0.82,-0.69,C0G830
社頭,23.897647,120.5862,1.45,22.33,-1.19,75.52,1.61,-0.58,C0G860
二水,23.810742,120.6173,1.17,21.67,-6.37,76.68,1.52,-0.31,C0G880
伸港,24.148933,120.484403,1.48,21.13,5.56,87.26,0.82,-0.97,C0G890
線西,24.143358,120.443536,0.0,21.41,0.0,82.71,0.69,0.0,C0G900
花壇,24.032076,120.549461,0.0,21.54,0.0,77.65,1.0,0.0,C0G910
埔里,23.972169,120.952425,1.9,21.32,-2.58,77.85,2.9,-1.4,C0H890
草屯,23.973672,120.68085,1.68,22.03,3.43,80.84,1.84,-0.12,C0H960
昆陽,24.121322,121.273642,0.43,5.15,5.42,88.58,2.98,-1.17,C0H990
神木村,23.532742,120.843667,1.32,14.97,-2.8,82.29,3.84,-0.29,C0H9A0
合歡山,24.143442,121.272547,0.82,3.79,4.46,87.94,7.6,-2.39,C0H9C0
廬山,24.033311,121.181808,1.06,15.14,-1.35,78.77,3.13,-2.8,C0I010
信義,23.689694,120.851036,1.37,20.03,-1.66,80.26,2.68,-0.54,C0I080
竹山,23.761225,120.688156,2.42,22.09,-6.43,78.19,1.71,-0.63,C0I110
水里,23.812553,120.849792,1.41,21.01,-4.41,76.84,4.42,0.91,C0I360
魚池,23.895703,120.94135,1.51,19.7,-3.75,80.1,3.06,-1.38,C0I370
集集,23.828206,120.801467,1.42,21.43,0.06,80.68,2.03,-1.46,C0I380
仁愛,24.022122,121.132206,1.38,16.74,0.88,84.81,2.97,-3.82,C0I390
名間,23.837053,120.701447,1.85,21.5,-3.7,76.23,2.4,-0.8,C0I410
國姓,24.037803,120.855072,1.57,21.2,-3.77,78.32,2.32,-1.47,C0I420
南投,23.911469,120.687331,1.67,22.12,-1.44,75.68,1.89,-1.49,C0I460
梅峰,24.085272,121.173572,1.33,10.93,0.72,86.0,4.24,-4.29,C0I480
萬大林道,23.928228,121.091411,1.44,14.84,-1.24,83.77,2.74,-2.35,C0I490
崙背,23.75555,120.318925,1.67,21.34,-2.21,80.74,1.05,-1.26,C0K250
四湖,23.630414,120.227125,1.95,21.85,-0.21,79.48,1.08,-0.2,C0K280
宜梧,23.536281,120.169329,1.74,21.63,0.23,80.71,1.05,-0.3,C0K291
虎尾,23.719183,120.442036,1.46,21.57,2.08,81.19,1.24,-0.38,C0K330
土庫,23.679029,120.395574,1.51,21.47,-1.72,78.74,1.24,-1.0,C0K390
斗六,23.720583,120.541127,1.25,21.26,2.75,84.39,1.34,-1.29,C0K400
北港,23.573957,120.292802,1.47,21.62,-4.29,75.97,1.31,-0.77,C0K410
西螺,23.800407,120.467394,1.35,21.25,-3.05,76.71,0.95,-1.41,C0K420
褒忠,23.690938,120.303634,1.43,21.17,2.74,84.26,1.13,-1.09,C0K430
二崙,23.772797,120.408944,1.44,21.13,3.3,85.71,0.69,-1.07,C0K440
大埤,23.646074,120.431537,1.47,21.57,-5.93,74.0,1.08,-1.05,C0K450
斗南,23.678734,120.478359,1.51,21.52,-1.1,77.77,1.1,-1.22,C0K460
林內,23.748675,120.609642,1.41,21.29,4.57,86.58,1.87,-1.04,C0K470
莿桐,23.761192,120.502372,1.47,21.22,7.12,89.03,1.32,-1.19,C0K480
元長,23.64981,120.315024,1.52,21.47,1.72,80.48,1.27,-0.83,C0K500
水林,23.572924,120.24597,1.55,21.66,-1.36,77.61,1.29,-0.78,C0K510
臺西,23.701547,120.197559,1.47,21.37,-1.65,78.9,0.92,-1.12,C0K530
蔦松,23.514319,120.229736,1.55,21.71,-3.19,77.16,1.44,-0.49,C0K550
棋山,23.68645,120.603417,1.58,21.66,-3.04,77.45,2.65,-0.59,C0K560
高鐵雲林,23.737456,120.417944,0.88,21.65,3.11,88.61,0.9,-1.16,C0K580
東後寮,23.369908,120.248065,1.43,21.54,-3.53,77.39,1.1,-0.74,C0M520
奮起湖,23.493903,120.699253,0.94,15.62,0.95,88.68,7.35,4.16,C0M530
中埔,23.42538,120.5229,1.39,21.66,0.48,79.39,3.1,0.28,C0M640
朴子,23.43463,120.23902,1.38,21.63,-0.68,78.03,1.48,-0.41,C0M650
溪口,23.604131,120.403569,1.47,21.44,-2.75,79.1,1.32,-0.76,C0M660
大林,23.600616,120.45841,1.51,21.78,-1.88,75.9,3.37,0.44,C0M670
太保,23.455062,120.331455,1.53,22.03,-0.75,79.55,1.47,-0.74,C0M680
水上,23.419734,120.388909,1.51,21.86,0.07,79.16,2.74,0.57,C0M690
竹崎,23.526178,120.555508,1.53,21.61,0.63,82.06,2.19,-0.54,C0M700
東石,23.458927,120.15385,1.4,21.59,-2.39,78.19,1.66,-0.45,C0M710
番路,23.464657,120.554156,1.3,21.06,-0.93,79.03,2.47,-0.31,C0M720
嘉義市東區,23.457673,120.460531,1.72,23.0,-2.19,72.39,2.21,-0.28,C0M730
六腳,23.492871,120.290625,1.42,21.66,-1.25,78.52,1.26,-0.83,C0M740
布袋,23.380878,120.167789,1.51,21.8,-2.32,77.9,1.65,-0.3,C0M750
民雄,23.551754,120.428457,1.55,21.98,-2.37,76.55,2.06,-0.4,C0M760
嘉義梅山,23.585398,120.555587,1.39,21.4,2.12,82.87,3.44,0.29,C0M770
鹿草,23.41134,120.30835,1.52,22.03,-1.51,75.94,1.16,-0.88,C0M780
新港,23.553269,120.345728,1.44,21.81,-2.66,75.35,1.23,-1.02,C0M790
茶山,23.299075,120.664767,1.39,21.35,-2.34,77.65,3.16,0.06,C0M800
里佳,23.389125,120.716647,1.2,16.16,2.55,86.61,3.39,-0.71,C0M810
達邦,23.453994,120.749517,1.27,18.14,-3.45,75.52,3.35,-0.22,C0M820
表湖,23.24186,120.64166,0.7,20.06,2.35,82.97,3.45,0.83,C0M850
新美,23.338017,120.683169,0.0,22.07,0.0,75.58,2.77,0.0,C0M860
北寮,23.079561,120.495008,1.4,22.65,4.64,83.58,1.23,-0.1,C0O830
王爺宮,23.222064,120.40085,1.32,21.75,-2.01,81.0,2.18,0.5,C0O840
大內,23.11885,120.36083,1.46,22.93,4.93,85.48,1.53,0.29,C0O860
善化,23.112883,120.297219,1.7,22.58,7.35,89.61,2.6,1.66,C0O900
崎頂,22.959547,120.369317,1.42,22.44,-2.89,76.9,0.87,-0.44,C0O960
虎頭埤,23.021375,120.347878,1.64,22.64,-2.63,77.65,1.34,0.06,C0O970
新市,23.061614,120.298197,1.5,22.85,-2.71,78.29,1.16,0.02,C0O980
媽廟,22.99175,120.293525,1.4,22.84,4.08,82.81,1.27,-0.04,C0O990
尾寮山,22.833111,120.683889,0.63,17.55,-0.18,88.35,2.05,0.27,C0R100
阿禮,22.742908,120.743678,1.06,18.41,0.96,83.03,1.89,0.29,C0R130
瑪家,22.682903,120.686639,0.42,19.11,1.16,84.87,1.63,-0.04,C0R140
三地門,22.709889,120.639944,1.45,24.23,3.44,76.87,1.68,0.83,C0R150
鹽埔,22.739558,120.530778,1.19,23.45,4.86,87.84,1.32,0.35,C0R160
屏東,22.660269,120.494072,1.37,24.03,2.57,80.87,1.08,-0.0,C0R170
赤山,22.592333,120.614306,1.44,23.85,1.79,81.45,1.56,-0.03,C0R190
潮州,22.534361,120.54,1.28,23.93,10.11,89.19,0.56,-0.19,C0R220
來義,22.527306,120.625111,1.14,23.32,-2.47,76.23,1.31,-0.32,C0R240
春日,22.370361,120.628306,1.2,24.11,0.58,74.77,2.06,0.77,C0R260
琉球嶼,22.332244,120.362236,0.96,23.96,6.06,84.39,0.9,0.2,C0R270
車城,22.0744,120.716247,0.0,23.8,0.0,76.23,0.39,0.0,C0R320
牡丹,22.130036,120.792639,0.0,21.39,0.0,86.42,0.55,0.0,C0R341
貓鼻頭,21.921774,120.7358,0.87,23.76,0.0,80.97,0.34,-0.09,C0R350
大漢山,22.405264,120.753181,0.0,13.19,0.0,94.26,3.85,0.0,C0R440
高樹,22.826389,120.600806,1.48,24.13,-2.05,73.68,1.48,0.31,C0R470
長治,22.693128,120.542622,1.21,23.94,-3.4,73.94,1.06,-0.08,C0R480
九如,22.7405,120.490503,1.41,24.0,-6.15,73.16,1.32,0.4,C0R490
崁頂,22.514781,120.506914,1.54,24.08,-0.03,81.35,1.05,-0.19,C0R520
佳冬,22.419456,120.552375,1.57,24.27,-1.8,76.52,1.58,0.46,C0R540
新埤,22.467947,120.582894,1.17,23.89,-1.24,78.26,1.44,0.29,C0R550
新園,22.5434,120.461558,1.21,23.84,-3.99,75.06,0.89,-0.42,C0R560
麟洛,22.65078,120.52719,1.36,24.2,-1.08,75.65,1.13,-0.01,C0R570
南州,22.48591,120.50274,1.17,23.68,1.26,80.65,0.98,-0.12,C0R580
里港,22.77919,120.49459,1.15,23.58,4.81,82.9,1.6,0.55,C0R590
舊泰武,22.588194,120.664944,1.63,20.2,-0.99,85.71,2.94,0.35,C0R600
墾雷,21.900836,120.855269,0.7,23.57,5.56,83.71,0.58,-0.4,C0R620
東港,22.46247,120.44074,0.24,24.02,1.16,80.74,0.63,-0.27,C0R640
竹田,22.58486,120.54344,0.24,24.0,0.08,83.06,0.89,-0.48,C0R650
枋寮,22.367722,120.590647,0.0,23.65,0.0,78.48,1.81,0.0,C0R660
楓港,22.190131,120.692156,0.0,23.93,0.0,72.13,0.66,0.0,C0R670
佳樂水,21.993578,120.861633,0.0,23.65,0.0,81.13,1.03,0.0,C0R680
墾丁,21.966756,120.810269,0.0,21.52,0.0,88.16,0.61,0.0,C0R690
枋山,22.246844,120.661086,0.0,23.79,0.0,71.81,1.16,0.0,C0R700
旭海,22.205403,120.887614,0.0,21.63,0.0,85.9,4.31,0.0,C0R720
下馬,23.150427,121.070312,-0.0,17.32,0.0,86.65,0.71,-1.14,C0S660
太麻里,22.60902,120.98533,1.69,19.49,0.0,88.45,2.02,0.5,C0S690
知本,22.684866,121.005642,0.6,18.31,0.0,89.71,2.44,0.39,C0S700
鹿野,22.917711,121.122994,1.27,19.12,0.0,87.9,1.45,-0.22,C0S710
綠島,22.6672,121.47533,0.92,21.82,0.0,87.84,4.45,0.72,C0S730
池上,23.119628,121.209469,1.22,19.71,0.0,87.58,0.71,-0.22,C0S740
向陽,23.248397,120.986133,1.64,11.19,0.0,80.77,1.74,-2.72,C0S750
紅石,23.069131,121.126219,1.6,13.04,0.0,95.19,1.47,-0.23,C0S760
大溪山,22.478475,120.943325,1.12,19.8,-0.19,89.9,2.95,0.64,C0S770
金崙,22.538122,120.966875,0.51,20.85,0.73,84.58,2.89,1.12,C0S790
東河,22.972672,121.303986,0.09,21.71,0.0,83.23,9.98,7.86,C0S810
長濱,23.286817,121.411975,0.97,20.35,0.0,85.81,1.23,-0.2,C0S830
南田,22.279725,120.889208,0.53,22.65,0.0,83.94,7.97,6.25,C0S840
關山,23.0395,121.175017,1.37,20.46,0.0,86.29,0.79,-0.72,C0S890
蘭嶼高中,22.04909,121.51214,0.08,23.77,2.63,80.74,9.06,1.65,C0S900
蘭嶼燈塔,22.081197,121.503117,0.2,22.31,7.48,98.1,5.53,1.44,C0S910
金峰嘉蘭,22.594789,120.960825,0.0,21.99,0.0,82.06,2.23,0.0,C0S920
延平,22.902581,121.084058,0.0,20.56,0.0,82.58,1.4,0.0,C0S930
石寧山,23.223772,121.406639,0.0,20.78,0.0,86.65,1.63,0.0,C0S940
七塊厝,22.954453,121.229922,0.0,19.35,0.0,90.06,2.37,0.0,C0S950
香蘭,22.587569,120.993375,0.0,22.75,0.0,76.55,1.65,0.0,C0S960
加津林,22.416211,120.926942,0.0,22.69,0.0,78.58,3.58,0.0,C0S970
勝林山,22.430439,120.8938,0.0,17.35,0.0,94.65,4.76,0.0,C0S980
山豬窟,22.318619,120.857372,0.0,20.34,0.0,87.94,2.92,0.0,C0S990
歷坵,22.520969,120.89185,0.0,19.22,0.0,91.77,2.11,0.0,C0SA00
檳榔四格山,22.810031,121.109308,0.0,19.77,0.0,87.55,1.76,0.0,C0SA10
金崙山,22.567419,120.959667,0.0,16.93,0.0,94.35,3.48,0.0,C0SA20
都歷,23.020333,121.323642,0.0,21.35,0.0,81.0,11.03,0.0,C0SA30
瑞和,22.974361,121.156697,0.0,20.45,0.0,85.03,2.29,0.0,C0SA40
土坂,22.453108,120.887572,0.0,21.43,0.0,84.39,2.03,-0.17,C0SA80
大禹嶺,24.186117,121.316086,1.44,8.87,4.65,77.74,4.53,-1.76,C0T790
天祥,24.179597,121.495639,1.54,17.95,-0.39,81.26,0.95,-1.56,C0T820
鯉魚潭,23.935639,121.508944,0.75,18.82,2.04,91.48,4.21,0.73,C0T870
西林,23.8119,121.441458,1.07,19.59,0.66,81.1,2.21,-0.5,C0T900
光復,23.660694,121.424964,1.07,19.93,4.0,92.29,4.48,1.41,C0T960
月眉山,23.809928,121.539828,0.72,17.26,4.73,96.55,3.45,0.4,C0T9A0
水源,23.991861,121.537169,1.27,17.38,1.91,91.68,5.39,0.18,C0T9B0
和中,24.26676,121.74103,0.57,20.35,3.39,87.06,6.92,2.9,C0T9D0
大坑,23.880628,121.581981,1.13,18.1,-0.36,89.0,3.87,-0.0,C0T9E0
水璉,23.797131,121.542514,0.46,19.36,2.48,87.26,3.21,0.4,C0T9F0
鳳林山,23.735269,121.420131,0.13,17.22,4.08,96.29,5.1,1.1,C0T9G0
加路蘭山,23.682947,121.5274,1.07,16.62,2.4,95.94,5.48,0.25,C0T9H0
豐濱,23.583897,121.514806,1.15,19.74,-1.16,84.48,4.24,0.52,C0T9I0
靜浦,23.455167,121.495028,1.14,20.65,0.0,88.61,5.0,1.96,C0T9M0
富里,23.171639,121.249378,0.0,19.89,0.0,87.35,0.79,0.0,C0T9N0
雙連埤,24.753033,121.641303,1.81,16.73,2.68,97.29,3.9,-1.86,C0U520
礁溪,24.817539,121.765608,1.3,19.92,4.0,86.77,3.18,-0.77,C0U600
玉蘭,24.675286,121.587061,1.34,17.44,3.79,88.1,4.35,-1.25,C0U650
太平山,24.505486,121.525656,0.98,10.72,-0.58,89.03,2.27,-1.58,C0U710
南山,24.43742,121.38167,0.45,13.89,2.15,98.42,3.47,-1.56,C0U720
龜山島,24.841667,121.953133,-0.41,16.47,-1.0,93.94,3.42,0.37,C0U750
東澳,24.52196,121.83318,0.64,19.83,1.71,88.58,5.97,1.13,C0U760
南澳,24.44935,121.81022,0.37,20.36,5.32,83.26,2.23,-0.37,C0U770
五結,24.68637,121.79794,1.08,19.86,8.88,89.71,2.77,-1.99,C0U780
頭城,24.85323,121.8308,0.41,20.34,3.0,83.29,3.74,0.11,C0U860
大礁溪,24.791042,121.675047,0.29,17.19,1.67,86.06,3.15,-0.85,C0U870
三星,24.66812,121.65302,0.35,19.42,7.82,93.55,1.92,-1.07,C0U890
內城,24.71813,121.68766,0.31,19.61,4.94,88.39,1.85,-0.87,C0U900
冬山,24.63373,121.7937,0.39,19.97,2.28,80.71,3.06,-0.24,C0U910
羅東,24.68184,121.74934,0.13,19.55,1.13,84.55,1.84,-0.8,C0U940
鶯子嶺,24.89754,121.79244,0.67,13.37,0.61,97.65,7.35,0.3,C0U950
翠峰湖,24.510856,121.608044,1.05,10.27,0.65,93.35,2.18,-0.76,C0U960
大福,24.80064,121.81389,0.27,19.98,1.48,79.87,2.27,-0.54,C0U970
坪林石牌,24.86478,121.77396,0.23,15.99,0.31,95.03,4.71,0.08,C0U980
員山,24.74435,121.72247,0.29,20.02,3.06,82.29,1.92,-0.63,C0U990
土場,24.576533,121.495333,0.48,18.13,1.03,85.45,2.08,-1.27,C0UA00
鴛鴦湖,24.590269,121.412228,0.83,11.28,5.78,97.61,3.6,-1.44,C0UA10
多加屯,24.368614,121.373189,0.77,7.77,6.51,85.13,2.82,-1.61,C0UA20
白嶺,24.527819,121.519031,0.68,12.58,2.35,97.42,4.53,-0.81,C0UA30
西德山,24.560647,121.752608,0.64,13.65,0.55,95.13,3.89,-1.28,C0UA40
西帽山,24.555361,121.802628,0.63,15.14,1.47,94.68,7.9,-1.77,C0UA50
樟樹山,24.41393,121.78325,0.36,16.85,4.69,91.74,4.1,-0.78,C0UA60
桃源谷,24.962606,121.888875,0.28,15.95,1.47,96.26,8.68,1.3,C0UA70
復興,23.222403,120.806089,1.51,20.52,-3.91,72.29,1.21,-1.73,C0V210
美濃,22.898742,120.519153,1.92,24.05,-10.51,67.61,1.02,0.06,C0V310
溪埔,22.738578,120.446797,1.65,23.8,-0.81,77.19,1.44,0.54,C0V350
內門,22.975481,120.466769,1.26,22.43,-3.0,75.06,0.74,-0.66,C0V360
古亭坑,22.893178,120.401947,1.34,22.64,-1.84,78.87,0.87,0.0,C0V370
阿公店,22.804194,120.355528,1.75,23.3,-2.02,78.58,1.69,0.79,C0V400
鳳山,22.646653,120.356122,1.22,23.73,-4.66,68.94,0.79,-0.19,C0V440
鳳森,22.545064,120.392592,1.15,23.6,0.92,77.45,0.69,-0.62,C0V450
新興,22.627422,120.298803,1.42,23.98,3.74,76.52,0.81,0.11,C0V490
阿蓮,22.883208,120.327508,1.33,22.98,-2.12,79.61,1.0,-0.18,C0V530
梓官,22.760558,120.267211,1.23,23.24,0.15,76.58,2.44,1.46,C0V610
永安,22.82315,120.236856,1.24,22.92,0.65,80.74,1.74,0.58,C0V620
茄萣,22.906642,120.182608,1.36,22.87,1.09,75.23,1.55,0.39,C0V630
湖內,22.887139,120.2445,1.64,23.29,0.62,78.32,1.58,0.5,C0V640
彌陀,22.783806,120.246361,1.13,23.07,-1.4,76.94,1.79,0.8,C0V650
岡山,22.797078,120.294958,1.17,23.53,-1.02,73.48,2.34,1.23,C0V660
仁武,22.701083,120.347722,1.29,23.88,-0.49,74.35,1.26,0.27,C0V680
鼓山,22.623325,120.275575,1.28,23.83,1.11,77.06,0.71,-0.27,C0V690
三民,22.645017,120.311233,1.17,24.17,2.78,72.81,0.73,-0.29,C0V700
苓雅,22.622742,120.330669,1.48,24.25,2.63,71.84,0.56,-0.49,C0V710
林園,22.507747,120.394511,1.19,24.74,1.22,72.35,0.89,-0.35,C0V720
大寮,22.605614,120.395717,1.36,24.21,4.27,77.06,0.77,-0.38,C0V730
旗山,22.888614,120.483597,1.22,23.39,1.32,76.1,0.89,-0.19,C0V740
路竹,22.854997,120.259439,1.64,23.71,-0.31,76.1,1.58,0.43,C0V750
橋頭,22.757806,120.30575,1.4,23.91,0.32,76.29,2.02,1.11,C0V760
大社,22.730306,120.346639,1.23,23.68,-3.51,70.29,1.52,0.58,C0V770
萬山,22.905944,120.688056,1.39,22.26,-4.89,70.48,1.77,-0.03,C0V790
六龜,22.997889,120.633583,1.45,23.23,0.62,75.74,1.18,-0.75,C0V800
左營,22.67491,120.28491,0.86,23.01,1.44,78.42,1.18,0.15,C0V810
小林,23.148408,120.63325,0.32,21.61,0.85,78.74,1.55,-0.52,C0V820
東莒,25.9652,119.98069,1.25,14.49,2.08,86.68,4.27,0.61,C0W110
西嶼,23.5626,119.468436,0.82,20.8,-1.47,81.97,1.06,-0.8,C0W120
花嶼,23.40007,119.32276,0.77,21.38,0.61,79.9,0.9,-0.23,C0W130
金沙,24.488292,118.408778,0.02,16.28,-0.05,76.82,1.32,-1.28,C0W140
金寧,24.457703,118.328989,0.93,18.01,1.59,79.68,1.02,-1.22,C0W150
烏坵,24.9944,119.44956,0.23,14.28,0.79,87.3,0.59,-1.33,C0W160
東河,23.296598,120.385608,1.68,22.41,1.06,81.87,2.98,0.73,C0X050
下營,23.22695,120.256261,1.61,22.18,-1.96,77.23,1.15,-0.47,C0X060
佳里,23.173039,120.145086,1.6,22.35,-1.26,77.94,1.23,0.22,C0X080
臺南市北區,23.010394,120.194228,1.57,23.28,-2.0,72.74,1.06,-0.21,C0X100
臺南市南區,22.961189,120.188378,1.38,23.42,-1.24,73.94,0.85,-0.41,C0X110
麻豆,23.183289,120.248611,1.35,22.63,-1.32,77.74,1.02,-0.13,C0X120
官田,23.193217,120.315422,1.79,23.2,-2.25,75.39,1.92,0.52,C0X130
西港,23.125608,120.203108,1.86,23.1,-4.34,75.26,1.6,0.2,C0X140
安定,23.102614,120.227839,1.93,22.99,-3.54,77.87,2.71,1.35,C0X150
仁德,22.968258,120.257689,1.51,23.31,2.95,78.84,1.16,-0.18,C0X160
關廟,22.963017,120.327797,1.52,23.27,0.24,75.68,1.31,-0.14,C0X170
山上,23.0757,120.363253,1.41,22.61,3.14,83.19,1.05,-0.1,C0X180
安平,22.993161,120.152181,1.17,22.74,-2.43,75.48,0.89,-0.35,C0X190
左鎮,23.056758,120.408522,1.34,22.1,0.56,82.16,1.26,0.03,C0X200
白河,23.347466,120.414427,1.51,22.15,-0.64,79.45,1.76,-0.17,C0X210
學甲,23.230367,120.182187,1.31,21.67,-2.54,75.94,1.26,-0.31,C0X220
鹽水,23.272621,120.247641,1.56,21.73,-1.75,77.39,1.24,-0.27,C0X230
關子嶺,23.331169,120.508025,1.31,20.35,-1.33,81.87,2.13,-0.65,C0X240
新營,23.310689,120.316681,1.52,22.35,-2.38,74.84,2.18,-0.25,C0X250
後壁,23.366358,120.362326,1.43,21.94,-0.14,79.9,1.9,0.0,C0X260
將軍,23.214999,120.13577,1.54,21.94,-2.65,77.0,0.98,-0.24,C0X280
北門,23.267772,120.125481,1.48,21.99,0.57,80.1,1.31,-0.43,C0X290
鹿寮,23.386047,120.477331,1.47,21.72,-1.43,80.39,2.77,0.09,C0X300
柳營,23.253328,120.375253,0.0,22.33,0.0,76.32,2.81,0.0,C0X320
明里,23.208717,121.262342,1.13,19.65,5.09,94.65,1.05,0.01,C0Z020
佳心,23.34567,121.21316,1.26,16.41,0.06,87.97,0.77,-0.71,C0Z050
玉里,23.3215,121.339656,1.36,20.35,3.43,89.9,1.6,-0.02,C0Z061
舞鶴,23.46811,121.37407,1.33,19.37,3.53,93.16,2.42,1.01,C0Z070
富源,23.587642,121.378225,1.13,19.39,1.21,91.0,3.03,0.34,C0Z080
東華,23.89525,121.549833,1.19,20.46,1.35,87.45,3.08,-0.2,C0Z100
吉安光華,23.930925,121.595153,0.44,20.64,2.84,86.65,2.55,0.23,C0Z150
鳳林,23.746114,121.453411,0.52,20.07,-0.4,83.84,4.05,0.51,C0Z160
卓溪,23.3443,121.3029,0.87,20.94,1.93,84.19,1.42,-0.42,C0Z170
新城,24.03946,121.60454,0.37,20.8,2.15,80.61,3.27,-0.39,C0Z180
富世,24.14743,121.6297,0.29,20.64,9.84,92.0,2.84,-0.31,C0Z190
萬榮,23.709219,121.420106,0.42,19.64,6.14,93.43,3.35,0.41,C0Z200
瑞穗,23.5239,121.39021,0.47,19.78,3.65,89.94,3.06,0.5,C0Z210
和平林道,24.343922,121.656317,0.38,17.12,6.94,94.29,1.77,-0.53,C0Z220
和平,24.30717,121.77007,0.27,20.66,-1.19,73.97,4.27,0.06,C0Z230
瑞穗林道,23.49284,121.30688,0.59,14.81,1.83,98.35,6.05,0.67,C0Z250
蕃薯寮,23.73835,121.540108,0.38,18.46,3.08,91.87,5.26,-0.06,C0Z270
德武,23.47426,121.41071,0.28,19.67,3.33,92.16,2.48,0.25,C0Z280
赤柯山,23.36893,121.38293,0.54,15.57,1.76,95.9,2.9,-0.11,C0Z290
東里,23.26853,121.30547,0.34,19.99,6.38,94.71,1.71,-0.36,C0Z300
清水斷崖,24.218294,121.689142,0.04,20.38,8.51,91.35,4.35,0.27,C0Z310
清水林道,23.27125,121.188272,0.39,16.97,0.24,89.48,2.68,-0.82,C0Z320
安通山,23.290728,121.348528,0.47,18.46,1.35,89.97,2.0,-0.74,C0Z330
口湖工作站,23.589978,120.180394,0.47,21.39,-2.76,72.35,0.68,-0.19,12J990
東港工作站,22.479997,120.466058,0.36,24.13,-1.68,65.94,0.84,0.19,12Q970
恆春工作站,22.079678,120.714425,0.06,23.83,0.18,68.42,0.4,-0.11,12Q980
萬大發電廠,23.978875,121.139639,0.49,17.49,5.33,89.68,1.16,-0.51,42HA10
桃改樹林分場,24.944503,121.386972,0.0,19.59,0.0,79.61,7.89,0.0,72AI40
桃園農改場,24.950944,121.030583,1.75,19.18,4.6,84.16,5.03,0.68,72C440
桃改五峰分場,24.612194,121.157167,1.44,15.18,2.6,91.58,5.52,-0.44,72D080
臺中農改場,24.003028,120.534389,1.95,21.51,0.64,80.33,1.13,-0.59,72G600
中改埔里分場,23.903208,120.963364,0.43,19.22,-0.66,85.39,3.21,0.03,72HA00
南改斗南分場,23.634556,120.477333,1.93,21.79,1.08,81.06,2.45,0.73,72K220
南改義竹分場,23.360694,120.279361,1.71,21.79,-2.7,78.87,1.6,0.51,72M360
南改鹿草分場,23.416869,120.283061,0.42,21.42,-2.78,78.58,1.1,-0.49,72M700
臺南農改場,23.0605,120.342194,0.68,22.09,2.05,79.68,0.89,0.3,72N100
七股研究中心,23.081672,120.062894,0.34,22.26,-1.24,78.97,1.32,-0.47,72N240
高雄農改場,22.709333,120.525889,1.05,23.81,1.29,77.19,0.85,0.26,72Q010
東改班鳩分場,22.829528,121.077694,1.47,20.65,3.98,86.0,1.56,0.17,72S200
東改賓朗果園,22.813889,121.071278,0.72,19.9,-2.37,87.06,1.66,0.29,72S590
花蓮農改場,23.975222,121.563889,1.07,20.44,2.05,84.13,1.89,-0.41,72T250
花改蘭陽分場,24.686306,121.716583,1.32,19.91,2.35,84.03,2.03,-1.36,72U480
高改旗南分場,22.857861,120.516667,0.47,23.04,7.44,79.29,1.05,0.47,72V140
茶改北部分場,24.955778,121.631222,1.71,17.22,4.26,88.68,6.66,-0.32,82A750
茶改場,24.908472,121.185333,1.69,18.51,3.69,87.58,6.9,0.84,82C160
茶改中部分場,23.875611,120.913583,0.16,17.77,0.9,85.84,2.95,0.23,82H320
茶改南部分場,23.762528,120.7405,1.05,19.68,5.17,93.58,2.76,0.34,82H840
茶改東部分場,22.907694,121.130139,1.12,20.89,0.9,83.35,1.4,0.22,82S580
農工中心,24.985917,121.239833,1.64,19.03,4.21,81.29,6.03,0.82,A2C560
水試臺西試驗場,23.717231,120.190522,1.62,21.56,-1.92,79.06,0.94,0.6,A2K360
臺大雲林校區,23.730628,120.423903,0.0,20.97,0.0,79.65,1.0,0.0,A2K630
臺南蘭花園區,23.340258,120.379661,0.0,21.81,0.0,77.71,1.31,0.0,A2N290
畜試北區分所,24.527806,120.770972,0.62,19.22,-1.18,83.13,2.58,-2.18,B2E890
畜產試驗所,23.058972,120.336406,1.7,22.5,4.37,83.17,0.75,-0.08,B2N890
畜試南區分所,21.945583,120.802167,0.79,23.8,1.92,76.35,0.02,-0.78,B2Q810
畜試東區分所,24.669039,121.832561,0.0,19.31,0.0,83.84,3.73,0.0,B2U990
蓮華池,23.918333,120.885278,0.64,19.0,1.28,85.55,3.05,0.28,E2H360
林試畢祿溪站,24.226944,121.308522,0.0,10.83,0.0,79.84,4.84,0.0,E2HA20
四湖植物園,23.676986,120.163433,0.49,21.43,-1.89,81.26,1.08,-1.61,E2K600
林試六龜中心,22.991703,120.645722,0.0,22.27,0.0,76.48,1.29,0.0,E2P980
林試扇平站,22.9677,120.6857,0.0,19.89,0.0,81.93,0.35,0.0,E2P990
林試太麻里2,22.598,120.99775,0.0,22.39,0.0,78.77,1.73,0.0,E2S960
林試太麻里1,22.598922,120.980044,0.0,21.71,0.0,80.06,1.94,0.0,E2S980
農試所(霧峰),24.031261,120.688133,1.67,21.77,-1.46,77.94,1.18,-0.86,G2F820
農試嘉義分所,23.485028,120.473806,1.48,21.42,3.37,83.19,2.29,0.72,G2L020
農試溪口農場,23.58565,120.408111,1.89,21.79,3.09,81.77,2.15,0.96,G2M350
農試鳳山分所,22.646611,120.356083,0.99,23.74,-6.62,76.84,0.71,0.05,G2P820
苗栗農改場,24.495722,120.829111,1.63,19.48,-0.04,81.93,4.38,0.26,K2E360
苗改生物防治研究中心,24.422861,120.871833,0.76,18.92,1.08,85.5,2.45,-2.15,K2E710
種苗改良場,24.225972,120.800917,1.42,18.97,5.66,86.94,2.52,-0.63,K2F750
溪頭,23.670306,120.798194,0.95,15.46,2.11,91.71,4.63,1.47,U2H480
臺大和社,23.590856,120.888864,0.35,18.43,-0.73,81.45,2.24,-1.19,U2HA30
臺大內茅埔,23.689722,120.851117,0.35,19.96,-0.47,80.97,2.47,-1.03,U2HA40
臺大竹山,23.756972,120.681556,0.84,21.49,9.19,91.68,1.69,-1.22,U2HA50
板橋,24.997647,121.442017,1.68,20.28,2.98,78.6,10.88,4.59,466880
蘇澳,24.596736,121.857372,1.25,20.21,4.79,83.2,5.33,-1.02,467060
梧棲,24.256003,120.523381,2.06,20.89,-0.91,76.38,2.16,-0.2,467770
四堵,24.8926,121.745736,1.3,17.03,1.31,91.48,5.5,0.68,C0A540
福山,24.776203,121.502811,1.45,17.25,2.89,92.77,3.18,-1.48,C0A560
火燒寮,25.002719,121.742892,1.72,17.55,2.98,93.74,6.47,0.58,C0A650
瑞芳,25.113169,121.801147,1.19,18.59,0.42,86.82,7.48,-1.94,C0A660
福隆,25.017842,121.942083,0.9,18.86,1.43,86.48,6.48,-0.12,C0A880
富貴角,25.263783,121.565258,1.32,17.9,0.18,86.93,11.1,0.31,C0A920
大直,25.078047,121.542853,1.54,20.13,5.15,82.45,5.29,1.15,C0A9A0
士林,25.090253,121.503019,1.61,20.42,-1.28,74.06,5.34,1.03,C0A9E0
三芝,25.258131,121.501917,1.95,19.63,1.49,83.39,7.89,0.9,C0AD00
中和,24.992647,121.490444,1.37,20.57,8.56,86.45,10.02,4.28,C0AG90
大園,25.04775,121.225958,1.76,19.52,0.06,79.71,6.23,1.75,C0C540
關西,24.7982,121.1739,1.72,19.08,0.74,83.23,5.77,0.2,C0D390
香山,24.746892,120.905456,1.9,19.66,1.82,86.55,3.08,-1.29,C0D570
大湖,24.41494,120.87087,1.6,18.95,-0.05,87.29,2.42,-1.77,C0E520
後龍,24.606489,120.783933,1.95,19.97,-4.03,81.61,2.81,-0.45,C0E540
卓蘭,24.312764,120.824753,1.36,19.91,3.13,88.97,2.02,-1.43,C0E790
三義,24.40548,120.74982,0.0,18.25,0.0,92.84,3.5,0.0,C0E880
大肚,24.15295,120.572117,1.16,19.58,6.52,91.84,1.26,-0.75,C0F000
梨山,24.247522,121.243669,1.6,11.74,4.06,84.23,4.34,-2.51,C0F861
大甲,24.347667,120.640403,2.36,20.92,-0.29,84.81,2.98,0.1,C0F930
中竹林,24.103556,120.751061,1.75,20.52,-0.1,81.58,1.47,-0.97,C0F9A0
鹿港,24.0753,120.430481,1.88,21.11,-2.96,80.0,1.1,-0.58,C0G640
竹塘,23.846617,120.382486,1.47,21.18,-2.05,78.06,0.27,-2.0,C0G750
高鐵彰化,23.875247,120.574608,0.72,21.71,6.59,89.0,1.08,-1.51,C0G760
北斗,23.877586,120.514222,1.5,21.57,-3.0,82.03,1.39,-0.59,C0G840
芳苑,23.922303,120.320025,1.41,21.35,-9.75,73.74,0.79,-0.85,C0G870
中寮,23.884447,120.766406,1.53,21.01,-0.66,83.65,2.31,-0.12,C0H950
鳳凰,23.728081,120.787347,1.33,17.69,2.56,92.06,4.37,1.3,C0I090
草嶺,23.59555,120.693461,1.32,17.27,1.49,91.0,2.76,0.64,C0K240
古坑,23.654301,120.559754,1.57,21.62,-3.62,76.45,3.52,0.17,C0K490
雲林東勢,23.674449,120.154778,1.52,21.53,-1.14,78.32,1.21,-1.01,C0K520
馬頭山,23.324361,120.582017,1.24,21.97,-3.12,77.48,1.94,0.35,C0M410
山美,23.383803,120.668217,0.47,19.61,-1.6,79.82,3.06,-0.21,C0M830
曾文,23.219681,120.497328,1.53,22.81,7.33,89.06,0.97,-0.25,C0O810
玉井,23.126042,120.46055,1.85,22.84,5.43,85.06,1.05,0.0,C0O930
安南,23.076694,120.144861,1.38,22.67,-1.18,81.0,1.21,-0.13,C0O950
萬丹,22.587775,120.490394,1.33,24.39,-3.93,71.58,0.74,-0.62,C0R510
林邊,22.430836,120.509983,0.79,23.42,-6.18,72.32,1.19,0.29,C0R530
甲仙,23.080106,120.591758,1.84,22.82,-2.94,75.32,1.11,-0.02,C0V250
月眉,22.971003,120.539853,1.27,23.57,1.29,75.65,1.16,-0.28,C0V260
旗津,22.5886,120.285944,1.19,24.12,1.02,75.94,0.68,-0.22,C0V500
楠梓,22.71975,120.286,1.78,23.84,-1.52,73.03,1.65,0.71,C0V670
東引,26.358836,120.483631,0.43,13.88,0.26,85.45,6.05,1.59,C0W170
七股,23.147289,120.086253,1.37,22.07,-0.34,78.39,0.84,-0.39,C0X310
臺大竹山,23.756972,120.681556,0.84,21.49,9.19,91.68,1.69,-1.22,U2HA50
臺大內茅埔,23.689722,120.851117,0.35,19.96,-0.47,80.97,2.47,-1.03,U2HA40
臺大和社,23.590856,120.888864,0.35,18.43,-0.73,81.45,2.24,-1.19,U2HA30
臺大溪頭,23.670306,120.798194,0.95,15.46,2.11,91.71,4.63,1.47,U2H480
種苗繁殖,24.225972,120.800917,1.42,18.97,5.66,86.94,2.52,-0.63,K2F750
苗改生物防治研究中心,24.422861,120.871833,0.76,18.92,1.08,85.5,2.45,-2.15,K2E710
苗栗農改,24.495722,120.829111,1.63,19.48,-0.04,81.93,4.38,0.26,K2E360
農試鳳山分所,22.646611,120.356083,0.99,23.74,-6.62,76.84,0.71,0.05,G2P820
農試溪口農場,23.58565,120.408111,1.89,21.79,3.09,81.77,2.15,0.96,G2M350
農試嘉義分所,23.485028,120.473806,1.48,21.42,3.37,83.19,2.29,0.72,G2L020
農業試驗所,24.031261,120.688133,1.67,21.77,-1.46,77.94,1.18,-0.86,G2F820
林試太麻里1,22.598922,120.980044,0.0,21.71,0.0,80.06,1.94,0.0,E2S980
林試太麻里2,22.598014,120.989761,0.0,22.39,0.0,78.77,1.73,0.0,E2S960
林試扇平站,22.9677,120.6857,0.0,19.89,0.0,81.93,0.35,0.0,E2P990
林試六龜中心,22.991703,120.645722,0.0,22.27,0.0,76.48,1.29,0.0,E2P980
四湖植物園,23.676986,120.163433,0.49,21.43,-1.89,81.26,1.08,-1.61,E2K600
林試畢祿溪站,24.226944,121.308522,0.0,10.83,0.0,79.84,4.84,0.0,E2HA20
蓮華池,23.918333,120.885278,0.64,19.0,1.28,85.55,3.05,0.28,E2H360
畜試東區分所,24.669039,121.832561,0.0,19.31,0.0,83.84,3.73,0.0,B2U990
畜試南區分所,21.945583,120.802167,0.79,23.8,1.92,76.35,0.02,-0.78,B2Q810
畜試所,23.058972,120.336406,1.7,22.5,4.37,83.17,0.75,-0.08,B2N890
畜試北區分所,24.527806,120.770972,0.62,19.22,-1.18,83.13,2.58,-2.18,B2E890
臺南蘭花園區,23.340258,120.379661,0.0,21.81,0.0,77.71,1.31,0.0,A2N290
臺大雲林校區,23.730628,120.423903,0.0,20.97,0.0,79.65,1.0,0.0,A2K630
古坑花卉中心,23.63353,120.55239,0.42,21.1,0.67,84.54,2.98,0.4,A2K570
水試臺西試驗場,23.717231,120.190522,1.62,21.56,-1.92,79.06,0.94,0.6,A2K360
農工中心,24.985917,121.239833,1.64,19.03,4.21,81.29,6.03,0.82,A2C560
茶改東部分場,22.907694,121.130139,1.12,20.89,0.9,83.35,1.4,0.22,82S580
茶改南部分場,23.762528,120.7405,1.05,19.68,5.17,93.58,2.76,0.34,82H840
茶改中部分場,23.875611,120.913583,0.16,17.77,0.9,85.84,2.95,0.23,82H320
茶改場,24.908472,121.185333,1.69,18.51,3.69,87.58,6.9,0.84,82C160
茶改北部分場,24.955778,121.631222,1.71,17.22,4.26,88.68,6.66,-0.32,82A750
高改旗南分場,22.857861,120.516667,0.47,23.04,7.44,79.29,1.05,0.47,72V140
花改蘭陽分場,24.686306,121.716583,1.32,19.91,2.35,84.03,2.03,-1.36,72U480
花蓮農改,23.975222,121.563889,1.07,20.44,2.05,84.13,1.89,-0.41,72T250
東改賓朗果園,22.813889,121.071278,0.72,19.9,-2.37,87.06,1.66,0.29,72S590
東改班鳩分場,22.829528,121.077694,1.47,20.65,3.98,86.0,1.56,0.17,72S200
高雄農改,22.709333,120.525889,1.05,23.81,1.29,77.19,0.85,0.26,72Q010
七股研究中心,23.081672,120.062894,0.34,22.26,-1.24,78.97,1.32,-0.47,72N240
臺南農改,23.0605,120.342194,0.68,22.09,2.05,79.68,0.89,0.3,72N100
南改鹿草分場,23.416869,120.283061,0.42,21.42,-2.78,78.58,1.1,-0.49,72M700
南改義竹分場,23.360694,120.279361,1.71,21.79,-2.7,78.87,1.6,0.51,72M360
南改斗南分場,23.634556,120.477333,1.93,21.79,1.08,81.06,2.45,0.73,72K220
中改埔里分場,23.903208,120.963364,0.43,19.22,-0.66,85.39,3.21,0.03,72HA00
臺中農改,24.003028,120.534389,1.95,21.51,0.64,80.33,1.13,-0.59,72G600
桃改五峰分場,24.612194,121.157167,1.44,15.18,2.6,91.58,5.52,-0.44,72D080
桃園農改,24.950944,121.030583,1.75,19.18,4.6,84.16,5.03,0.68,72C440
桃改樹林分場,24.944503,121.386972,0.0,19.59,0.0,79.61,7.89,0.0,72AI40
萬大發電廠,23.978875,121.139639,0.49,17.49,5.33,89.68,1.16,-0.51,42HA10
恆春工作站,22.079678,120.714425,0.06,23.83,0.18,68.42,0.4,-0.11,12Q980
東港工作站,22.479997,120.466058,0.36,24.13,-1.68,65.94,0.84,0.19,12Q970
口湖工作站,23.589978,120.180394,0.47,21.39,-2.76,72.35,0.68,-0.19,12J990
