站名,緯度,經度,平均溫距平,本年度平均溫,平均溼度距平,本年度日均相對溼度,本年度日均降水量,日均降水量距平,站號
淡水,25.164889,121.448906,1.7,28.82,0.01,76.5,5.38,-6.13,466900
鞍部,25.182586,121.529731,1.13,22.46,4.6,93.8,10.43,-18.03,466910
臺北,25.037658,121.514853,1.63,29.53,-1.87,71.77,6.26,-5.79,466920
竹子湖,25.162078,121.544547,1.63,24.63,-0.06,84.8,8.95,-16.67,466930
基隆,25.133314,121.740475,1.6,28.93,8.63,83.97,4.56,-10.33,466940
花蓮,23.975128,121.613275,0.8,28.0,2.01,79.8,8.52,-3.74,466990
新屋,25.006744,121.047486,1.49,28.94,-1.57,77.13,0.2,-3.28,467050
宜蘭,24.763975,121.756528,0.86,27.89,5.63,84.4,7.93,-6.45,467080
金門,24.407306,118.289281,1.55,29.01,2.62,78.4,0.79,-2.36,467110
田中,23.873803,120.581286,0.78,28.94,1.83,76.8,1.72,1.57,467270
澎湖,23.565503,119.563094,1.05,29.03,3.66,83.43,0.1,-4.26,467350
臺南,22.993239,120.204772,0.74,29.53,-0.11,74.97,4.6,-1.9,467410
永康,23.038386,120.2367,1.17,29.32,1.58,76.37,3.5,-3.97,467420
嘉義,23.495925,120.432906,1.2,28.89,1.37,80.57,1.57,-7.31,467480
臺中,24.145736,120.684075,1.0,28.96,-0.04,74.37,1.47,-4.45,467490
阿里山,23.508208,120.813242,0.02,14.13,2.14,93.97,8.75,-7.13,467530
大武,22.355675,120.903789,0.62,28.15,1.88,80.0,6.79,-5.99,467540
玉山,23.487614,120.959522,0.77,8.28,-6.71,70.27,7.52,-3.96,467550
新竹,24.827853,121.014219,1.7,29.33,-1.4,72.6,0.56,-6.64,467571
恆春,22.003897,120.746339,0.63,28.57,3.87,81.27,5.4,-5.87,467590
成功,23.097486,121.373428,0.45,27.55,5.87,84.6,7.88,-3.12,467610
日月潭,23.881325,120.90805,0.66,22.97,4.16,88.37,8.29,1.01,467650
臺東,22.752211,121.154586,1.04,28.88,-0.72,75.87,2.29,-7.61,467660
馬祖,26.169269,119.923419,1.0,27.15,6.21,88.57,2.2,-1.55,467990
山佳,24.974944,121.402008,1.97,29.42,-2.4,73.07,3.57,-5.41,C0A520
坪林,24.938183,121.70975,0.72,25.14,4.29,93.33,8.32,-10.7,C0A530
泰平,24.971197,121.823711,0.44,23.83,1.08,93.5,9.48,-13.33,C0A550
桶後,24.848222,121.597992,0.97,24.83,-5.37,84.0,8.45,-11.54,C0A570
石碇,24.993969,121.662917,0.55,25.5,1.94,89.54,6.02,-9.86,C0A640
大坪,25.165914,121.632969,1.36,25.77,-5.03,84.27,6.58,-12.63,C0A860
五指山,25.132153,121.608692,2.02,24.25,-2.02,92.13,5.48,-12.54,C0A870
雙溪,25.036003,121.864242,1.15,27.1,-2.27,84.17,9.68,-8.4,C0A890
三和,25.233153,121.595236,0.92,26.35,-1.24,85.9,8.22,-5.88,C0A931
金山,25.223628,121.643967,1.4,28.16,0.91,82.03,2.9,-6.79,C0A940
鼻頭角,25.129036,121.923372,2.35,29.15,-7.2,78.43,1.98,-3.99,C0A950
三貂角,25.007606,122.002058,1.56,28.08,1.56,84.27,5.82,-2.52,C0A970
社子,25.109508,121.469681,1.77,29.65,-9.07,64.83,2.87,-5.91,C0A980
天母,25.117494,121.537169,1.93,29.57,-5.3,68.0,3.67,-9.81,C0A9C0
內湖,25.079422,121.57545,2.05,29.84,0.67,76.13,5.8,-7.69,C0A9F0
大屯山,25.175675,121.522408,1.55,21.51,-4.19,90.64,9.42,-11.71,C0AC40
三峽,24.939025,121.369728,1.3,29.01,-4.05,72.07,3.58,-2.64,C0AC60
信義,25.037822,121.564597,1.58,29.09,-4.29,71.97,4.33,-4.36,C0AC70
文山,25.00235,121.575728,1.13,28.16,-1.58,78.83,7.42,-2.9,C0AC80
新莊,25.051478,121.446756,1.62,29.99,-2.75,68.07,4.55,-0.84,C0ACA0
八里,25.150211,121.403947,1.65,29.61,2.58,76.1,3.48,-2.3,C0AD10
蘆洲,25.086594,121.472331,1.84,30.53,-2.66,70.7,2.75,-2.55,C0AD30
土城,24.973208,121.445169,1.26,28.44,-1.07,75.87,5.07,-1.66,C0AD40
鶯歌,24.951533,121.346294,1.09,28.6,-3.4,74.93,3.1,-2.07,C0AD50
汐止,25.066881,121.658778,1.44,28.71,-1.28,80.07,4.37,-8.33,C0AH00
永和,25.01125,121.508111,1.41,29.37,0.43,72.87,5.6,-2.55,C0AH10
五分山,25.07125,121.780794,0.96,22.78,1.02,95.1,7.13,-15.62,C0AH30
平等,25.129142,121.577086,1.1,26.12,-0.89,83.57,4.98,-15.32,C0AH40
林口,25.072181,121.38084,3.05,29.19,-8.07,77.3,2.4,-4.32,C0AH50
松山,25.04871,121.55042,1.55,29.57,-5.68,62.43,4.53,-5.13,C0AH70
深坑,25.002703,121.628328,1.46,27.55,-1.72,82.03,7.12,-4.84,C0AH80
福山植物園,24.760717,121.58135,0.79,22.58,-1.72,90.87,3.39,-13.59,C0AH90
五股,25.07445,121.42728,2.11,28.28,-5.48,80.27,2.92,-4.97,C0AI00
屈尺,24.92184,121.54475,2.27,28.09,-6.37,77.4,7.77,-6.95,C0AI10
白沙灣,25.283128,121.519058,1.27,27.51,-1.93,78.77,1.3,-9.49,C0AI20
三重,25.057328,121.500629,2.18,29.6,-7.03,71.9,3.65,-2.71,C0AI30
石牌,25.115597,121.513139,2.63,30.13,-4.83,65.93,2.37,-7.13,C0AI40
七堵,25.094819,121.71713,1.68,28.38,2.74,86.6,4.03,-14.21,C0B010
基隆嶼,25.19141,121.78391,1.05,27.51,-5.44,83.3,1.5,-6.96,C0B020
復興,24.820208,121.352281,1.17,25.52,-2.21,78.3,6.92,-6.9,C0C460
桃園,24.992425,121.323172,1.2,29.11,0.96,71.33,2.23,-4.26,C0C480
八德,24.928708,121.283289,1.46,28.64,-3.6,71.67,4.37,-1.11,C0C490
觀音,25.027072,121.153317,2.03,28.99,-0.99,76.9,0.45,-4.47,C0C590
蘆竹,25.084275,121.265767,3.05,30.26,0.78,80.03,0.23,-3.24,C0C620
大溪,24.882853,121.265547,0.86,27.15,1.28,76.4,2.1,-3.7,C0C630
平鎮,24.897503,121.214636,1.18,27.2,0.21,78.07,1.05,-5.1,C0C650
楊梅,24.912375,121.143047,1.39,28.28,0.23,74.93,1.67,-3.69,C0C660
龍潭,24.870056,121.221389,1.75,27.74,-3.72,73.03,1.9,-4.9,C0C670
龜山,25.02846,121.38656,1.61,27.54,-2.07,76.77,3.03,-3.18,C0C680
中壢,24.977661,121.256375,2.04,28.48,-5.48,70.37,2.53,-3.07,C0C700
大溪永福,24.892936,121.324975,1.96,27.1,0.63,85.9,3.18,-3.72,C0C710
梅花,24.678347,121.208558,0.3,24.07,3.83,87.27,7.17,-5.67,C0D360
峨眉,24.6905,121.017189,0.89,27.29,3.37,87.87,3.2,-0.92,C0D430
打鐵坑,24.849664,121.150789,1.09,26.61,-2.22,81.87,1.98,-5.93,C0D480
橫山,24.71116,121.11693,0.67,26.37,4.25,87.4,4.97,-2.02,C0D540
雪霸,24.526972,121.11605,0.25,17.44,0.12,87.67,7.57,-2.28,C0D550
竹東,24.767147,121.057881,1.95,28.85,1.72,73.57,1.3,-4.0,C0D560
寶山,24.735006,121.025192,1.05,27.02,7.74,90.03,2.22,-4.1,C0D580
新豐,24.87068,120.97721,1.29,28.12,0.9,79.9,0.7,-3.65,C0D590
湖口,24.904794,121.043628,1.6,28.84,-3.19,72.8,0.5,-3.94,C0D650
新竹市東區,24.798681,120.986942,1.83,29.05,-0.51,73.57,1.02,-2.93,C0D660
竹南,24.708978,120.888897,1.26,28.46,3.82,79.57,1.33,-3.84,C0E420
南庄,24.601775,121.000214,0.93,25.95,1.57,86.27,2.28,-8.05,C0E430
明德,24.583486,120.885411,0.94,27.84,-4.79,75.9,2.88,-0.23,C0E550
通霄,24.471892,120.704622,1.38,28.49,-1.35,80.33,1.8,-0.24,C0E590
馬都安,24.451272,120.930192,0.78,23.34,-0.68,84.27,4.6,-2.83,C0E610
頭份,24.688247,120.912206,1.41,29.26,1.41,73.4,1.98,-1.84,C0E730
造橋,24.637056,120.864778,2.06,29.52,-1.06,79.1,1.87,-1.07,C0E740
苗栗,24.564569,120.824575,1.67,29.51,-1.03,72.29,1.0,-1.55,C0E750
西湖,24.562947,120.7485,1.26,27.96,8.06,92.93,0.45,-1.45,C0E810
獅潭,24.539133,120.920042,0.97,26.6,-3.87,82.07,4.43,-0.97,C0E820
苑裡,24.439714,120.653053,0.84,28.73,1.2,78.17,1.97,0.16,C0E830
大河,24.618069,120.948578,0.98,27.31,1.74,83.7,3.1,-1.57,C0E850
高鐵苗栗,24.60725,120.826094,1.18,28.61,8.8,84.13,1.48,0.16,C0E870
雪山圈谷,24.388594,121.236339,-0.08,7.95,-7.36,73.9,7.17,-0.35,C0F0A0
石岡,24.276061,120.777644,0.76,26.93,-0.84,79.87,2.58,1.5,C0F0B0
中坑,24.248517,120.903319,0.44,22.57,4.18,96.33,14.18,9.69,C0F0C0
審馬陣,24.381675,121.4203,1.06,11.73,-7.87,71.0,4.27,-8.05,C0F0D0
南湖圈谷,24.363714,121.444667,0.83,8.99,-10.65,70.77,6.87,-7.79,C0F0E0
東勢,24.246428,120.833047,0.66,26.66,7.47,86.93,5.53,2.02,C0F850
大坑,24.173142,120.722289,0.68,28.57,-0.81,72.73,1.53,-1.75,C0F970
神岡,24.272481,120.658314,1.24,28.36,-1.28,78.07,0.85,-0.79,C0F9I0
大安,24.345061,120.588025,1.22,28.9,-0.46,80.03,1.88,0.54,C0F9K0
后里,24.310436,120.729725,1.64,28.51,0.15,79.4,2.63,0.31,C0F9L0
豐原,24.254322,120.720692,2.77,29.89,-3.92,71.87,2.22,-0.37,C0F9M0
大里,24.092464,120.701378,0.69,29.58,-1.46,70.37,2.85,-0.11,C0F9N0
潭子,24.213106,120.703933,1.92,30.19,-1.54,71.73,2.67,0.37,C0F9O0
清水,24.312297,120.562242,1.42,29.44,10.54,91.2,2.62,1.6,C0F9P0
外埔,24.347817,120.705686,0.58,27.62,-0.7,82.93,3.38,0.93,C0F9Q0
龍井,24.184536,120.528972,1.17,29.42,-6.89,73.6,2.05,0.9,C0F9R0
烏日,24.107058,120.624103,1.48,30.01,-0.62,72.0,1.97,-0.48,C0F9S0
西屯,24.179494,120.641275,1.79,29.86,-1.47,73.07,2.86,1.46,C0F9T0
南屯,24.137006,120.637969,0.98,29.85,-0.31,71.53,1.78,-0.55,C0F9U0
新社,24.200172,120.815806,2.77,27.93,-2.86,79.7,3.72,-0.37,C0F9V0
大雅(中科園區),24.21528,120.62445,1.06,28.36,-0.81,76.47,2.22,0.7,C0F9X0
桃山,24.432739,121.303808,0.55,10.67,-10.14,73.8,5.92,-6.01,C0F9Y0
雪山東峰,24.388792,121.268675,0.49,11.42,-10.04,71.93,7.85,-0.24,C0F9Z0
芬園,24.015678,120.6213,0.6,27.99,6.69,87.97,0.97,-2.18,C0G620
員林,23.946503,120.585597,1.79,29.76,-0.73,78.3,0.6,-4.66,C0G650
溪湖,23.94835,120.479122,1.56,29.48,2.09,83.5,0.17,-1.94,C0G660
溪州,23.851589,120.499093,1.22,28.79,3.86,82.87,0.28,-2.84,C0G720
二林,23.903325,120.376081,1.35,28.81,-1.91,84.03,0.13,-1.88,C0G730
大城,23.852487,120.320935,1.38,28.96,0.09,79.33,0.18,-3.01,C0G740
福興,24.041289,120.437669,1.28,30.14,-4.12,74.6,0.4,-1.08,C0G770
秀水,24.03405,120.503869,2.0,30.57,-1.9,76.43,0.25,-1.39,C0G780
埔鹽,24.000394,120.431683,1.34,29.24,8.5,89.97,0.42,-0.99,C0G800
埔心,23.947633,120.525456,0.74,29.3,-5.19,70.43,0.25,-1.76,C0G810
田尾,23.901669,120.509389,1.21,29.49,-3.67,79.07,0.45,-1.72,C0G820
埤頭,23.866003,120.452806,1.86,29.72,-4.38,82.7,0.03,-2.26,C0G830
社頭,23.897647,120.5862,0.8,29.55,5.3,78.73,2.33,-0.7,C0G860
二水,23.810742,120.6173,0.64,28.53,2.94,82.13,3.27,-1.29,C0G880
伸港,24.148933,120.484403,1.12,29.44,6.0,85.47,0.55,-0.66,C0G890
線西,24.143358,120.443536,1.16,29.81,3.1,80.87,0.45,-1.88,C0G900
花壇,24.032076,120.549461,1.02,29.41,7.43,79.17,0.08,0.08,C0G910
埔里,23.972169,120.952425,0.65,26.77,-2.48,77.6,7.62,3.39,C0H890
草屯,23.973672,120.68085,0.98,29.15,6.64,82.4,2.33,-0.54,C0H960
昆陽,24.121322,121.273642,0.78,11.49,-7.16,78.97,3.23,-4.42,C0H990
神木村,23.532742,120.843667,1.01,19.77,-0.75,90.87,6.33,-4.69,C0H9A0
合歡山,24.143442,121.272547,1.61,11.66,-8.12,74.97,5.27,-6.46,C0H9C0
廬山,24.033311,121.181808,0.64,20.21,-8.25,77.77,3.57,-4.72,C0I010
信義,23.689694,120.851036,0.47,25.25,-4.5,82.83,4.17,-1.47,C0I080
竹山,23.761225,120.688156,1.7,28.38,-1.66,79.63,4.62,-3.92,C0I110
水里,23.812553,120.849792,0.39,26.83,-1.07,79.87,7.27,3.88,C0I360
魚池,23.895703,120.94135,0.47,24.95,0.73,87.17,8.4,3.24,C0I370
集集,23.828206,120.801467,0.42,27.27,-5.39,78.3,8.22,3.37,C0I380
仁愛,24.022122,121.132206,0.46,21.94,1.93,87.67,3.95,-1.06,C0I390
名間,23.837053,120.701447,0.98,28.02,-4.75,76.4,4.03,-1.6,C0I410
國姓,24.037803,120.855072,0.78,27.6,-6.0,78.0,3.62,0.2,C0I420
南投,23.911469,120.687331,0.86,28.89,0.07,76.07,4.93,1.34,C0I460
梅峰,24.085272,121.173572,0.39,16.24,0.39,89.07,4.25,-3.53,C0I480
萬大林道,23.928228,121.091411,0.84,20.05,-2.93,88.07,5.37,-0.44,C0I490
小奇萊,24.131764,121.295717,0.98,11.55,-6.25,77.13,5.3,-3.86,C0I530
奇萊稜線,24.109231,121.326456,0.92,10.06,-6.81,77.1,4.6,-1.84,C0I540
崙背,23.75555,120.318925,1.11,28.54,0.28,83.33,0.3,-1.65,C0K250
四湖,23.630414,120.227125,1.59,29.46,-1.92,77.87,2.23,-1.28,C0K280
宜梧,23.536281,120.169329,1.21,29.21,1.43,81.83,0.68,-1.43,C0K291
虎尾,23.719183,120.442036,1.38,29.44,0.09,78.33,0.98,-4.91,C0K330
土庫,23.679029,120.395574,1.37,29.1,-1.68,76.73,0.78,-3.07,C0K390
斗六,23.720583,120.541127,1.14,28.81,-3.41,77.33,2.37,-4.04,C0K400
北港,23.573957,120.292802,1.19,29.09,-0.38,79.37,1.13,-2.48,C0K410
西螺,23.800407,120.467394,1.42,29.07,-6.33,75.63,0.2,-3.28,C0K420
褒忠,23.690938,120.303634,1.37,28.91,-0.71,80.07,1.17,-2.15,C0K430
二崙,23.772797,120.408944,1.29,28.82,-1.95,78.73,0.9,-2.23,C0K440
大埤,23.646074,120.431537,1.24,28.94,-0.93,79.37,0.85,-3.66,C0K450
斗南,23.678734,120.478359,1.19,28.84,-1.65,76.2,1.8,-3.45,C0K460
林內,23.748675,120.609642,1.02,28.09,-3.95,80.2,2.38,-3.02,C0K470
莿桐,23.761192,120.502372,1.11,28.58,-2.72,76.6,0.93,-3.15,C0K480
元長,23.64981,120.315024,1.36,29.18,-3.73,74.63,1.35,-2.82,C0K500
水林,23.572924,120.24597,1.39,29.3,0.21,78.77,0.73,-3.65,C0K510
臺西,23.701547,120.197559,1.3,28.89,1.58,82.17,0.62,-2.56,C0K530
蔦松,23.514319,120.229736,1.3,29.28,-2.84,77.87,0.65,-3.66,C0K550
棋山,23.68645,120.603417,0.94,28.19,-4.16,78.13,9.1,0.66,C0K560
高鐵雲林,23.737456,120.417944,1.17,29.13,3.89,83.47,0.73,-2.1,C0K580
東後寮,23.369908,120.248065,1.19,28.75,-1.28,78.73,0.53,-5.52,C0M520
奮起湖,23.493903,120.699253,0.52,19.95,0.49,94.23,8.62,-7.59,C0M530
中埔,23.42538,120.5229,0.85,27.9,-2.76,77.13,8.75,-2.07,C0M640
朴子,23.43463,120.23902,1.08,28.84,1.22,80.83,1.12,-4.64,C0M650
溪口,23.604131,120.403569,1.23,28.82,-3.83,78.67,0.6,-2.53,C0M660
大林,23.600616,120.45841,1.26,29.11,-0.42,78.0,2.07,-4.85,C0M670
太保,23.455062,120.331455,1.12,29.11,-0.83,78.8,1.37,-4.61,C0M680
水上,23.419734,120.388909,0.99,28.55,0.73,79.27,3.02,-3.47,C0M690
竹崎,23.526178,120.555508,0.74,27.55,1.34,83.77,16.83,5.24,C0M700
東石,23.458927,120.15385,1.36,29.27,0.47,79.83,0.93,-3.84,C0M710
番路,23.464657,120.554156,0.94,27.4,-1.02,78.9,9.75,-0.91,C0M720
嘉義市東區,23.457673,120.460531,0.86,29.22,6.32,84.1,3.92,-5.36,C0M730
六腳,23.492871,120.290625,1.12,28.98,1.05,79.53,1.0,-3.94,C0M740
布袋,23.380878,120.167789,1.25,29.24,-2.27,78.27,0.8,-4.87,C0M750
民雄,23.551754,120.428457,1.39,29.41,-1.82,78.23,1.05,-5.88,C0M760
嘉義梅山,23.585398,120.555587,0.87,27.96,-2.19,78.27,8.07,-2.08,C0M770
鹿草,23.41134,120.30835,1.16,29.14,2.72,80.73,1.2,-5.31,C0M780
新港,23.553269,120.345728,1.22,29.32,-1.37,77.17,1.12,-4.03,C0M790
茶山,23.299075,120.664767,0.95,25.96,-2.92,83.1,7.17,-4.93,C0M800
里佳,23.389125,120.716647,0.37,20.36,5.03,96.23,7.23,-5.84,C0M810
達邦,23.453994,120.749517,0.28,22.28,-2.25,82.77,4.02,-6.16,C0M820
表湖,23.24186,120.64166,0.24,23.83,2.91,92.3,9.95,5.28,C0M850
新美,23.338017,120.683169,-0.1,24.66,3.5,85.53,8.5,3.37,C0M860
北寮,23.079561,120.495008,0.39,27.47,4.55,89.63,11.52,1.1,C0O830
王爺宮,23.222064,120.40085,0.61,27.73,-2.43,82.93,3.32,-6.98,C0O840
大內,23.11885,120.36083,0.18,28.4,8.51,91.03,3.52,-4.21,C0O860
善化,23.112883,120.297219,0.93,28.76,3.6,85.88,2.62,-4.05,C0O900
崎頂,22.959547,120.369317,1.46,28.37,3.92,87.77,5.72,-3.44,C0O960
虎頭埤,23.021375,120.347878,0.36,27.64,1.62,84.8,5.2,-4.42,C0O970
新市,23.061614,120.298197,0.21,28.27,2.88,83.83,3.95,-4.44,C0O980
媽廟,22.99175,120.293525,0.27,28.42,6.85,88.6,4.4,-4.76,C0O990
尾寮山,22.833111,120.683889,0.59,21.98,3.53,96.73,9.38,-13.18,C0R100
阿禮,22.742908,120.743678,0.79,22.78,-7.89,80.33,3.0,-9.04,C0R130
瑪家,22.682903,120.686639,0.22,23.64,5.03,94.7,7.07,-10.25,C0R140
三地門,22.709889,120.639944,0.83,28.22,8.03,88.6,8.57,-7.51,C0R150
鹽埔,22.739558,120.530778,0.12,27.91,1.09,89.37,7.63,-3.39,C0R160
屏東,22.660269,120.494072,-0.01,28.03,4.95,87.9,5.18,-5.93,C0R170
赤山,22.592333,120.614306,0.32,27.96,-1.35,85.13,9.53,-7.51,C0R190
潮州,22.534361,120.54,1.02,28.74,-1.25,78.83,11.32,-0.26,C0R220
來義,22.527306,120.625111,0.15,27.34,1.0,85.53,6.9,-7.51,C0R240
春日,22.370361,120.628306,0.26,27.48,4.86,88.53,6.05,-6.68,C0R260
琉球嶼,22.332244,120.362236,0.43,28.18,5.46,91.57,5.65,-1.2,C0R270
車城,22.0744,120.716247,-0.09,28.58,3.4,81.4,2.52,1.78,C0R320
牡丹,22.130036,120.792639,-0.63,26.52,4.43,90.47,6.63,4.88,C0R341
貓鼻頭,21.921774,120.7358,0.98,28.5,3.94,88.0,4.02,-5.87,C0R350
大漢山,22.405264,120.753181,0.32,17.98,1.88,96.03,10.0,5.0,C0R440
高樹,22.826389,120.600806,0.66,28.49,-13.02,67.53,16.42,4.09,C0R470
長治,22.693128,120.542622,-0.33,27.61,7.24,90.5,8.33,-3.35,C0R480
九如,22.7405,120.490503,1.14,29.31,3.9,86.93,6.93,-1.91,C0R490
崁頂,22.514781,120.506914,0.5,28.78,4.01,85.38,11.88,1.73,C0R520
佳冬,22.419456,120.552375,0.75,28.84,-4.98,76.29,4.45,-5.06,C0R540
新埤,22.467947,120.582894,0.72,28.36,6.3,90.93,3.85,-7.27,C0R550
新園,22.5434,120.461558,0.97,29.26,-2.69,79.13,6.83,-3.7,C0R560
麟洛,22.65078,120.52719,0.45,28.74,1.02,80.57,7.28,-3.65,C0R570
南州,22.48591,120.50274,0.53,28.56,3.08,83.67,4.4,-5.22,C0R580
里港,22.77919,120.49459,0.02,27.98,6.18,89.27,7.4,-1.17,C0R590
舊泰武,22.588194,120.664944,0.43,24.1,0.69,88.87,8.61,-15.54,C0R600
墾雷,21.900836,120.855269,0.27,28.12,3.93,89.33,7.1,-6.56,C0R620
東港,22.46247,120.44074,0.83,29.2,3.52,85.8,5.73,-0.09,C0R640
竹田,22.58486,120.54344,0.47,28.54,5.9,90.2,7.93,-1.39,C0R650
枋寮,22.367722,120.590647,-0.15,28.39,4.57,82.27,3.83,1.17,C0R660
楓港,22.190131,120.692156,0.18,28.76,1.33,76.53,4.63,2.73,C0R670
佳樂水,21.993578,120.861633,0.14,28.62,3.1,84.07,6.73,5.6,C0R680
墾丁,21.966756,120.810269,0.19,26.42,2.93,91.73,6.57,4.8,C0R690
枋山,22.246844,120.661086,0.03,28.13,2.03,78.6,6.35,5.82,C0R700
龍磐,21.931672,120.838942,0.16,27.69,3.07,88.77,6.58,5.33,C0R710
旭海,22.205403,120.887614,0.36,26.82,2.57,88.57,8.37,3.68,C0R720
大坪頂,22.024633,120.69355,-0.08,27.26,5.3,87.3,2.77,1.68,C0R730
獅子,22.201569,120.70525,0.24,28.19,1.3,78.93,5.43,3.12,C0R740
四林格山,22.076989,120.802439,0.4,24.54,5.31,97.13,2.37,0.74,C0R750
南仁湖,22.084681,120.863353,0.22,25.59,3.83,93.97,8.78,5.28,C0R760
保力,22.071122,120.764111,0.43,27.2,1.7,86.87,3.25,1.87,C0R770
滿州,22.024403,120.839892,0.3,27.77,1.9,85.47,7.0,5.28,C0R780
九棚,22.14195,120.889281,0.37,27.87,2.17,84.23,5.7,0.6,C0R790
丹路,22.204481,120.750989,0.26,27.46,1.4,82.53,6.35,5.43,C0R800
內獅,22.305064,120.642986,-0.27,28.04,7.83,85.93,6.03,2.55,C0R810
白鷺,22.454275,120.666219,0.5,24.63,2.1,91.63,7.08,0.55,C0R820
高士,22.121825,120.836781,0.19,25.23,3.7,93.33,7.0,2.62,C0R830
牡丹池山,22.168389,120.841225,0.4,24.53,5.94,96.3,7.77,2.39,C0R840
下馬,23.150427,121.070312,1.15,23.5,-3.73,81.7,2.27,-0.33,C0S660
太麻里,22.60902,120.98533,1.54,25.32,0.88,86.7,2.88,-7.27,C0S690
知本,22.684866,121.005642,0.52,24.35,-3.32,85.4,2.7,-12.21,C0S700
鹿野,22.917711,121.122994,1.73,26.07,-10.82,74.1,3.4,-9.03,C0S710
綠島,22.6672,121.47533,0.82,27.52,2.8,89.5,7.42,-1.99,C0S730
池上,23.119628,121.209469,1.06,26.09,-2.18,84.5,4.28,-8.29,C0S740
向陽,23.248397,120.986133,0.92,15.07,-0.33,91.1,6.0,-11.66,C0S750
紅石,23.069131,121.126219,0.92,18.6,-0.22,94.17,3.17,-6.94,C0S760
大溪山,22.478475,120.943325,1.03,25.33,1.37,90.23,4.63,-9.72,C0S770
金崙,22.538122,120.966875,0.91,26.94,-2.87,82.13,2.28,-11.2,C0S790
東河,22.972672,121.303986,0.05,27.62,1.83,84.2,5.08,-4.42,C0S810
長濱,23.286817,121.411975,1.7,27.86,0.9,79.8,8.95,0.75,C0S830
南田,22.279725,120.889208,0.58,27.8,1.07,86.67,8.5,-3.75,C0S840
關山,23.0395,121.175017,1.0,26.96,-1.23,83.63,2.52,-10.69,C0S890
蘭嶼高中,22.04909,121.51214,0.65,28.72,3.4,83.67,11.35,3.5,C0S900
蘭嶼燈塔,22.081197,121.503117,0.75,27.11,1.84,88.13,8.93,3.39,C0S910
金峰嘉蘭,22.594789,120.960825,0.98,27.37,-2.25,80.57,2.37,-1.2,C0S920
延平,22.902581,121.084058,1.26,26.9,-2.88,78.8,2.33,-2.85,C0S930
石寧山,23.223772,121.406639,1.33,28.08,1.03,81.07,5.22,1.37,C0S940
七塊厝,22.954453,121.229922,1.04,25.54,0.95,88.33,4.3,-0.62,C0S950
香蘭,22.587569,120.993375,0.73,28.59,0.4,76.53,2.27,-2.38,C0S960
加津林,22.416211,120.926942,0.87,28.12,-0.32,79.07,3.45,-1.77,C0S970
勝林山,22.430439,120.8938,0.57,22.08,-0.02,93.17,4.02,-2.16,C0S980
山豬窟,22.318619,120.857372,0.77,25.73,1.0,87.63,5.15,-0.31,C0S990
歷坵,22.520969,120.89185,0.97,24.79,-0.12,88.8,2.1,-1.21,C0SA00
檳榔四格山,22.810031,121.109308,1.08,25.75,-0.73,86.2,4.57,-3.49,C0SA10
金崙山,22.567419,120.959667,1.19,22.79,-0.24,91.83,2.8,-2.63,C0SA20
都歷,23.020333,121.323642,0.85,27.64,1.82,79.77,3.85,-0.14,C0SA30
瑞和,22.974361,121.156697,1.18,26.92,-1.1,82.83,3.18,-2.43,C0SA40
知本（水試所）,22.702394,121.082761,0.91,28.43,-0.57,79.5,2.48,-0.23,C0SA60
土坂,22.453108,120.887572,0.99,26.87,-2.45,83.2,3.02,-1.48,C0SA80
達仁林場,22.264347,120.823972,0.31,24.8,3.6,92.2,9.87,6.43,C0SA90
大禹嶺,24.186117,121.316086,0.71,13.29,-2.75,83.77,4.89,-3.62,C0T790
天祥,24.179597,121.495639,1.49,24.73,0.23,81.63,4.03,-10.57,C0T820
鯉魚潭,23.935639,121.508944,0.02,25.23,4.82,90.73,8.45,-6.23,C0T870
西林,23.8119,121.441458,0.49,26.14,-1.17,77.4,7.88,-4.31,C0T900
光復,23.660694,121.424964,0.89,26.74,5.24,90.78,7.95,-4.92,C0T960
月眉山,23.809928,121.539828,0.5,24.24,4.62,96.3,8.42,-4.17,C0T9A0
水源,23.991861,121.537169,1.41,24.76,-3.94,81.9,10.63,-5.22,C0T9B0
和中,24.26676,121.74103,-0.46,26.42,1.69,88.33,7.23,-5.11,C0T9D0
大坑,23.880628,121.581981,0.3,24.48,3.88,91.1,7.78,-4.61,C0T9E0
水璉,23.797131,121.542514,0.11,25.95,7.46,90.43,8.42,-4.33,C0T9F0
鳳林山,23.735269,121.420131,0.21,24.32,-5.34,83.4,10.25,-3.19,C0T9G0
加路蘭山,23.682947,121.5274,1.72,24.76,-1.32,86.6,8.85,-2.72,C0T9H0
豐濱,23.583897,121.514806,0.83,26.48,-3.72,82.0,10.43,-1.69,C0T9I0
靜浦,23.455167,121.495028,1.48,27.79,1.08,83.87,10.43,0.58,C0T9M0
富里,23.171639,121.249378,0.89,26.22,0.62,85.5,6.82,0.76,C0T9N0
雙連埤,24.753033,121.641303,0.74,23.72,-3.52,90.8,8.57,-4.73,C0U520
礁溪,24.817539,121.765608,1.24,27.91,-6.26,81.9,7.05,-7.56,C0U600
玉蘭,24.675286,121.587061,1.07,25.15,2.98,85.33,11.57,-7.52,C0U650
太平山,24.505486,121.525656,1.11,16.93,-3.59,89.93,12.08,-14.47,C0U710
南山,24.43742,121.38167,1.46,21.47,-8.99,83.1,3.1,-2.82,C0U720
龜山島,24.841667,121.953133,0.33,25.18,6.13,98.57,3.63,-1.54,C0U750
東澳,24.52196,121.83318,-0.46,26.52,3.99,86.33,8.9,-10.51,C0U760
南澳,24.44935,121.81022,0.11,27.24,1.31,81.07,5.85,-8.41,C0U770
五結,24.68637,121.79794,0.35,27.57,-1.04,77.93,4.98,-6.17,C0U780
大礁溪,24.791042,121.675047,1.23,24.89,8.6,93.63,11.72,-0.89,C0U870
三星,24.66812,121.65302,1.08,27.01,-9.87,76.87,7.1,-8.04,C0U890
內城,24.71813,121.68766,1.39,27.56,-1.41,80.4,6.05,-3.85,C0U900
冬山,24.63373,121.7937,1.29,27.96,-0.13,79.1,4.65,-6.64,C0U910
羅東,24.68184,121.74934,2.02,28.28,-2.01,77.43,3.85,-6.69,C0U940
鶯子嶺,24.89754,121.79244,1.57,21.45,1.56,96.27,11.92,-7.65,C0U950
翠峰湖,24.510856,121.608044,1.29,16.91,-1.54,91.9,11.33,-11.23,C0U960
大福,24.80064,121.81389,1.79,28.57,1.13,83.63,5.2,-3.38,C0U970
坪林石牌,24.86478,121.77396,1.58,24.08,1.14,94.5,9.97,-5.17,C0U980
員山,24.74435,121.72247,1.09,27.7,1.3,80.93,6.4,-3.46,C0U990
土場,24.576533,121.495333,1.33,25.56,-5.6,84.47,6.08,-5.32,C0UA00
鴛鴦湖,24.590269,121.412228,1.09,17.96,-4.07,89.8,8.58,-3.19,C0UA10
多加屯,24.368614,121.373189,1.04,13.44,-5.6,82.13,4.45,-6.14,C0UA20
白嶺,24.527819,121.519031,1.31,20.08,-4.1,90.0,6.72,-7.99,C0UA30
西德山,24.560647,121.752608,1.5,21.28,4.19,96.7,11.03,-9.29,C0UA40
西帽山,24.555361,121.802628,1.54,23.06,0.67,92.8,12.1,-11.66,C0UA50
樟樹山,24.41393,121.78325,0.99,24.55,4.87,89.9,6.85,-4.08,C0UA60
桃源谷,24.962606,121.888875,1.38,24.21,-0.64,95.52,9.71,-6.62,C0UA70
復興,23.222403,120.806089,0.27,24.23,-2.69,79.4,4.55,-4.79,C0V210
美濃,22.898742,120.519153,1.25,28.66,-3.24,79.63,9.22,-3.79,C0V310
溪埔,22.738578,120.446797,-0.4,27.56,4.29,86.7,4.45,-5.33,C0V350
內門,22.975481,120.466769,0.49,27.62,-2.04,83.6,7.63,-3.76,C0V360
古亭坑,22.893178,120.401947,0.38,27.33,-6.77,79.27,6.4,-3.19,C0V370
阿公店,22.804194,120.355528,0.74,28.61,-0.28,81.17,6.62,-2.84,C0V400
鳳山,22.646653,120.356122,0.7,29.26,1.98,83.1,5.58,-3.57,C0V440
鳳森,22.545064,120.392592,0.28,28.16,-3.16,82.23,3.47,-7.01,C0V450
新興,22.627422,120.298803,0.94,29.77,-5.65,70.67,8.23,-0.69,C0V490
阿蓮,22.883208,120.327508,0.8,29.21,-2.37,78.03,7.83,-0.9,C0V530
梓官,22.760558,120.267211,-0.18,28.59,3.21,81.67,5.52,-1.8,C0V610
永安,22.82315,120.236856,0.96,29.42,-2.88,79.07,5.68,-2.04,C0V620
茄萣,22.906642,120.182608,0.5,29.11,6.84,83.37,5.1,-3.85,C0V630
湖內,22.887139,120.2445,0.52,28.87,1.68,82.03,5.53,-1.78,C0V640
彌陀,22.783806,120.246361,0.32,28.83,1.87,82.6,5.93,-0.84,C0V650
岡山,22.797078,120.294958,-0.07,28.9,4.9,81.4,7.98,-0.74,C0V660
仁武,22.701083,120.347722,0.58,29.36,2.2,80.73,4.9,-3.05,C0V680
鼓山,22.623325,120.275575,0.6,29.33,2.35,81.27,7.77,-0.14,C0V690
三民,22.645017,120.311233,0.26,29.51,4.36,76.83,5.55,-3.54,C0V700
苓雅,22.622742,120.330669,0.43,29.36,3.52,76.77,7.75,-1.22,C0V710
林園,22.507747,120.394511,-0.19,28.91,3.25,79.1,3.67,-5.13,C0V720
大寮,22.605614,120.395717,0.44,29.27,1.75,80.0,3.05,-5.64,C0V730
旗山,22.888614,120.483597,0.42,28.31,-1.75,79.03,7.72,-2.75,C0V740
路竹,22.854997,120.259439,0.97,29.77,-2.88,74.77,6.88,-1.43,C0V750
橋頭,22.757806,120.30575,0.16,29.17,6.27,84.23,7.48,-0.25,C0V760
大社,22.730306,120.346639,0.15,28.84,0.2,77.8,6.05,-3.37,C0V770
萬山,22.905944,120.688056,0.68,25.99,3.3,88.93,8.4,-2.43,C0V790
六龜,22.997889,120.633583,0.6,27.48,2.25,83.23,12.63,-1.48,C0V800
左營,22.67491,120.28491,0.76,29.19,-1.04,79.9,3.73,-5.03,C0V810
小林,23.148408,120.63325,0.38,25.74,0.47,84.17,8.42,6.44,C0V820
東莒,25.9652,119.98069,1.41,27.75,5.98,84.17,0.58,-2.04,C0W110
西嶼,23.5626,119.468436,1.43,28.05,2.12,88.4,0.07,-1.35,C0W120
花嶼,23.40007,119.32276,0.83,28.02,2.87,87.8,0.28,-2.29,C0W130
金沙,24.488292,118.408778,1.04,28.77,3.61,79.1,0.62,-0.67,C0W140
金寧,24.457703,118.328989,1.14,29.63,0.52,74.23,0.72,-0.22,C0W150
烏坵,24.9944,119.44956,0.97,27.73,3.49,85.8,0.6,-0.05,C0W160
東河,23.296598,120.385608,0.72,28.59,-0.75,81.47,2.62,-6.23,C0X050
下營,23.22695,120.256261,1.26,29.04,-2.18,79.37,0.48,-7.37,C0X060
佳里,23.173039,120.145086,0.64,28.96,-0.5,79.47,1.25,-4.63,C0X080
臺南市北區,23.010394,120.194228,0.82,29.78,1.9,75.2,3.68,-5.55,C0X100
臺南市南區,22.961189,120.188378,0.61,29.55,-5.48,73.2,3.43,-4.92,C0X110
麻豆,23.183289,120.248611,0.84,29.45,0.16,77.57,0.67,-6.38,C0X120
官田,23.193217,120.315422,0.24,28.77,8.35,88.43,2.2,-4.24,C0X130
西港,23.125608,120.203108,1.19,29.88,-3.39,74.57,0.88,-8.04,C0X140
安定,23.102614,120.227839,1.48,29.96,-1.54,77.87,1.2,-7.68,C0X150
仁德,22.968258,120.257689,0.12,28.69,13.8,91.9,3.0,-4.49,C0X160
關廟,22.963017,120.327797,0.57,29.08,8.36,84.87,4.62,-4.83,C0X170
山上,23.0757,120.363253,0.32,28.08,6.36,88.37,5.3,-3.98,C0X180
安平,22.993161,120.152181,0.68,29.45,-4.73,74.5,3.32,-4.76,C0X190
左鎮,23.056758,120.408522,0.37,27.6,2.75,87.57,8.35,-1.11,C0X200
白河,23.347466,120.414427,0.81,28.52,4.16,84.8,3.4,-4.43,C0X210
學甲,23.230367,120.182187,0.93,28.74,-2.63,75.5,0.62,-6.76,C0X220
鹽水,23.272621,120.247641,1.09,28.86,-2.25,78.23,0.7,-6.35,C0X230
關子嶺,23.331169,120.508025,0.56,25.79,3.33,89.77,15.63,-0.15,C0X240
新營,23.310689,120.316681,1.15,29.26,1.71,80.4,2.45,-4.62,C0X250
後壁,23.366358,120.362326,1.03,28.75,-2.35,79.33,2.62,-4.36,C0X260
將軍,23.214999,120.13577,1.13,29.01,-1.78,77.67,0.82,-6.95,C0X280
北門,23.267772,120.125481,1.06,29.13,0.92,80.63,1.13,-6.78,C0X290
鹿寮,23.386047,120.477331,0.57,27.65,1.99,87.07,6.65,-3.57,C0X300
柳營,23.253328,120.375253,0.82,28.84,7.5,85.17,3.55,1.6,C0X320
明里,23.208717,121.262342,0.97,25.98,-3.24,83.93,10.95,-3.77,C0Z020
佳心,23.34567,121.21316,0.92,22.56,-2.67,82.97,10.65,-0.46,C0Z050
玉里,23.3215,121.339656,1.07,26.75,-3.51,80.3,8.05,-3.66,C0Z061
舞鶴,23.46811,121.37407,1.47,26.18,-3.4,85.77,6.68,-3.99,C0Z070
富源,23.587642,121.378225,1.38,26.29,-1.46,87.4,7.22,-4.73,C0Z080
東華,23.89525,121.549833,0.52,27.23,0.71,84.2,7.3,-2.51,C0Z100
吉安光華,23.930925,121.595153,0.58,27.28,-2.86,83.33,8.9,4.15,C0Z150
鳳林,23.746114,121.453411,0.59,26.96,4.0,86.07,7.05,1.02,C0Z160
卓溪,23.3443,121.3029,0.46,26.31,3.11,85.3,9.88,0.78,C0Z170
新城,24.03946,121.60454,0.76,27.59,4.36,86.37,5.75,-1.61,C0Z180
富世,24.14743,121.6297,0.81,27.71,2.3,87.27,7.3,1.88,C0Z190
萬榮,23.709219,121.420106,0.56,26.57,-5.35,79.2,7.7,1.5,C0Z200
瑞穗,23.5239,121.39021,0.89,26.59,2.44,87.0,8.6,0.85,C0Z210
和平林道,24.343922,121.656317,1.14,24.49,-4.72,83.5,6.43,-3.61,C0Z220
和平,24.30717,121.77007,1.26,28.6,3.29,75.8,6.13,1.1,C0Z230
瑞穗林道,23.49284,121.30688,0.35,20.76,-2.87,90.73,12.78,1.99,C0Z250
蕃薯寮,23.73835,121.540108,0.76,25.59,-5.05,84.37,7.4,0.35,C0Z270
德武,23.47426,121.41071,1.04,26.69,-1.72,84.27,8.23,1.16,C0Z280
赤柯山,23.36893,121.38293,1.16,22.52,0.0,89.5,11.9,1.85,C0Z290
東里,23.26853,121.30547,0.95,26.75,-7.6,81.67,10.33,2.41,C0Z300
清水斷崖,24.218294,121.689142,1.09,27.83,4.69,84.6,7.43,-0.52,C0Z310
清水林道,23.27125,121.188272,1.33,24.12,-4.8,82.0,7.22,-4.08,C0Z320
安通山,23.290728,121.348528,0.96,25.01,0.81,85.83,8.42,1.94,C0Z330
口湖工作站,23.589978,120.180394,1.27,28.79,2.42,74.33,1.5,1.11,12J990
東港工作站,22.479997,120.466058,0.23,28.56,3.84,73.4,3.4,0.68,12Q970
恆春工作站,22.079678,120.714425,0.69,28.54,0.47,72.0,1.88,-0.37,12Q980
萬大發電廠,23.978875,121.139639,0.5,22.57,0.62,88.6,3.68,1.41,42HA10
桃改樹林分場,24.944503,121.386972,1.79,28.18,-4.23,74.43,3.73,-0.62,72AI40
桃園農改場,24.950944,121.030583,2.05,28.84,-5.17,75.73,0.37,-4.81,72C440
桃改五峰分場,24.612194,121.157167,1.52,22.39,1.67,91.03,5.18,-7.51,72D080
桃改新埔分場,24.834444,121.066111,3.74,27.86,-2.58,78.17,0.98,-3.6,72D680
臺中農改場,24.003028,120.534389,1.42,29.06,-1.59,79.53,0.23,-3.96,72G600
中改埔里分場,23.903208,120.963364,0.51,24.25,-0.8,87.2,7.08,3.77,72HA00
南改斗南分場,23.634556,120.477333,1.28,28.71,4.61,86.8,2.55,-4.49,72K220
南改義竹分場,23.360694,120.279361,1.07,28.85,-4.8,78.1,0.7,-4.35,72M360
南改鹿草分場,23.416869,120.283061,1.16,28.47,1.37,81.73,1.1,0.14,72M700
臺南農改場,23.0605,120.342194,0.72,28.06,8.05,85.63,7.5,-0.33,72N100
七股研究中心,23.081672,120.062894,1.1,29.1,0.75,80.27,1.67,0.51,72N240
高雄農改場,22.709333,120.525889,0.32,28.15,1.73,84.07,5.02,-6.91,72Q010
東改班鳩分場,22.829528,121.077694,1.1,26.74,2.63,85.8,4.08,-8.53,72S200
東改賓朗果園,22.813889,121.071278,0.44,25.71,2.25,90.57,2.38,-9.21,72S590
花蓮農改場,23.975222,121.563889,0.81,27.14,0.82,83.7,7.55,-4.78,72T250
花改蘭陽分場,24.686306,121.716583,1.6,27.92,-1.8,82.07,3.98,-11.59,72U480
高改旗南分場,22.857861,120.516667,-0.25,27.94,7.47,84.34,5.77,-4.34,72V140
茶改北部分場,24.955778,121.631222,1.81,25.54,-0.42,84.57,8.8,-9.69,82A750
茶改場,24.908472,121.185333,1.87,27.89,-7.5,75.43,1.33,-8.06,82C160
茶改中部分場,23.875611,120.913583,0.1,23.42,0.51,87.77,7.88,0.93,82H320
茶改南部分場,23.762528,120.7405,0.27,25.58,0.64,89.5,7.4,-2.87,82H840
茶改東部分場,22.907694,121.130139,0.82,27.13,-0.24,83.23,3.98,-8.52,82S580
農工中心,24.985917,121.239833,1.44,28.49,-1.9,70.9,2.32,-4.92,A2C560
水試臺西試驗場,23.717231,120.190522,1.36,29.08,-3.88,80.17,0.83,-0.29,A2K360
臺大雲林校區,23.730628,120.423903,1.03,28.11,4.2,85.13,1.27,-0.53,A2K630
臺南蘭花園區,23.340258,120.379661,0.58,28.04,2.29,83.0,2.5,-2.93,A2N290
畜試北區分所,24.527806,120.770972,1.33,27.5,1.27,82.53,0.4,-0.62,B2E890
畜產試驗所,23.058972,120.336406,0.72,28.0,-0.5,83.53,6.6,-2.87,B2N890
畜試南區分所,21.945583,120.802167,0.6,28.27,0.05,80.8,6.5,-4.16,B2Q810
畜試東區分所,24.669039,121.832561,1.04,27.39,2.07,81.5,5.7,3.98,B2U990
蓮華池,23.918333,120.885278,-0.69,24.22,11.89,93.24,5.33,-1.82,E2H360
林試畢祿溪站,24.226944,121.308522,-0.16,15.21,-2.4,83.1,2.33,-0.77,E2HA20
四湖植物園,23.676986,120.163433,1.11,28.84,2.61,82.73,0.78,0.66,E2K600
林試六龜中心,22.991703,120.645722,-0.08,25.98,2.9,87.1,11.08,1.63,E2P980
林試扇平站,22.9677,120.6857,0.36,23.95,-0.27,90.0,8.12,-11.4,E2P990
林試太麻里2,22.598,120.99775,0.78,28.01,-2.0,79.0,2.47,0.33,E2S960
林試太麻里1,22.598922,120.980044,0.79,27.43,-1.27,79.37,2.6,1.2,E2S980
農試所(霧峰),24.031261,120.688133,1.09,28.66,2.4,85.1,1.98,-2.94,G2F820
農試嘉義分所,23.485028,120.473806,0.75,27.87,-0.55,80.5,4.55,-2.56,G2L020
農試溪口農場,23.58565,120.408111,1.16,29.09,-1.35,80.97,0.75,0.15,G2M350
農試鳳山分所,22.646611,120.356083,0.33,28.27,3.63,81.3,5.02,-2.91,G2P820
苗栗農改場,24.495722,120.829111,1.25,27.71,0.31,84.23,3.12,-3.63,K2E360
苗改生物防治研究中心,24.422861,120.871833,1.06,26.17,5.01,88.43,4.95,3.78,K2E710
種苗改良場,24.225972,120.800917,0.71,25.72,0.92,81.5,2.88,-3.84,K2F750
溪頭,23.670306,120.798194,0.69,20.65,0.89,93.5,5.78,-3.95,U2H480
臺大和社,23.590856,120.888864,0.65,23.14,-0.48,84.83,2.9,-0.32,U2HA30
臺大內茅埔,23.689722,120.851117,0.62,25.05,3.41,87.63,3.87,0.05,U2HA40
臺大竹山,23.756972,120.681556,1.03,27.88,-2.76,79.1,5.23,1.13,U2HA50
板橋,24.997647,121.442017,1.52,29.24,-1.67,71.1,4.73,-4.58,466880
蘇澳,24.596736,121.857372,1.04,28.03,3.88,82.27,8.05,-7.37,467060
梧棲,24.256003,120.523381,1.5,29.21,-2.69,73.93,1.67,-2.09,467770
四堵,24.8926,121.745736,1.66,25.31,1.22,91.4,10.37,-10.8,C0A540
福山,24.776203,121.502811,0.49,24.0,0.54,90.96,7.48,-13.57,C0A560
火燒寮,25.002719,121.742892,1.51,25.38,-2.17,87.97,6.62,-12.21,C0A650
瑞芳,25.113169,121.801147,0.75,27.03,-2.25,83.63,4.87,-7.54,C0A660
福隆,25.017842,121.942083,1.06,27.35,-0.18,86.17,8.75,-4.27,C0A880
富貴角,25.263783,121.565258,1.4,27.19,1.11,87.23,3.83,-6.61,C0A920
士林,25.090253,121.503019,1.84,29.9,-3.83,67.13,2.68,-6.86,C0A9E0
三芝,25.258131,121.501917,0.95,28.34,-0.05,77.07,3.18,-4.17,C0AD00
大園,25.04775,121.225958,1.65,29.39,0.47,74.4,1.6,-2.72,C0C540
關西,24.7982,121.1739,1.03,27.46,2.29,81.7,2.57,-5.4,C0D390
香山,24.746892,120.905456,1.23,28.67,-0.25,79.9,0.82,-3.09,C0D570
大湖,24.41494,120.87087,1.0,26.28,4.64,90.53,4.85,1.15,C0E520
後龍,24.606489,120.783933,1.74,29.14,-2.97,79.53,0.4,-1.54,C0E540
卓蘭,24.312764,120.824753,1.36,27.79,8.07,88.97,2.58,-0.97,C0E790
三義,24.40548,120.74982,0.03,24.58,5.8,96.5,2.73,2.2,C0E880
大肚,24.15295,120.572117,0.89,27.37,7.57,92.33,0.85,-0.84,C0F000
梨山,24.247522,121.243669,0.99,16.98,-0.98,84.77,3.23,-5.39,C0F861
大甲,24.347667,120.640403,0.32,27.84,-1.75,81.93,1.27,-0.44,C0F930
中竹林,24.103556,120.751061,0.88,26.5,12.65,96.77,4.37,0.56,C0F9A0
鹿港,24.0753,120.430481,1.04,29.02,2.14,83.33,0.42,-3.49,C0G640
竹塘,23.846617,120.382486,1.15,28.74,1.84,82.1,0.17,-2.98,C0G750
高鐵彰化,23.875247,120.574608,0.95,29.02,-0.22,76.77,1.53,-0.09,C0G760
北斗,23.877586,120.514222,1.67,29.58,-5.28,77.17,0.72,-1.58,C0G840
芳苑,23.922303,120.320025,1.35,29.22,-1.5,84.07,0.83,-1.24,C0G870
中寮,23.884447,120.766406,0.56,27.04,-0.07,85.17,5.18,-0.38,C0H950
鳳凰,23.728081,120.787347,1.02,23.19,1.06,91.4,12.78,1.96,C0I090
草嶺,23.59555,120.693461,1.25,22.45,-1.47,92.33,5.95,-8.3,C0K240
古坑,23.654301,120.559754,1.04,28.28,-0.55,79.8,5.9,-0.99,C0K490
雲林東勢,23.674449,120.154778,1.29,29.19,-0.07,79.17,1.98,-1.72,C0K520
馬頭山,23.324361,120.582017,0.49,26.01,-0.82,85.77,4.7,-8.45,C0M410
曾文,23.219681,120.497328,0.22,26.87,4.07,90.53,6.58,-8.68,C0O810
玉井,23.126042,120.46055,1.06,27.75,-3.38,81.63,6.78,-4.43,C0O930
安南,23.076694,120.144861,0.77,29.27,3.49,84.9,1.93,-5.94,C0O950
萬丹,22.587775,120.490394,0.42,29.04,-0.99,77.17,5.83,-4.86,C0R510
林邊,22.430836,120.509983,0.0,27.99,-2.52,75.9,3.9,-2.82,C0R530
甲仙,23.080106,120.591758,1.32,26.9,-2.41,84.5,14.58,0.27,C0V250
月眉,22.971003,120.539853,-0.06,27.51,5.08,85.4,8.87,-3.26,C0V260
旗津,22.5886,120.285944,-0.17,28.59,-3.58,76.83,4.95,-2.23,C0V500
楠梓,22.71975,120.286,0.8,29.58,1.1,76.53,5.8,-2.49,C0V670
東引,26.358836,120.483631,1.3,27.74,12.99,91.1,2.72,0.86,C0W170
七股,23.147289,120.086253,0.91,28.89,2.28,83.57,1.78,-8.18,C0X310
臺大竹山,23.756972,120.681556,1.03,27.88,-2.76,79.1,5.23,1.13,U2HA50
臺大內茅埔,23.689722,120.851117,0.62,25.05,3.41,87.63,3.87,0.05,U2HA40
臺大和社,23.590856,120.888864,0.65,23.14,-0.48,84.83,2.9,-0.32,U2HA30
臺大溪頭,23.670306,120.798194,0.69,20.65,0.89,93.5,5.78,-3.95,U2H480
種苗繁殖,24.225972,120.800917,0.71,25.72,0.92,81.5,2.88,-3.84,K2F750
苗改生物防治研究中心,24.422861,120.871833,1.06,26.17,5.01,88.43,4.95,3.78,K2E710
苗栗農改,24.495722,120.829111,1.25,27.71,0.31,84.23,3.12,-3.63,K2E360
農試鳳山分所,22.646611,120.356083,0.33,28.27,3.63,81.3,5.02,-2.91,G2P820
農試溪口農場,23.58565,120.408111,1.16,29.09,-1.35,80.97,0.75,0.15,G2M350
農試嘉義分所,23.485028,120.473806,0.75,27.87,-0.55,80.5,4.55,-2.56,G2L020
農業試驗所,24.031261,120.688133,1.09,28.66,2.4,85.1,1.98,-2.94,G2F820
林試太麻里1,22.598922,120.980044,0.79,27.43,-1.27,79.37,2.6,1.2,E2S980
林試太麻里2,22.598014,120.989761,0.78,28.01,-2.0,79.0,2.47,0.33,E2S960
林試扇平站,22.9677,120.6857,0.36,23.95,-0.27,90.0,8.12,-11.4,E2P990
林試六龜中心,22.991703,120.645722,-0.08,25.98,2.9,87.1,11.08,1.63,E2P980
四湖植物園,23.676986,120.163433,1.11,28.84,2.61,82.73,0.78,0.66,E2K600
林試畢祿溪站,24.226944,121.308522,-0.16,15.21,-2.4,83.1,2.33,-0.77,E2HA20
蓮華池,23.918333,120.885278,-0.69,24.22,11.89,93.24,5.33,-1.82,E2H360
畜試東區分所,24.669039,121.832561,1.04,27.39,2.07,81.5,5.7,3.98,B2U990
畜試南區分所,21.945583,120.802167,0.6,28.27,0.05,80.8,6.5,-4.16,B2Q810
畜試所,23.058972,120.336406,0.72,28.0,-0.5,83.53,6.6,-2.87,B2N890
畜試北區分所,24.527806,120.770972,1.33,27.5,1.27,82.53,0.4,-0.62,B2E890
臺南蘭花園區,23.340258,120.379661,0.58,28.04,2.29,83.0,2.5,-2.93,A2N290
臺大雲林校區,23.730628,120.423903,1.03,28.11,4.2,85.13,1.27,-0.53,A2K630
古坑花卉中心,23.63353,120.55239,0.97,27.87,-3.63,83.37,6.03,3.59,A2K570
水試臺西試驗場,23.717231,120.190522,1.36,29.08,-3.88,80.17,0.83,-0.29,A2K360
農工中心,24.985917,121.239833,1.44,28.49,-1.9,70.9,2.32,-4.92,A2C560
茶改東部分場,22.907694,121.130139,0.82,27.13,-0.24,83.23,3.98,-8.52,82S580
茶改南部分場,23.762528,120.7405,0.27,25.58,0.64,89.5,7.4,-2.87,82H840
茶改中部分場,23.875611,120.913583,0.1,23.42,0.51,87.77,7.88,0.93,82H320
茶改場,24.908472,121.185333,1.87,27.89,-7.5,75.43,1.33,-8.06,82C160
茶改北部分場,24.955778,121.631222,1.81,25.54,-0.42,84.57,8.8,-9.69,82A750
高改旗南分場,22.857861,120.516667,-0.25,27.94,7.47,84.34,5.77,-4.34,72V140
花改蘭陽分場,24.686306,121.716583,1.6,27.92,-1.8,82.07,3.98,-11.59,72U480
花蓮農改,23.975222,121.563889,0.81,27.14,0.82,83.7,7.55,-4.78,72T250
東改賓朗果園,22.813889,121.071278,0.44,25.71,2.25,90.57,2.38,-9.21,72S590
東改班鳩分場,22.829528,121.077694,1.1,26.74,2.63,85.8,4.08,-8.53,72S200
高雄農改,22.709333,120.525889,0.32,28.15,1.73,84.07,5.02,-6.91,72Q010
七股研究中心,23.081672,120.062894,1.1,29.1,0.75,80.27,1.67,0.51,72N240
臺南農改,23.0605,120.342194,0.72,28.06,8.05,85.63,7.5,-0.33,72N100
南改鹿草分場,23.416869,120.283061,1.16,28.47,1.37,81.73,1.1,0.14,72M700
南改義竹分場,23.360694,120.279361,1.07,28.85,-4.8,78.1,0.7,-4.35,72M360
南改斗南分場,23.634556,120.477333,1.28,28.71,4.61,86.8,2.55,-4.49,72K220
中改埔里分場,23.903208,120.963364,0.51,24.25,-0.8,87.2,7.08,3.77,72HA00
臺中農改,24.003028,120.534389,1.42,29.06,-1.59,79.53,0.23,-3.96,72G600
桃改新埔分場,24.834444,121.066111,3.74,27.86,-2.58,78.17,0.98,-3.6,72D680
桃改五峰分場,24.612194,121.157167,1.52,22.39,1.67,91.03,5.18,-7.51,72D080
桃園農改,24.950944,121.030583,2.05,28.84,-5.17,75.73,0.37,-4.81,72C440
桃改樹林分場,24.944503,121.386972,1.79,28.18,-4.23,74.43,3.73,-0.62,72AI40
萬大發電廠,23.978875,121.139639,0.5,22.57,0.62,88.6,3.68,1.41,42HA10
恆春工作站,22.079678,120.714425,0.69,28.54,0.47,72.0,1.88,-0.37,12Q980
東港工作站,22.479997,120.466058,0.23,28.56,3.84,73.4,3.4,0.68,12Q970
口湖工作站,23.589978,120.180394,1.27,28.79,2.42,74.33,1.5,1.11,12J990
