站名,緯度,經度,平均溫距平,本年度平均溫,平均溼度距平,本年度日均相對溼度,本年度日均降水量,日均降水量距平,站號
淡水,25.164889,121.448906,0.71,18.47,8.47,87.77,3.02,-1.71,466900
鞍部,25.182586,121.529731,1.4,14.44,6.81,95.81,5.48,-2.42,466910
臺北,25.037658,121.514853,1.36,20.29,7.14,82.55,3.23,-2.26,466920
竹子湖,25.162078,121.544547,1.52,16.16,4.63,90.16,4.56,-1.58,466930
基隆,25.133314,121.740475,0.54,18.65,12.82,90.13,8.96,0.68,466940
花蓮,23.975128,121.613275,1.37,21.54,7.82,84.0,0.81,-1.95,466990
新屋,25.006744,121.047486,-0.08,17.89,6.66,88.42,3.64,-1.6,467050
宜蘭,24.763975,121.756528,1.28,20.29,7.38,85.16,2.06,-1.97,467080
金門,24.407306,118.289281,2.03,17.44,6.55,82.55,0.69,-2.06,467110
澎湖,23.565503,119.563094,-0.22,19.74,5.72,83.97,0.15,-1.47,467350
臺南,22.993239,120.204772,0.8,22.35,1.3,73.94,0.17,-0.67,467410
永康,23.038386,120.2367,1.06,22.26,4.31,75.58,0.12,-0.68,467420
嘉義,23.495925,120.432906,1.19,21.37,3.94,81.97,0.31,-1.23,467480
臺中,24.145736,120.684075,1.36,21.5,-0.35,73.06,1.07,-1.41,467490
阿里山,23.508208,120.813242,0.48,9.88,0.6,82.58,1.68,-2.76,467530
大武,22.355675,120.903789,1.04,23.42,3.53,75.87,0.88,-0.37,467540
玉山,23.487614,120.959522,2.23,3.69,8.9,84.61,0.98,-1.94,467550
新竹,24.827853,121.014219,1.06,19.21,6.12,84.32,3.57,-1.51,467571
恆春,22.003897,120.746339,0.93,24.16,2.62,73.58,0.08,-0.46,467590
成功,23.097486,121.373428,0.98,21.74,6.74,83.71,1.67,-0.81,467610
日月潭,23.881325,120.90805,1.58,18.35,3.3,83.84,0.72,-2.37,467650
臺東,22.752211,121.154586,1.38,23.03,2.19,75.1,0.05,-1.22,467660
馬祖,26.169269,119.923419,1.72,14.19,4.65,87.58,2.68,-0.97,467990
山佳,24.974944,121.402008,1.88,20.23,0.53,79.97,2.87,-2.53,C0A520
坪林,24.938183,121.70975,1.57,17.81,6.2,95.87,2.29,-2.31,C0A530
泰平,24.971197,121.823711,1.73,16.95,2.89,96.16,6.1,-2.05,C0A550
桶後,24.848222,121.597992,1.44,17.18,-0.91,90.9,3.52,-1.88,C0A570
石碇,24.993969,121.662917,1.72,18.19,4.31,91.94,3.27,-1.86,C0A640
大坪,25.165914,121.632969,1.27,17.01,0.47,91.06,9.84,-3.74,C0A860
五指山,25.132153,121.608692,2.04,15.85,3.28,95.48,5.37,-2.11,C0A870
雙溪,25.036003,121.864242,0.8,18.16,1.64,90.45,3.65,-2.76,C0A890
三和,25.233153,121.595236,0.73,17.28,3.49,91.74,9.63,-3.37,C0A931
金山,25.223628,121.643967,0.47,17.88,5.56,90.48,5.97,-1.52,C0A940
三貂角,25.007606,122.002058,1.06,19.1,-3.01,81.39,3.97,-1.11,C0A970
社子,25.109508,121.469681,0.84,19.33,0.67,80.0,2.69,-1.58,C0A980
天母,25.117494,121.537169,1.9,20.62,3.95,79.35,2.39,-1.64,C0A9C0
內湖,25.079422,121.57545,1.06,19.9,2.4,80.38,2.18,-1.88,C0A9F0
大屯山,25.175675,121.522408,1.52,13.2,1.93,95.94,4.44,-1.53,C0AC40
三峽,24.939025,121.369728,1.33,19.79,3.87,84.29,3.16,-2.25,C0AC60
信義,25.037822,121.564597,1.34,19.88,0.33,79.26,2.5,-2.06,C0AC70
文山,25.00235,121.575728,0.96,19.25,3.42,84.9,2.21,-2.33,C0AC80
新莊,25.051478,121.446756,1.01,19.88,9.01,84.06,2.97,-1.58,C0ACA0
八里,25.150211,121.403947,0.37,18.57,6.06,86.36,2.97,-1.22,C0AD10
蘆洲,25.086594,121.472331,0.96,19.95,1.61,77.71,3.06,-0.79,C0AD30
土城,24.973208,121.445169,1.27,19.57,2.46,82.39,2.71,-2.54,C0AD40
鶯歌,24.951533,121.346294,0.93,19.14,0.88,83.58,3.29,-1.53,C0AD50
汐止,25.066881,121.658778,0.82,19.11,5.99,91.42,3.24,-2.35,C0AH00
永和,25.01125,121.508111,1.08,20.02,3.88,81.16,2.42,-3.52,C0AH10
五分山,25.07125,121.780794,1.07,14.98,3.3,97.48,8.39,-2.24,C0AH30
平等,25.129142,121.577086,1.1,17.93,3.07,87.94,2.82,-1.17,C0AH40
林口,25.072181,121.38084,1.14,18.59,0.74,85.81,3.45,-1.02,C0AH50
松山,25.04871,121.55042,0.2,20.4,0.95,69.29,2.39,-2.3,C0AH70
深坑,25.002703,121.628328,0.34,19.07,-0.14,84.94,2.32,-1.85,C0AH80
福山植物園,24.760717,121.58135,1.05,15.84,1.07,93.9,4.95,-0.3,C0AH90
五股,25.07445,121.42728,0.08,18.64,1.5,88.97,3.74,-2.34,C0AI00
屈尺,24.92184,121.54475,0.53,19.44,2.06,86.03,3.42,-2.72,C0AI10
白沙灣,25.283128,121.519058,-0.9,17.72,4.26,83.94,3.29,-1.91,C0AI20
三重,25.057328,121.500629,-0.26,20.15,1.39,84.35,2.08,-3.79,C0AI30
石牌,25.115597,121.513139,-0.19,20.12,1.29,73.94,2.44,-2.74,C0AI40
七堵,25.094819,121.71713,-0.12,18.86,8.4,95.48,5.32,-1.45,C0B010
基隆嶼,25.19141,121.78391,-0.73,17.76,4.32,90.52,3.05,-0.96,C0B020
復興,24.820208,121.352281,2.3,18.27,-2.7,80.71,3.13,-2.84,C0C460
桃園,24.992425,121.323172,1.08,19.25,6.21,81.55,3.69,-1.25,C0C480
八德,24.928708,121.283289,0.81,18.69,1.65,82.71,3.89,-2.0,C0C490
觀音,25.027072,121.153317,0.73,17.97,5.96,87.39,3.52,-1.52,C0C590
蘆竹,25.084275,121.265767,0.99,18.82,5.92,87.52,3.32,-1.38,C0C620
大溪,24.882853,121.265547,0.98,17.99,3.62,82.81,3.19,-2.1,C0C630
平鎮,24.897503,121.214636,1.25,18.11,5.25,86.48,3.19,-2.18,C0C650
楊梅,24.912375,121.143047,0.54,18.15,5.44,85.03,4.0,-2.53,C0C660
龍潭,24.870056,121.221389,1.28,18.13,-0.57,81.81,3.69,-3.74,C0C670
龜山,25.02846,121.38656,0.25,18.21,4.8,84.23,3.34,-1.91,C0C680
中壢,24.977661,121.256375,-0.42,18.27,3.2,80.71,3.66,-1.4,C0C700
大溪永福,24.892936,121.324975,0.16,18.28,8.4,94.71,3.15,-5.14,C0C710
梅花,24.678347,121.208558,1.29,16.96,2.16,89.16,3.92,-2.35,C0D360
峨眉,24.6905,121.017189,1.46,19.06,0.36,87.45,3.21,-2.25,C0D430
打鐵坑,24.849664,121.150789,1.48,18.0,3.04,89.16,3.53,-2.01,C0D480
橫山,24.71116,121.11693,1.37,18.41,1.31,86.71,3.74,-2.0,C0D540
雪霸,24.526972,121.11605,1.02,12.62,0.25,79.9,3.16,-3.51,C0D550
竹東,24.767147,121.057881,1.98,19.29,3.58,80.61,3.08,-2.19,C0D560
寶山,24.735006,121.025192,1.54,18.54,2.52,87.03,3.61,-2.12,C0D580
新豐,24.87068,120.97721,0.7,17.71,5.69,88.48,3.26,-1.41,C0D590
湖口,24.904794,121.043628,0.46,18.19,1.3,83.9,3.15,-1.57,C0D650
新竹市東區,24.798681,120.986942,0.98,19.03,2.81,81.06,3.13,-2.17,C0D660
竹南,24.708978,120.888897,0.77,18.65,6.28,86.61,2.73,-1.43,C0E420
南庄,24.601775,121.000214,1.46,18.31,0.39,85.74,3.03,-3.09,C0E430
明德,24.583486,120.885411,0.83,18.6,-3.92,81.35,2.45,-2.07,C0E550
通霄,24.471892,120.704622,0.68,19.12,-2.36,83.35,1.71,-1.76,C0E590
馬都安,24.451272,120.930192,1.58,17.38,-4.31,80.1,2.31,-2.59,C0E610
頭份,24.688247,120.912206,1.16,19.41,3.61,80.71,3.08,-1.3,C0E730
造橋,24.637056,120.864778,0.93,19.07,-1.3,84.87,2.68,-1.81,C0E740
苗栗,24.564569,120.824575,0.78,19.34,1.8,81.58,2.23,-2.26,C0E750
銅鑼,24.489681,120.790853,0.67,18.83,2.57,85.94,1.82,-2.57,C0E780
西湖,24.562947,120.7485,0.43,18.29,8.47,94.65,2.1,-1.5,C0E810
獅潭,24.539133,120.920042,1.09,18.5,-4.85,83.81,2.82,-2.33,C0E820
苑裡,24.439714,120.653053,-0.12,18.8,5.02,85.03,1.16,-2.39,C0E830
大河,24.618069,120.948578,0.99,18.64,-1.2,84.42,1.69,-4.93,C0E850
高鐵苗栗,24.60725,120.826094,-0.26,19.01,1.31,82.77,2.5,-1.75,C0E870
雪山圈谷,24.388594,121.236339,1.71,2.88,-8.6,67.94,2.92,-6.53,C0F0A0
石岡,24.276061,120.777644,0.9,19.66,-6.28,77.87,0.97,-2.6,C0F0B0
中坑,24.248517,120.903319,0.9,17.64,1.83,88.06,1.66,-2.9,C0F0C0
審馬陣,24.381675,121.4203,1.19,5.89,-2.67,73.0,1.34,-3.45,C0F0D0
南湖圈谷,24.363714,121.444667,1.1,2.84,10.42,74.32,2.45,-9.16,C0F0E0
東勢,24.246428,120.833047,1.22,19.77,2.59,84.13,1.29,-1.85,C0F850
大坑,24.173142,120.722289,1.06,21.15,-4.43,71.58,1.0,-1.48,C0F970
神岡,24.272481,120.658314,0.68,19.4,-2.49,82.84,0.85,-1.91,C0F9I0
大安,24.345061,120.588025,-0.04,18.96,3.45,87.26,0.98,-1.45,C0F9K0
后里,24.310436,120.729725,1.49,20.13,-3.47,80.65,1.21,-1.65,C0F9L0
豐原,24.254322,120.720692,1.24,20.33,-6.3,73.97,0.84,-2.22,C0F9M0
大里,24.092464,120.701378,1.12,22.22,-0.66,72.68,1.1,-1.25,C0F9N0
潭子,24.213106,120.703933,2.29,22.25,-4.01,74.29,0.9,-1.79,C0F9O0
清水,24.312297,120.562242,0.11,19.42,11.52,93.94,0.9,-1.33,C0F9P0
外埔,24.347817,120.705686,1.16,19.92,-2.59,81.13,1.11,-1.57,C0F9Q0
龍井,24.184536,120.528972,0.06,19.82,-1.76,81.23,0.81,-1.31,C0F9R0
烏日,24.107058,120.624103,1.46,21.64,-1.6,73.35,0.95,-1.34,C0F9S0
西屯,24.179494,120.641275,0.83,20.53,8.45,85.81,0.89,-1.45,C0F9T0
南屯,24.137006,120.637969,1.12,21.79,-1.96,71.9,0.85,-1.37,C0F9U0
新社,24.200172,120.815806,2.04,20.13,-3.93,79.77,1.24,-2.09,C0F9V0
大雅(中科園區),24.21528,120.62445,0.48,19.7,0.05,79.06,0.82,-2.45,C0F9X0
桃山,24.432739,121.303808,1.35,5.32,-2.84,70.48,2.79,-4.3,C0F9Y0
雪山東峰,24.388792,121.268675,1.17,6.1,-1.62,68.87,2.68,-3.74,C0F9Z0
芬園,24.015678,120.6213,1.69,21.42,0.11,81.29,0.44,-1.57,C0G620
員林,23.946503,120.585597,1.24,21.65,2.55,81.97,0.4,-1.5,C0G650
溪湖,23.94835,120.479122,1.42,21.4,0.84,82.9,0.29,-1.43,C0G660
溪州,23.851589,120.499093,0.61,20.44,5.55,85.0,0.35,-2.53,C0G720
二林,23.903325,120.376081,0.26,19.7,-0.68,84.77,0.39,-1.36,C0G730
大城,23.852487,120.320935,0.17,19.79,3.76,82.55,0.35,-1.87,C0G740
福興,24.041289,120.437669,0.55,20.75,0.57,79.84,0.87,-0.94,C0G770
秀水,24.03405,120.503869,0.48,20.66,0.46,81.82,0.82,-1.06,C0G780
埔鹽,24.000394,120.431683,0.16,19.8,10.01,95.29,0.58,-0.93,C0G800
埔心,23.947633,120.525456,0.43,20.66,-0.3,79.48,0.32,-1.55,C0G810
田尾,23.901669,120.509389,0.93,21.07,-1.95,82.71,0.27,-1.55,C0G820
埤頭,23.866003,120.452806,1.12,20.99,-3.47,85.65,0.26,-1.25,C0G830
社頭,23.897647,120.5862,0.61,21.48,4.46,81.16,0.39,-1.81,C0G860
二水,23.810742,120.6173,1.46,21.97,0.57,83.61,0.29,-1.53,C0G880
伸港,24.148933,120.484403,-0.02,19.63,11.66,93.35,0.76,-1.04,C0G890
線西,24.143358,120.443536,-1.65,19.75,5.71,88.42,0.71,0.02,C0G900
花壇,24.032076,120.549461,-0.91,20.63,4.55,82.19,0.81,-0.19,C0G910
埔里,23.972169,120.952425,1.61,21.02,-5.88,74.55,0.53,-3.77,C0H890
草屯,23.973672,120.68085,1.48,21.84,4.85,82.26,0.4,-1.56,C0H960
昆陽,24.121322,121.273642,0.83,5.54,-2.4,80.76,2.44,-1.71,C0H990
神木村,23.532742,120.843667,1.31,14.95,-1.96,83.13,1.29,-2.84,C0H9A0
合歡山,24.143442,121.272547,2.56,5.53,-3.22,80.26,6.74,-3.24,C0H9C0
廬山,24.033311,121.181808,1.67,15.75,-3.58,76.55,2.87,-3.05,C0I010
信義,23.689694,120.851036,1.73,20.39,-2.79,79.13,0.55,-2.67,C0I080
竹山,23.761225,120.688156,2.13,21.8,-5.72,78.9,0.37,-1.97,C0I110
水里,23.812553,120.849792,1.55,21.15,-6.25,75.0,0.39,-3.12,C0I360
魚池,23.895703,120.94135,1.63,19.82,-4.43,79.42,0.73,-3.72,C0I370
集集,23.828206,120.801467,1.54,21.55,-5.36,75.26,0.37,-3.13,C0I380
仁愛,24.022122,121.132206,1.78,17.15,-1.66,82.26,2.0,-4.79,C0I390
名間,23.837053,120.701447,1.59,21.24,-4.38,75.55,0.4,-2.8,C0I410
國姓,24.037803,120.855072,1.52,21.15,-5.77,76.32,0.58,-3.22,C0I420
南投,23.911469,120.687331,1.41,21.87,-1.89,75.23,0.37,-3.01,C0I460
梅峰,24.085272,121.173572,1.45,11.05,-7.02,78.26,3.34,-5.2,C0I480
萬大林道,23.928228,121.091411,1.79,15.19,-3.27,81.74,1.37,-3.72,C0I490
小奇萊,24.131764,121.295717,0.8,5.13,1.23,82.14,6.03,-4.98,C0I530
崙背,23.75555,120.318925,0.47,20.14,-0.79,82.16,0.29,-2.02,C0K250
四湖,23.630414,120.227125,0.72,20.61,2.21,81.9,0.29,-0.99,C0K280
宜梧,23.536281,120.169329,0.33,20.23,2.65,83.13,0.23,-1.12,C0K291
虎尾,23.719183,120.442036,1.03,21.14,-0.56,78.55,0.31,-1.32,C0K330
土庫,23.679029,120.395574,0.6,20.55,-1.01,79.45,0.34,-1.91,C0K390
斗六,23.720583,120.541127,0.87,20.89,-4.93,76.71,0.37,-2.26,C0K400
北港,23.573957,120.292802,0.96,21.12,-2.65,77.61,0.0,-2.08,C0K410
西螺,23.800407,120.467394,0.52,20.42,0.95,80.71,0.31,-2.05,C0K420
褒忠,23.690938,120.303634,0.28,20.03,0.99,82.52,0.24,-1.97,C0K430
二崙,23.772797,120.408944,0.38,20.07,-0.5,81.9,0.23,-1.54,C0K440
大埤,23.646074,120.431537,0.59,20.69,2.39,82.32,0.26,-1.87,C0K450
斗南,23.678734,120.478359,0.59,20.6,-1.39,77.48,0.29,-2.02,C0K460
林內,23.748675,120.609642,0.87,20.75,-1.66,80.35,0.34,-2.57,C0K470
莿桐,23.761192,120.502372,0.72,20.47,-2.43,79.48,0.29,-2.22,C0K480
元長,23.64981,120.315024,0.38,20.34,-0.22,78.55,0.31,-1.79,C0K500
水林,23.572924,120.24597,0.33,20.44,2.64,81.61,0.24,-1.83,C0K510
臺西,23.701547,120.197559,-0.12,19.78,4.03,84.58,0.21,-1.83,C0K530
蔦松,23.514319,120.229736,0.38,20.54,-0.26,80.1,0.19,-1.73,C0K550
棋山,23.68645,120.603417,1.1,21.18,-4.85,75.65,0.42,-2.82,C0K560
高鐵雲林,23.737456,120.417944,-0.01,20.77,0.5,86.0,0.26,-1.81,C0K580
東後寮,23.369908,120.248065,0.56,20.67,-2.24,78.68,0.21,-1.63,C0M520
奮起湖,23.493903,120.699253,0.95,15.64,0.95,88.68,0.81,-2.39,C0M530
中埔,23.42538,120.5229,0.86,21.14,-2.74,76.16,0.26,-2.56,C0M640
朴子,23.43463,120.23902,0.28,20.53,4.52,83.23,0.21,-1.69,C0M650
溪口,23.604131,120.403569,0.65,20.61,-2.53,79.32,0.27,-1.81,C0M660
大林,23.600616,120.45841,0.74,21.01,1.64,79.42,0.32,-2.61,C0M670
太保,23.455062,120.331455,0.63,21.13,0.09,80.39,0.26,-1.95,C0M680
水上,23.419734,120.388909,0.78,21.13,0.46,79.55,0.21,-1.96,C0M690
竹崎,23.526178,120.555508,1.16,21.25,-3.5,77.94,0.47,-2.26,C0M700
東石,23.458927,120.15385,0.01,20.2,0.93,81.52,0.24,-1.87,C0M710
番路,23.464657,120.554156,1.0,20.76,-1.57,78.39,0.4,-2.38,C0M720
嘉義市東區,23.457673,120.460531,1.27,22.55,-1.19,73.39,0.4,-2.09,C0M730
六腳,23.492871,120.290625,0.39,20.64,-0.19,79.58,0.27,-1.81,C0M740
布袋,23.380878,120.167789,0.2,20.49,0.36,80.58,0.13,-1.82,C0M750
民雄,23.551754,120.428457,0.73,21.16,1.4,80.32,0.26,-2.21,C0M760
嘉義梅山,23.585398,120.555587,0.79,20.81,-3.33,77.42,0.32,-2.82,C0M770
鹿草,23.41134,120.30835,0.69,21.2,0.65,78.1,0.19,-1.85,C0M780
新港,23.553269,120.345728,0.46,20.83,-0.21,77.81,0.26,-1.98,C0M790
茶山,23.299075,120.664767,1.63,21.58,-4.92,75.06,0.79,-2.31,C0M800
里佳,23.389125,120.716647,1.16,16.12,5.94,90.0,0.76,-3.34,C0M810
達邦,23.453994,120.749517,1.46,18.33,-5.68,73.29,0.68,-2.9,C0M820
表湖,23.24186,120.64166,0.75,20.11,1.74,82.35,0.4,-2.22,C0M850
新美,23.338017,120.683169,-1.11,20.96,-0.94,74.65,0.73,-2.04,C0M860
北寮,23.079561,120.495008,1.35,22.6,0.25,79.19,0.15,-1.18,C0O830
王爺宮,23.222064,120.40085,0.93,21.36,-4.36,78.65,0.24,-1.43,C0O840
大內,23.11885,120.36083,0.85,22.31,6.61,87.16,0.16,-1.08,C0O860
善化,23.112883,120.297219,1.15,22.04,6.89,89.16,0.1,-0.84,C0O900
崎頂,22.959547,120.369317,1.09,22.11,-4.66,75.13,0.23,-1.08,C0O960
虎頭埤,23.021375,120.347878,1.01,22.01,-1.98,78.29,0.16,-1.12,C0O970
新市,23.061614,120.298197,0.87,22.23,-3.17,77.84,0.13,-1.01,C0O980
媽廟,22.99175,120.293525,0.9,22.34,4.95,83.68,0.18,-1.14,C0O990
尾寮山,22.833111,120.683889,1.16,18.07,-14.85,73.68,0.27,-1.51,C0R100
阿禮,22.742908,120.743678,1.53,18.88,-8.78,73.29,0.24,-1.35,C0R130
瑪家,22.682903,120.686639,1.23,19.92,2.77,86.48,0.05,-1.62,C0R140
三地門,22.709889,120.639944,1.61,24.39,-1.43,72.0,0.0,-0.84,C0R150
鹽埔,22.739558,120.530778,1.09,23.35,-4.49,78.48,0.05,-0.93,C0R160
屏東,22.660269,120.494072,1.32,23.98,-7.37,70.94,0.0,-1.09,C0R170
赤山,22.592333,120.614306,1.24,23.65,-1.34,78.32,0.0,-1.59,C0R190
潮州,22.534361,120.54,1.45,24.1,-6.21,72.87,0.0,-0.75,C0R220
來義,22.527306,120.625111,0.86,23.03,-1.14,77.55,0.0,-1.63,C0R240
春日,22.370361,120.628306,0.6,23.52,4.58,78.77,0.03,-1.26,C0R260
琉球嶼,22.332244,120.362236,0.22,23.23,13.6,91.94,0.19,-0.51,C0R270
車城,22.0744,120.716247,0.1,23.9,-0.55,75.68,0.23,-0.16,C0R320
牡丹,22.130036,120.792639,0.26,21.65,0.39,86.81,1.77,1.23,C0R341
貓鼻頭,21.921774,120.7358,1.22,24.11,-1.0,79.97,0.06,-0.37,C0R350
大漢山,22.405264,120.753181,0.05,13.24,1.32,95.58,0.79,-3.06,C0R440
高樹,22.826389,120.600806,1.49,24.14,-11.76,63.97,0.11,-1.06,C0R470
長治,22.693128,120.542622,1.19,23.92,-6.62,70.71,0.0,-1.14,C0R480
九如,22.7405,120.490503,1.37,23.96,-7.7,71.61,0.1,-0.83,C0R490
崁頂,22.514781,120.506914,1.8,24.35,1.17,82.55,0.0,-1.24,C0R520
佳冬,22.419456,120.552375,1.1,23.8,8.81,87.13,0.06,-1.06,C0R540
新埤,22.467947,120.582894,0.91,23.63,2.44,81.94,0.0,-1.15,C0R550
新園,22.5434,120.461558,1.0,23.63,-2.99,76.06,0.0,-1.3,C0R560
麟洛,22.65078,120.52719,1.31,24.16,-2.01,74.71,0.0,-1.14,C0R570
南州,22.48591,120.50274,0.8,23.31,2.1,81.48,0.0,-1.11,C0R580
里港,22.77919,120.49459,1.17,23.6,0.65,78.74,0.11,-0.93,C0R590
舊泰武,22.588194,120.664944,1.55,20.12,-0.15,86.55,0.0,-2.58,C0R600
墾雷,21.900836,120.855269,0.95,23.82,4.49,82.65,0.13,-0.85,C0R620
東港,22.46247,120.44074,-0.29,23.49,4.65,84.23,0.0,-0.9,C0R640
竹田,22.58486,120.54344,0.17,23.92,-0.31,82.68,0.02,-1.35,C0R650
枋寮,22.367722,120.590647,-0.51,23.14,2.55,81.03,0.11,-1.69,C0R660
楓港,22.190131,120.692156,0.06,23.99,0.06,72.19,0.58,-0.08,C0R670
佳樂水,21.993578,120.861633,0.29,23.94,-1.35,79.77,1.21,0.18,C0R680
墾丁,21.966756,120.810269,0.26,21.78,-1.29,86.87,0.55,-0.06,C0R690
枋山,22.246844,120.661086,-0.33,23.45,2.97,74.77,0.42,-0.74,C0R700
旭海,22.205403,120.887614,0.25,21.88,0.39,86.29,1.82,-2.48,C0R720
下馬,23.150427,121.070312,0.47,17.79,-0.9,85.74,0.26,-1.59,C0S660
太麻里,22.60902,120.98533,1.74,19.55,1.1,89.55,0.68,-0.84,C0S690
知本,22.684866,121.005642,0.53,18.24,2.0,91.71,0.92,-1.12,C0S700
鹿野,22.917711,121.122994,1.93,19.77,-0.35,87.55,0.66,-1.01,C0S710
綠島,22.6672,121.47533,1.05,21.95,1.29,89.13,2.15,-1.59,C0S730
池上,23.119628,121.209469,1.62,20.11,0.35,87.94,0.44,-0.5,C0S740
向陽,23.248397,120.986133,1.37,10.92,0.45,81.23,1.42,-3.05,C0S750
紅石,23.069131,121.126219,1.74,13.17,1.39,96.58,0.63,-1.07,C0S760
大溪山,22.478475,120.943325,1.27,19.94,-1.09,89.0,0.68,-1.63,C0S770
金崙,22.538122,120.966875,1.14,21.47,-1.53,82.32,0.35,-1.41,C0S790
東河,22.972672,121.303986,0.53,22.15,-1.39,81.84,1.39,-0.73,C0S810
長濱,23.286817,121.411975,1.48,20.86,0.03,85.84,1.02,-0.41,C0S830
南田,22.279725,120.889208,1.17,23.28,-2.42,81.52,0.82,-0.9,C0S840
關山,23.0395,121.175017,1.75,20.84,-0.39,85.9,0.68,-0.84,C0S890
蘭嶼高中,22.04909,121.51214,0.62,24.31,2.89,81.0,3.69,-3.73,C0S900
金峰嘉蘭,22.594789,120.960825,-0.18,21.81,0.32,82.39,0.15,-2.08,C0S920
延平,22.902581,121.084058,0.32,20.89,-1.03,81.55,0.19,-1.21,C0S930
石寧山,23.223772,121.406639,0.45,21.23,0.39,87.03,1.13,-0.5,C0S940
七塊厝,22.954453,121.229922,0.18,19.54,1.45,91.52,0.21,-2.16,C0S950
香蘭,22.587569,120.993375,0.21,22.95,0.71,77.26,0.19,-1.45,C0S960
加津林,22.416211,120.926942,0.33,23.02,-1.1,77.48,0.55,-3.03,C0S970
勝林山,22.430439,120.8938,-0.75,16.61,1.35,96.0,1.05,-3.71,C0S980
山豬窟,22.318619,120.857372,0.18,20.52,-0.35,87.58,1.16,-1.76,C0S990
歷坵,22.520969,120.89185,0.25,19.46,-6.52,85.26,0.16,-1.95,C0SA00
檳榔四格山,22.810031,121.109308,0.13,19.9,0.13,87.68,0.56,-1.19,C0SA10
金崙山,22.567419,120.959667,-0.08,16.85,2.19,96.55,1.94,-1.55,C0SA20
都歷,23.020333,121.323642,0.35,21.7,-0.61,80.39,0.87,-10.16,C0SA30
瑞和,22.974361,121.156697,0.41,20.87,-0.68,84.35,0.76,-1.53,C0SA40
土坂,22.453108,120.887572,0.31,21.74,-1.55,82.84,0.18,-2.03,C0SA80
大禹嶺,24.186117,121.316086,1.79,9.23,1.71,74.81,2.48,-3.81,C0T790
天祥,24.179597,121.495639,2.01,18.41,0.58,82.23,0.47,-2.04,C0T820
鯉魚潭,23.935639,121.508944,1.12,19.19,-1.8,87.65,1.6,-1.88,C0T870
西林,23.8119,121.441458,1.38,19.91,3.79,84.23,1.45,-1.26,C0T900
光復,23.660694,121.424964,1.46,20.32,7.87,96.16,1.61,-1.46,C0T960
月眉山,23.809928,121.539828,1.09,17.63,4.57,96.39,1.15,-1.91,C0T9A0
水源,23.991861,121.537169,1.91,18.02,1.59,91.35,2.73,-2.48,C0T9B0
和中,24.26676,121.74103,1.19,20.98,2.72,86.39,3.02,-1.0,C0T9D0
大坑,23.880628,121.581981,1.09,18.06,3.16,92.52,2.08,-1.79,C0T9E0
水璉,23.797131,121.542514,1.16,20.06,8.71,93.48,0.89,-1.92,C0T9F0
鳳林山,23.735269,121.420131,0.31,17.41,-0.28,91.94,2.63,-1.37,C0T9G0
加路蘭山,23.682947,121.5274,1.85,17.41,1.17,94.71,4.45,-0.79,C0T9H0
豐濱,23.583897,121.514806,1.43,20.03,0.0,85.65,2.69,-1.03,C0T9I0
靜浦,23.455167,121.495028,1.75,21.25,-0.74,87.87,1.92,-1.12,C0T9M0
富里,23.171639,121.249378,0.44,20.34,-0.29,87.06,0.32,-0.47,C0T9N0
雙連埤,24.753033,121.641303,2.46,17.38,-4.13,90.48,3.84,-1.93,C0U520
礁溪,24.817539,121.765608,1.68,20.29,1.43,84.21,1.63,-2.32,C0U600
玉蘭,24.675286,121.587061,1.52,17.63,7.31,91.61,4.37,-1.24,C0U650
太平山,24.505486,121.525656,0.89,10.63,1.26,90.87,1.77,-2.08,C0U710
南山,24.43742,121.38167,0.44,13.88,-5.4,90.87,2.6,-2.43,C0U720
龜山島,24.841667,121.953133,0.82,17.7,-1.93,93.0,1.42,-1.63,C0U750
東澳,24.52196,121.83318,0.51,19.7,-0.26,86.61,2.4,-2.43,C0U760
南澳,24.44935,121.81022,0.66,20.64,2.36,80.29,1.16,-1.44,C0U770
五結,24.68637,121.79794,1.47,20.25,2.46,83.29,1.37,-3.39,C0U780
頭城,24.85323,121.8308,0.32,20.24,1.9,82.19,2.06,-1.57,C0U860
大礁溪,24.791042,121.675047,0.52,17.42,5.51,89.9,3.39,-0.61,C0U870
三星,24.66812,121.65302,0.4,19.47,-2.98,82.74,2.06,-0.93,C0U890
內城,24.71813,121.68766,0.59,19.89,1.17,84.62,1.47,-1.26,C0U900
冬山,24.63373,121.7937,0.47,20.05,7.37,85.81,2.23,-1.08,C0U910
羅東,24.68184,121.74934,0.86,20.28,0.16,83.58,1.29,-1.35,C0U940
鶯子嶺,24.89754,121.79244,1.19,13.89,0.93,97.97,5.19,-1.87,C0U950
翠峰湖,24.510856,121.608044,1.09,10.31,2.33,95.03,1.61,-1.32,C0U960
大福,24.80064,121.81389,0.59,20.3,6.78,85.17,1.52,-1.3,C0U970
坪林石牌,24.86478,121.77396,0.72,16.48,1.56,96.29,3.19,-1.44,C0U980
員山,24.74435,121.72247,0.56,20.29,4.87,84.1,1.35,-1.19,C0U990
土場,24.576533,121.495333,0.85,18.5,3.19,87.61,1.45,-1.9,C0UA00
鴛鴦湖,24.590269,121.412228,0.84,11.29,3.53,95.35,3.32,-1.72,C0UA10
多加屯,24.368614,121.373189,1.44,8.45,-1.91,76.71,1.39,-3.04,C0UA20
白嶺,24.527819,121.519031,1.13,13.04,-1.84,93.23,4.45,-0.89,C0UA30
西德山,24.560647,121.752608,1.02,14.03,2.07,96.65,4.74,-0.43,C0UA40
西帽山,24.555361,121.802628,1.14,15.65,3.6,96.81,9.65,-0.03,C0UA50
樟樹山,24.41393,121.78325,0.89,17.38,5.08,92.13,2.45,-2.43,C0UA60
桃源谷,24.962606,121.888875,0.89,16.56,-1.14,93.65,6.52,-0.87,C0UA70
復興,23.222403,120.806089,1.8,20.81,-7.46,68.74,0.47,-2.47,C0V210
美濃,22.898742,120.519153,2.11,24.24,-3.3,74.83,0.1,-0.86,C0V310
溪埔,22.738578,120.446797,1.12,23.28,-4.96,73.05,0.1,-0.8,C0V350
內門,22.975481,120.466769,1.97,23.14,-6.59,71.47,0.19,-1.21,C0V360
古亭坑,22.893178,120.401947,1.15,22.45,-7.8,72.9,0.11,-0.76,C0V370
阿公店,22.804194,120.355528,0.94,22.49,-4.6,76.0,0.03,-0.87,C0V400
鳳山,22.646653,120.356122,1.68,24.19,-1.56,72.03,0.0,-0.98,C0V440
鳳森,22.545064,120.392592,1.72,24.16,-5.72,70.81,0.0,-1.32,C0V450
新興,22.627422,120.298803,1.21,23.78,-2.23,70.55,0.0,-0.69,C0V490
阿蓮,22.883208,120.327508,0.69,22.34,-6.06,75.68,0.1,-1.08,C0V530
梓官,22.760558,120.267211,-0.21,21.81,2.4,78.84,0.08,-0.9,C0V610
永安,22.82315,120.236856,1.03,22.72,-5.8,74.29,0.1,-1.06,C0V620
茄萣,22.906642,120.182608,0.4,21.91,4.83,78.97,0.19,-0.97,C0V630
湖內,22.887139,120.2445,1.01,22.66,-1.22,76.48,0.13,-0.95,C0V640
彌陀,22.783806,120.246361,0.49,22.43,0.46,78.79,0.05,-0.94,C0V650
岡山,22.797078,120.294958,0.61,22.97,-0.34,74.16,0.03,-1.07,C0V660
仁武,22.701083,120.347722,0.83,23.42,0.83,75.68,0.13,-0.86,C0V680
鼓山,22.623325,120.275575,0.61,23.15,2.88,78.84,0.02,-0.97,C0V690
三民,22.645017,120.311233,0.65,23.65,4.83,74.86,0.0,-1.02,C0V700
苓雅,22.622742,120.330669,1.04,23.81,3.21,72.42,0.0,-1.06,C0V710
林園,22.507747,120.394511,0.94,24.48,0.87,72.0,0.0,-1.24,C0V720
大寮,22.605614,120.395717,1.44,24.29,-2.93,69.86,0.0,-1.16,C0V730
旗山,22.888614,120.483597,1.39,23.56,-6.45,68.32,0.08,-1.0,C0V740
路竹,22.854997,120.259439,0.88,22.95,-2.66,73.75,0.08,-1.07,C0V750
橋頭,22.757806,120.30575,0.78,23.29,-1.84,74.13,0.1,-0.81,C0V760
大社,22.730306,120.346639,0.73,23.17,-3.18,70.61,0.13,-0.8,C0V770
萬山,22.905944,120.688056,1.22,22.1,-12.05,63.32,0.13,-1.67,C0V790
六龜,22.997889,120.633583,1.73,23.51,-2.35,72.77,0.19,-1.74,C0V800
左營,22.67491,120.28491,0.24,22.4,0.46,77.43,0.06,-0.97,C0V810
小林,23.148408,120.63325,0.58,21.87,-3.55,74.33,0.21,-1.85,C0V820
東莒,25.9652,119.98069,1.07,14.32,0.81,85.4,1.61,-2.05,C0W110
花嶼,23.40007,119.32276,-1.45,19.16,4.0,83.3,0.13,-1.01,C0W130
金沙,24.488292,118.408778,1.16,17.41,3.13,80.0,0.68,-1.93,C0W140
金寧,24.457703,118.328989,1.14,18.22,-0.73,77.35,0.63,-1.61,C0W150
烏坵,24.9944,119.44956,0.99,15.04,1.72,88.23,0.71,-1.21,C0W160
東河,23.296598,120.385608,1.18,21.91,-0.23,80.58,0.37,-1.89,C0X050
下營,23.22695,120.256261,0.85,21.43,-1.32,77.87,0.26,-1.36,C0X060
佳里,23.173039,120.145086,0.8,21.55,-0.29,78.9,0.23,-0.78,C0X080
臺南市南區,22.961189,120.188378,0.52,22.56,-5.82,69.35,0.16,-1.11,C0X110
麻豆,23.183289,120.248611,0.45,21.72,1.42,80.48,0.19,-0.95,C0X120
官田,23.193217,120.315422,0.43,21.85,6.27,83.9,0.18,-1.22,C0X130
西港,23.125608,120.203108,1.03,22.27,-3.72,75.87,0.13,-1.27,C0X140
安定,23.102614,120.227839,0.99,22.05,-0.8,80.61,0.13,-1.23,C0X150
仁德,22.968258,120.257689,0.86,22.65,7.88,83.77,0.21,-1.13,C0X160
關廟,22.963017,120.327797,0.94,22.7,6.05,81.48,0.24,-1.2,C0X170
山上,23.0757,120.363253,0.92,22.12,3.91,83.97,0.13,-1.02,C0X180
安平,22.993161,120.152181,0.17,21.74,4.82,82.74,0.11,-1.12,C0X190
左鎮,23.056758,120.408522,0.93,21.68,-0.44,81.16,0.16,-1.07,C0X200
白河,23.347466,120.414427,0.82,21.45,0.43,80.52,0.27,-1.66,C0X210
學甲,23.230367,120.182187,0.11,20.47,0.26,78.74,0.21,-1.35,C0X220
鹽水,23.272621,120.247641,0.63,20.81,0.09,79.23,0.23,-1.28,C0X230
關子嶺,23.331169,120.508025,1.06,20.09,1.09,84.29,0.5,-2.28,C0X240
新營,23.310689,120.316681,0.71,21.54,-2.41,74.81,0.23,-2.2,C0X250
後壁,23.366358,120.362326,0.73,21.24,-3.59,76.45,0.19,-1.71,C0X260
將軍,23.214999,120.13577,0.22,20.63,0.57,80.23,0.18,-1.05,C0X280
北門,23.267772,120.125481,-0.0,20.5,3.96,83.48,0.18,-1.56,C0X290
鹿寮,23.386047,120.477331,1.07,21.32,-1.11,80.71,0.32,-2.36,C0X300
柳營,23.253328,120.375253,-0.44,21.89,1.13,77.45,0.27,-2.53,C0X320
明里,23.208717,121.262342,1.65,20.17,-4.71,84.84,0.55,-0.49,C0Z020
佳心,23.34567,121.21316,1.61,16.75,-0.71,87.19,0.52,-0.97,C0Z050
玉里,23.3215,121.339656,1.72,20.71,-3.15,83.32,0.44,-1.19,C0Z061
舞鶴,23.46811,121.37407,1.73,19.77,7.01,96.65,1.65,0.24,C0Z070
富源,23.587642,121.378225,1.41,19.67,5.44,95.23,2.29,-0.41,C0Z080
東華,23.89525,121.549833,1.56,20.84,-1.81,84.29,1.19,-2.09,C0Z100
吉安光華,23.930925,121.595153,0.84,21.03,13.87,97.68,0.68,-1.64,C0Z150
鳳林,23.746114,121.453411,0.95,20.51,3.15,87.39,0.82,-2.72,C0Z160
卓溪,23.3443,121.3029,0.49,20.55,3.99,86.26,0.45,-1.38,C0Z170
新城,24.03946,121.60454,0.68,21.1,11.83,90.29,1.9,-1.76,C0Z180
富世,24.14743,121.6297,0.87,21.22,11.29,93.45,2.92,-0.23,C0Z190
萬榮,23.709219,121.420106,0.85,20.07,-5.57,81.71,0.92,-2.02,C0Z200
瑞穗,23.5239,121.39021,0.82,20.14,4.68,90.97,1.74,-0.82,C0Z210
和平林道,24.343922,121.656317,0.91,17.65,9.29,96.65,0.52,-1.79,C0Z220
和平,24.30717,121.77007,1.56,21.94,-0.45,74.71,2.65,-1.57,C0Z230
瑞穗林道,23.49284,121.30688,0.21,14.43,0.66,97.19,3.53,-1.85,C0Z250
蕃薯寮,23.73835,121.540108,0.94,19.02,2.18,90.97,2.23,-3.09,C0Z270
德武,23.47426,121.41071,0.72,20.11,5.01,93.84,1.13,-1.11,C0Z280
赤柯山,23.36893,121.38293,0.8,15.83,2.15,96.29,1.73,-1.29,C0Z290
東里,23.26853,121.30547,0.99,20.65,-3.65,84.68,1.16,-0.9,C0Z300
清水斷崖,24.218294,121.689142,0.96,21.31,-5.78,77.06,2.19,-1.89,C0Z310
清水林道,23.27125,121.188272,0.93,17.52,-2.76,86.48,1.9,-1.6,C0Z320
安通山,23.290728,121.348528,0.89,18.88,5.29,93.9,0.85,-1.88,C0Z330
口湖工作站,23.589978,120.180394,-0.8,20.11,-0.21,74.9,0.1,-0.77,12J990
東港工作站,22.479997,120.466058,-0.33,23.44,1.84,69.45,0.0,-0.65,12Q970
恆春工作站,22.079678,120.714425,0.26,24.03,-1.44,66.81,0.18,-0.34,12Q980
萬大發電廠,23.978875,121.139639,1.06,18.06,0.33,84.68,1.79,0.12,42HA10
桃改樹林分場,24.944503,121.386972,-0.1,19.49,0.48,80.1,3.06,-4.82,72AI40
桃園農改場,24.950944,121.030583,0.76,18.19,5.4,84.97,3.66,-0.69,72C440
桃改五峰分場,24.612194,121.157167,1.8,15.55,3.6,92.58,2.92,-3.03,72D080
臺中農改場,24.003028,120.534389,0.82,20.38,0.21,79.9,0.44,-1.28,72G600
中改埔里分場,23.903208,120.963364,0.42,19.2,1.01,87.06,0.77,-2.41,72HA00
南改斗南分場,23.634556,120.477333,1.3,21.15,2.01,82.0,0.37,-1.35,72K220
南改義竹分場,23.360694,120.279361,1.01,21.08,-3.57,78.0,0.23,-0.87,72M360
南改鹿草分場,23.416869,120.283061,-0.48,20.52,-1.2,80.16,0.18,-1.41,72M700
臺南農改場,23.0605,120.342194,0.33,21.74,2.08,79.71,0.18,-0.41,72N100
七股研究中心,23.081672,120.062894,-1.15,20.77,2.18,82.39,0.11,-1.68,72N240
高雄農改場,22.709333,120.525889,1.1,23.85,-3.71,72.19,0.0,-0.6,72Q010
東改班鳩分場,22.829528,121.077694,1.63,20.81,4.27,86.29,1.08,-0.31,72S200
東改賓朗果園,22.813889,121.071278,0.89,20.07,4.37,93.81,1.52,0.15,72S590
花蓮農改場,23.975222,121.563889,1.39,20.76,2.21,84.29,1.76,-0.54,72T250
花改蘭陽分場,24.686306,121.716583,1.55,20.14,8.93,90.61,1.03,-2.36,72U480
高改旗南分場,22.857861,120.516667,0.36,22.93,2.86,74.71,0.05,-0.53,72V140
茶改北部分場,24.955778,121.631222,1.95,17.46,9.52,93.94,2.87,-4.11,82A750
茶改場,24.908472,121.185333,1.29,18.11,0.37,84.26,3.05,-3.01,82C160
茶改中部分場,23.875611,120.913583,1.15,18.76,-3.81,81.13,0.61,-2.11,82H320
茶改南部分場,23.762528,120.7405,1.11,19.74,-7.41,81.0,0.4,-2.01,82H840
茶改東部分場,22.907694,121.130139,1.35,21.12,0.19,82.65,1.02,-0.17,82S580
農工中心,24.985917,121.239833,1.16,18.56,4.37,81.45,3.4,-1.81,A2C560
水試臺西試驗場,23.717231,120.190522,0.12,20.06,2.17,83.16,0.18,-0.16,A2K360
臺大雲林校區,23.730628,120.423903,-0.73,20.24,0.68,80.32,0.24,-0.76,A2K630
臺南蘭花園區,23.340258,120.379661,-0.49,21.32,0.29,78.0,0.24,-1.06,A2N290
畜試北區分所,24.527806,120.770972,-0.15,18.45,-0.05,84.26,1.81,-2.96,B2E890
畜產試驗所,23.058972,120.336406,1.07,21.86,-2.08,76.71,0.16,-0.67,B2N890
畜試南區分所,21.945583,120.802167,0.91,23.93,-0.63,73.81,0.29,-0.5,B2Q810
畜試東區分所,24.669039,121.832561,0.08,19.39,2.03,85.87,1.98,-1.74,B2U990
蓮華池,23.918333,120.885278,0.81,19.17,-0.23,84.03,0.47,-2.3,E2H360
林試畢祿溪站,24.226944,121.308522,-0.07,10.76,-5.26,74.58,2.63,-2.21,E2HA20
四湖植物園,23.676986,120.163433,-0.95,19.99,8.08,91.23,0.21,-2.48,E2K600
林試六龜中心,22.991703,120.645722,0.25,22.52,-3.13,73.35,0.21,-1.08,E2P980
林試扇平站,22.9677,120.6857,0.22,20.1,-0.68,81.26,0.31,-0.04,E2P990
林試太麻里2,22.598,120.99775,0.35,22.74,-1.39,77.39,0.16,-1.56,E2S960
林試太麻里1,22.598922,120.980044,0.18,21.89,-0.29,79.77,0.44,-1.5,E2S980
農試所(霧峰),24.031261,120.688133,1.26,21.36,-2.27,77.13,0.44,-1.6,G2F820
農試嘉義分所,23.485028,120.473806,0.91,20.85,-2.56,77.26,0.21,-1.36,G2L020
農試溪口農場,23.58565,120.408111,0.95,20.85,7.32,86.0,0.26,-0.93,G2M350
農試鳳山分所,22.646611,120.356083,0.51,23.26,-12.17,71.29,0.0,-0.66,G2P820
苗栗農改場,24.495722,120.829111,1.03,18.88,3.52,85.48,1.68,-2.44,K2E360
苗改生物防治研究中心,24.422861,120.871833,0.52,18.68,3.84,88.26,1.82,-2.78,K2E710
種苗改良場,24.225972,120.800917,1.3,18.86,-1.18,80.1,1.19,-1.96,K2F750
溪頭,23.670306,120.798194,0.9,15.41,1.21,90.81,0.87,-2.29,U2H480
臺大和社,23.590856,120.888864,0.53,18.61,-5.28,76.9,0.58,-2.85,U2HA30
臺大內茅埔,23.689722,120.851117,0.65,20.26,-2.4,79.03,0.52,-2.98,U2HA40
臺大竹山,23.756972,120.681556,0.47,21.11,-7.07,75.42,0.39,-2.52,U2HA50
板橋,24.997647,121.442017,1.58,20.18,3.41,79.03,3.05,-3.24,466880
蘇澳,24.596736,121.857372,1.26,20.23,7.43,85.84,4.98,-1.37,467060
梧棲,24.256003,120.523381,0.45,19.28,3.16,80.45,0.82,-1.54,467770
四堵,24.8926,121.745736,1.82,17.55,2.37,92.55,2.74,-2.07,C0A540
福山,24.776203,121.502811,0.63,16.43,3.09,92.97,2.69,-1.96,C0A560
火燒寮,25.002719,121.742892,0.83,16.65,8.46,99.23,3.84,-2.05,C0A650
瑞芳,25.113169,121.801147,0.27,17.67,4.18,90.58,9.42,-0.0,C0A660
福隆,25.017842,121.942083,0.69,18.65,4.65,89.71,6.03,-0.57,C0A880
富貴角,25.263783,121.565258,0.86,17.45,3.29,90.03,9.39,-1.4,C0A920
士林,25.090253,121.503019,1.03,19.84,1.62,76.97,3.1,-1.21,C0A9E0
三芝,25.258131,121.501917,0.25,17.93,5.78,87.68,5.95,-1.03,C0AD00
中和,24.992647,121.490444,2.18,21.38,2.72,80.61,2.55,-3.19,C0AG90
大園,25.04775,121.225958,0.7,18.47,6.86,86.52,3.27,-1.2,C0C540
關西,24.7982,121.1739,1.69,19.05,0.77,83.26,3.39,-2.19,C0D390
香山,24.746892,120.905456,0.89,18.65,0.59,85.32,2.55,-1.83,C0D570
大湖,24.41494,120.87087,1.51,18.86,-0.05,87.29,1.95,-2.23,C0E520
後龍,24.606489,120.783933,0.83,18.85,-1.13,84.52,2.16,-1.09,C0E540
卓蘭,24.312764,120.824753,1.91,20.46,2.49,88.32,1.21,-2.24,C0E790
三義,24.40548,120.74982,-0.65,17.6,-3.65,89.19,1.29,-2.21,C0E880
大肚,24.15295,120.572117,0.69,19.1,9.77,95.1,0.98,-1.03,C0F000
梨山,24.247522,121.243669,1.78,11.93,1.12,81.29,3.56,-3.28,C0F861
大甲,24.347667,120.640403,1.09,19.65,-0.29,84.81,1.23,-1.66,C0F930
中竹林,24.103556,120.751061,1.73,20.49,-0.88,80.81,1.13,-1.31,C0F9A0
鹿港,24.0753,120.430481,0.53,19.75,2.81,85.77,0.71,-0.97,C0G640
竹塘,23.846617,120.382486,0.29,20.0,0.73,80.84,0.31,-1.96,C0G750
高鐵彰化,23.875247,120.574608,0.05,21.05,-6.15,76.26,0.37,-2.22,C0G760
北斗,23.877586,120.514222,0.11,20.18,-3.36,81.68,0.34,-1.64,C0G840
芳苑,23.922303,120.320025,-0.04,19.9,-0.98,82.52,0.24,-1.4,C0G870
中寮,23.884447,120.766406,1.35,20.83,-4.15,80.16,0.39,-2.04,C0H950
鳳凰,23.728081,120.787347,1.52,17.89,0.53,90.03,0.74,-2.33,C0I090
草嶺,23.59555,120.693461,1.79,17.73,0.4,89.9,0.45,-1.67,C0K240
古坑,23.654301,120.559754,1.03,21.07,-2.49,77.58,0.42,-2.93,C0K490
雲林東勢,23.674449,120.154778,0.15,20.16,0.95,80.42,0.26,-1.96,C0K520
馬頭山,23.324361,120.582017,1.78,22.51,-7.61,73.0,0.45,-1.14,C0M410
曾文,23.219681,120.497328,1.56,22.83,-2.96,78.77,0.18,-1.04,C0O810
玉井,23.126042,120.46055,2.21,23.2,-7.99,71.65,0.16,-0.89,C0O930
安南,23.076694,120.144861,-0.16,21.12,2.24,84.42,0.11,-1.22,C0O950
萬丹,22.587775,120.490394,1.16,24.23,-6.38,69.13,0.0,-1.36,C0R510
林邊,22.430836,120.509983,0.37,22.99,-5.67,72.84,0.0,-0.9,C0R530
甲仙,23.080106,120.591758,1.56,22.54,-4.39,73.87,0.18,-0.95,C0V250
月眉,22.971003,120.539853,1.03,23.33,-3.06,71.3,0.19,-1.25,C0V260
旗津,22.5886,120.285944,0.5,23.42,-7.07,67.84,0.0,-0.89,C0V500
楠梓,22.71975,120.286,1.04,23.1,1.71,76.26,0.1,-0.84,C0V670
東引,26.358836,120.483631,0.27,13.71,-0.16,85.03,1.73,-2.74,C0W170
七股,23.147289,120.086253,-0.08,20.63,4.56,83.29,0.19,-1.03,C0X310
臺大竹山,23.756972,120.681556,0.47,21.11,-7.07,75.42,0.39,-2.52,U2HA50
臺大內茅埔,23.689722,120.851117,0.65,20.26,-2.4,79.03,0.52,-2.98,U2HA40
臺大和社,23.590856,120.888864,0.53,18.61,-5.28,76.9,0.58,-2.85,U2HA30
臺大溪頭,23.670306,120.798194,0.9,15.41,1.21,90.81,0.87,-2.29,U2H480
種苗繁殖,24.225972,120.800917,1.3,18.86,-1.18,80.1,1.19,-1.96,K2F750
苗改生物防治研究中心,24.422861,120.871833,0.52,18.68,3.84,88.26,1.82,-2.78,K2E710
苗栗農改,24.495722,120.829111,1.03,18.88,3.52,85.48,1.68,-2.44,K2E360
農試鳳山分所,22.646611,120.356083,0.51,23.26,-12.17,71.29,0.0,-0.66,G2P820
農試溪口農場,23.58565,120.408111,0.95,20.85,7.32,86.0,0.26,-0.93,G2M350
農試嘉義分所,23.485028,120.473806,0.91,20.85,-2.56,77.26,0.21,-1.36,G2L020
農業試驗所,24.031261,120.688133,1.26,21.36,-2.27,77.13,0.44,-1.6,G2F820
林試太麻里1,22.598922,120.980044,0.18,21.89,-0.29,79.77,0.44,-1.5,E2S980
林試太麻里2,22.598014,120.989761,0.35,22.74,-1.39,77.39,0.16,-1.56,E2S960
林試扇平站,22.9677,120.6857,0.22,20.1,-0.68,81.26,0.31,-0.04,E2P990
林試六龜中心,22.991703,120.645722,0.25,22.52,-3.13,73.35,0.21,-1.08,E2P980
四湖植物園,23.676986,120.163433,-0.95,19.99,8.08,91.23,0.21,-2.48,E2K600
林試畢祿溪站,24.226944,121.308522,-0.07,10.76,-5.26,74.58,2.63,-2.21,E2HA20
蓮華池,23.918333,120.885278,0.81,19.17,-0.23,84.03,0.47,-2.3,E2H360
畜試東區分所,24.669039,121.832561,0.08,19.39,2.03,85.87,1.98,-1.74,B2U990
畜試南區分所,21.945583,120.802167,0.91,23.93,-0.63,73.81,0.29,-0.5,B2Q810
畜試所,23.058972,120.336406,1.07,21.86,-2.08,76.71,0.16,-0.67,B2N890
畜試北區分所,24.527806,120.770972,-0.15,18.45,-0.05,84.26,1.81,-2.96,B2E890
臺南蘭花園區,23.340258,120.379661,-0.49,21.32,0.29,78.0,0.24,-1.06,A2N290
臺大雲林校區,23.730628,120.423903,-0.73,20.24,0.68,80.32,0.24,-0.76,A2K630
古坑花卉中心,23.63353,120.55239,0.06,20.74,-6.72,77.14,0.02,-2.57,A2K570
水試臺西試驗場,23.717231,120.190522,0.12,20.06,2.17,83.16,0.18,-0.16,A2K360
農工中心,24.985917,121.239833,1.16,18.56,4.37,81.45,3.4,-1.81,A2C560
茶改東部分場,22.907694,121.130139,1.35,21.12,0.19,82.65,1.02,-0.17,82S580
茶改南部分場,23.762528,120.7405,1.11,19.74,-7.41,81.0,0.4,-2.01,82H840
茶改中部分場,23.875611,120.913583,1.15,18.76,-3.81,81.13,0.61,-2.11,82H320
茶改場,24.908472,121.185333,1.29,18.11,0.37,84.26,3.05,-3.01,82C160
茶改北部分場,24.955778,121.631222,1.95,17.46,9.52,93.94,2.87,-4.11,82A750
高改旗南分場,22.857861,120.516667,0.36,22.93,2.86,74.71,0.05,-0.53,72V140
花改蘭陽分場,24.686306,121.716583,1.55,20.14,8.93,90.61,1.03,-2.36,72U480
花蓮農改,23.975222,121.563889,1.39,20.76,2.21,84.29,1.76,-0.54,72T250
東改賓朗果園,22.813889,121.071278,0.89,20.07,4.37,93.81,1.52,0.15,72S590
東改班鳩分場,22.829528,121.077694,1.63,20.81,4.27,86.29,1.08,-0.31,72S200
高雄農改,22.709333,120.525889,1.1,23.85,-3.71,72.19,0.0,-0.6,72Q010
七股研究中心,23.081672,120.062894,-1.15,20.77,2.18,82.39,0.11,-1.68,72N240
臺南農改,23.0605,120.342194,0.33,21.74,2.08,79.71,0.18,-0.41,72N100
南改鹿草分場,23.416869,120.283061,-0.48,20.52,-1.2,80.16,0.18,-1.41,72M700
南改義竹分場,23.360694,120.279361,1.01,21.08,-3.57,78.0,0.23,-0.87,72M360
南改斗南分場,23.634556,120.477333,1.3,21.15,2.01,82.0,0.37,-1.35,72K220
中改埔里分場,23.903208,120.963364,0.42,19.2,1.01,87.06,0.77,-2.41,72HA00
臺中農改,24.003028,120.534389,0.82,20.38,0.21,79.9,0.44,-1.28,72G600
桃改五峰分場,24.612194,121.157167,1.8,15.55,3.6,92.58,2.92,-3.03,72D080
桃園農改,24.950944,121.030583,0.76,18.19,5.4,84.97,3.66,-0.69,72C440
桃改樹林分場,24.944503,121.386972,-0.1,19.49,0.48,80.1,3.06,-4.82,72AI40
萬大發電廠,23.978875,121.139639,1.06,18.06,0.33,84.68,1.79,0.12,42HA10
恆春工作站,22.079678,120.714425,0.26,24.03,-1.44,66.81,0.18,-0.34,12Q980
東港工作站,22.479997,120.466058,-0.33,23.44,1.84,69.45,0.0,-0.65,12Q970
口湖工作站,23.589978,120.180394,-0.8,20.11,-0.21,74.9,0.1,-0.77,12J990
