站名,緯度,經度,平均溫距平,本年度平均溫,平均溼度距平,本年度日均相對溼度,本年度日均降水量,日均降水量距平,站號
淡水,25.164889,121.448906,1.77,17.78,-2.45,79.86,2.77,-1.79,466900
鞍部,25.182586,121.529731,1.1,12.61,-1.99,89.46,8.77,-1.68,466910
臺北,25.037658,121.514853,1.85,19.12,-4.0,73.57,2.21,-2.76,466920
竹子湖,25.162078,121.544547,1.51,14.61,-5.14,82.75,8.54,0.42,466930
基隆,25.133314,121.740475,1.86,18.44,-1.49,78.39,5.1,-7.27,466940
花蓮,23.975128,121.613275,0.51,19.47,1.58,78.14,1.59,-0.86,466990
新屋,25.006744,121.047486,1.05,16.66,1.26,82.14,2.3,-1.1,467050
宜蘭,24.763975,121.756528,1.23,18.7,-1.51,78.5,3.86,-1.63,467080
金門,24.407306,118.289281,3.05,16.62,1.8,77.5,1.6,-0.37,467110
澎湖,23.565503,119.563094,0.29,17.7,2.2,83.39,1.04,0.16,467350
臺南,22.993239,120.204772,0.6,19.72,-1.19,73.57,0.52,-0.0,467410
永康,23.038386,120.2367,0.83,19.5,1.75,75.82,0.6,0.16,467420
嘉義,23.495925,120.432906,0.65,18.68,1.87,80.75,0.02,-1.04,467480
臺中,24.145736,120.684075,1.01,19.01,-5.22,69.93,0.87,-0.83,467490
阿里山,23.508208,120.813242,-0.32,7.31,-12.28,71.25,1.45,-1.43,467530
大武,22.355675,120.903789,-0.15,21.04,0.28,72.86,1.83,0.34,467540
玉山,23.487614,120.959522,2.47,2.68,-9.42,58.89,1.54,-0.18,467550
新竹,24.827853,121.014219,1.66,17.88,-4.41,76.21,2.06,-1.77,467571
恆春,22.003897,120.746339,-0.42,21.46,-0.4,71.5,0.95,0.21,467590
成功,23.097486,121.373428,-0.13,19.58,3.63,79.86,4.65,2.1,467610
日月潭,23.881325,120.90805,0.43,15.84,-2.78,75.18,0.98,-0.87,467650
臺東,22.752211,121.154586,0.29,20.76,-1.16,71.61,2.25,0.95,467660
馬祖,26.169269,119.923419,2.98,13.39,0.37,84.36,3.34,0.61,467990
山佳,24.974944,121.402008,2.65,19.36,5.61,87.57,1.38,-3.19,C0A520
坪林,24.938183,121.70975,1.25,15.94,-0.93,91.54,3.38,-1.41,C0A530
泰平,24.971197,121.823711,1.09,14.76,-1.19,94.04,10.82,-1.42,C0A550
桶後,24.848222,121.597992,0.83,14.94,-8.03,86.43,4.11,-2.48,C0A570
石碇,24.993969,121.662917,1.72,16.52,-1.87,88.61,3.86,-2.15,C0A640
大坪,25.165914,121.632969,1.58,15.79,-7.83,84.32,11.29,-12.1,C0A860
五指山,25.132153,121.608692,2.27,14.64,-4.56,89.11,6.71,-2.98,C0A870
雙溪,25.036003,121.864242,0.65,16.49,-5.29,86.75,5.96,-4.36,C0A890
三和,25.233153,121.595236,1.92,16.5,-5.57,80.75,8.95,-6.99,C0A931
金山,25.223628,121.643967,1.53,17.45,-3.62,82.61,6.05,-3.76,C0A940
鼻頭角,25.129036,121.923372,1.29,18.11,-0.54,82.88,3.59,-0.01,C0A950
三貂角,25.007606,122.002058,2.16,18.88,-16.28,71.96,2.09,-4.92,C0A970
社子,25.109508,121.469681,1.48,18.3,-7.73,73.86,1.82,-1.6,C0A980
天母,25.117494,121.537169,1.78,18.99,-2.88,74.5,1.89,-1.28,C0A9C0
內湖,25.079422,121.57545,1.93,19.15,11.55,92.52,2.54,-1.17,C0A9F0
大屯山,25.175675,121.522408,1.19,11.45,-5.06,89.54,6.36,0.11,C0AC40
三峽,24.939025,121.369728,2.0,18.56,-10.07,73.29,1.41,-3.76,C0AC60
信義,25.037822,121.564597,1.97,18.84,-11.1,70.79,2.41,-2.37,C0AC70
文山,25.00235,121.575728,1.46,17.84,-4.78,80.25,2.84,-2.05,C0AC80
新莊,25.051478,121.446756,1.8,18.82,-3.08,74.0,1.8,-2.21,C0ACA0
八里,25.150211,121.403947,1.87,18.1,-5.78,77.36,2.71,-1.74,C0AD10
蘆洲,25.086594,121.472331,2.0,19.11,-8.06,70.21,1.57,-1.98,C0AD30
土城,24.973208,121.445169,1.76,18.18,-7.34,75.11,1.71,-3.34,C0AD40
鶯歌,24.951533,121.346294,1.69,17.94,-9.15,75.71,1.2,-3.32,C0AD50
汐止,25.066881,121.658778,1.87,18.16,-4.71,82.71,3.54,-3.45,C0AH00
永和,25.01125,121.508111,2.1,18.83,-3.25,73.71,1.68,-2.11,C0AH10
五分山,25.07125,121.780794,1.55,13.36,-4.54,89.93,9.75,-5.99,C0AH30
平等,25.129142,121.577086,1.04,15.6,-6.56,79.61,4.57,0.9,C0AH40
林口,25.072181,121.38084,1.74,16.9,-3.21,80.63,1.73,-1.63,C0AH50
松山,25.04871,121.55042,1.81,19.32,-9.18,63.07,2.02,-0.91,C0AH70
深坑,25.002703,121.628328,1.25,17.35,-7.84,81.14,3.75,0.25,C0AH80
福山植物園,24.760717,121.58135,0.51,13.01,-0.73,91.96,4.55,-0.14,C0AH90
五股,25.07445,121.42728,0.61,17.61,-3.83,82.54,1.79,-0.32,C0AI00
屈尺,24.92184,121.54475,0.51,17.87,-5.23,79.71,2.7,0.63,C0AI10
白沙灣,25.283128,121.519058,0.64,17.34,-9.93,75.39,3.05,-0.23,C0AI20
三重,25.057328,121.500629,0.83,19.14,-1.54,76.93,1.75,1.02,C0AI30
石牌,25.115597,121.513139,0.51,19.24,-4.95,67.75,1.91,0.21,C0AI40
七堵,25.094819,121.71713,0.75,17.94,-2.7,86.93,4.02,-1.75,C0B010
基隆嶼,25.19141,121.78391,1.11,17.82,-5.79,81.61,2.12,-1.47,C0B020
復興,24.820208,121.352281,2.59,16.85,-13.86,70.04,1.66,-2.87,C0C460
桃園,24.992425,121.323172,1.96,18.12,-4.59,74.39,1.43,-2.96,C0C480
八德,24.928708,121.283289,2.22,17.85,-9.48,73.57,1.45,-3.25,C0C490
觀音,25.027072,121.153317,1.96,17.17,-3.28,80.29,2.46,-2.17,C0C590
蘆竹,25.084275,121.265767,2.02,17.7,-2.19,80.86,2.05,-2.55,C0C620
大溪,24.882853,121.265547,2.01,17.1,-8.05,73.71,1.61,-2.45,C0C630
平鎮,24.897503,121.214636,2.1,16.98,-6.22,78.11,1.32,-2.88,C0C650
楊梅,24.912375,121.143047,1.91,17.1,-2.94,77.36,1.79,-2.11,C0C660
龍潭,24.870056,121.221389,1.98,16.48,-7.89,74.14,1.73,-2.11,C0C670
龜山,25.02846,121.38656,1.86,17.03,-6.64,76.96,2.04,-0.35,C0C680
中壢,24.977661,121.256375,1.79,17.5,-9.56,72.43,1.41,-1.75,C0C700
大溪永福,24.892936,121.324975,0.21,16.66,0.54,86.75,1.77,-0.18,C0C710
梅花,24.678347,121.208558,1.33,15.42,-8.92,78.71,0.98,-3.39,C0D360
峨眉,24.6905,121.017189,1.18,16.58,-4.41,82.89,1.66,-2.05,C0D430
打鐵坑,24.849664,121.150789,1.9,16.61,-6.77,81.61,1.66,-2.49,C0D480
橫山,24.71116,121.11693,1.77,16.91,-9.74,77.32,1.27,-2.74,C0D540
雪霸,24.526972,121.11605,0.01,9.65,-7.07,73.14,1.41,-3.1,C0D550
竹東,24.767147,121.057881,2.73,18.02,-7.14,72.11,1.62,-1.97,C0D560
寶山,24.735006,121.025192,1.59,16.74,-3.93,80.86,1.77,-2.32,C0D580
新豐,24.87068,120.97721,1.52,16.48,-4.0,81.39,2.09,-1.45,C0D590
湖口,24.904794,121.043628,1.88,17.25,-6.36,76.11,1.68,-0.97,C0D650
新竹市東區,24.798681,120.986942,2.11,17.75,-2.89,74.5,1.82,-0.42,C0D660
竹南,24.708978,120.888897,0.89,16.74,-1.01,81.25,1.77,-1.29,C0E420
南庄,24.601775,121.000214,1.14,16.25,-5.18,80.43,1.38,-3.15,C0E430
明德,24.583486,120.885411,0.77,16.31,-9.24,76.86,1.46,-1.3,C0E550
通霄,24.471892,120.704622,0.84,16.75,-6.24,79.25,1.96,0.45,C0E590
馬都安,24.451272,120.930192,1.63,15.64,-15.07,68.68,1.5,-1.87,C0E610
頭份,24.688247,120.912206,1.35,17.43,-3.47,76.04,2.0,-0.93,C0E730
造橋,24.637056,120.864778,0.74,16.5,-3.96,82.07,1.89,-0.87,C0E740
苗栗,24.564569,120.824575,1.44,17.36,-5.64,75.93,1.86,-0.68,C0E750
銅鑼,24.489681,120.790853,1.24,16.77,-4.65,80.07,1.52,-0.62,C0E780
西湖,24.562947,120.7485,0.72,16.09,1.33,87.21,2.09,0.38,C0E810
獅潭,24.539133,120.920042,1.16,16.07,-8.99,79.61,1.41,-1.42,C0E820
苑裡,24.439714,120.653053,0.12,16.53,0.37,81.5,1.77,0.78,C0E830
大河,24.618069,120.948578,1.18,16.49,-6.68,78.25,1.71,-0.75,C0E850
高鐵苗栗,24.60725,120.826094,0.36,16.8,-3.46,79.21,1.96,0.57,C0E870
雪山圈谷,24.388594,121.236339,0.65,1.51,-14.7,49.29,2.41,0.21,C0F0A0
石岡,24.276061,120.777644,0.8,17.09,-10.12,73.57,0.95,0.08,C0F0B0
中坑,24.248517,120.903319,0.25,15.41,-7.29,76.96,1.32,0.14,C0F0C0
審馬陣,24.381675,121.4203,0.63,4.18,-14.37,55.89,1.0,-1.38,C0F0D0
南湖圈谷,24.363714,121.444667,0.6,1.38,-10.1,55.93,1.25,-2.66,C0F0E0
東勢,24.246428,120.833047,1.11,17.35,-3.81,76.82,1.09,-0.26,C0F850
大坑,24.173142,120.722289,1.06,18.61,-8.31,67.79,0.89,-0.03,C0F970
神岡,24.272481,120.658314,1.29,17.27,-9.42,77.29,1.23,-0.12,C0F9I0
大安,24.345061,120.588025,0.57,16.81,-2.31,84.0,1.64,0.69,C0F9K0
后里,24.310436,120.729725,1.9,17.94,-10.78,73.96,1.0,-0.3,C0F9L0
豐原,24.254322,120.720692,1.38,17.84,-12.85,67.32,0.91,-0.3,C0F9M0
大里,24.092464,120.701378,1.41,19.99,-2.49,70.25,0.86,-0.17,C0F9N0
潭子,24.213106,120.703933,2.4,19.74,-7.03,71.21,0.91,0.01,C0F9O0
清水,24.312297,120.562242,0.73,17.23,4.78,87.96,1.57,0.72,C0F9P0
外埔,24.347817,120.705686,1.34,17.54,-9.72,75.21,1.18,-0.17,C0F9Q0
龍井,24.184536,120.528972,0.63,17.65,-7.23,77.25,1.3,0.45,C0F9R0
烏日,24.107058,120.624103,1.7,19.27,-5.03,70.07,0.95,0.16,C0F9S0
西屯,24.179494,120.641275,1.29,18.23,-0.42,77.96,0.93,0.2,C0F9T0
南屯,24.137006,120.637969,1.56,19.63,-2.98,71.04,0.88,0.12,C0F9U0
新社,24.200172,120.815806,2.19,17.87,-10.77,72.89,1.0,-0.34,C0F9V0
大雅(中科園區),24.21528,120.62445,1.33,17.82,-4.91,74.25,1.18,0.55,C0F9X0
桃山,24.432739,121.303808,0.75,3.99,-11.98,53.11,1.25,-0.52,C0F9Y0
雪山東峰,24.388792,121.268675,0.76,4.68,-11.79,53.39,1.96,0.07,C0F9Z0
芬園,24.015678,120.6213,1.66,18.78,-2.92,78.0,1.04,0.2,C0G620
員林,23.946503,120.585597,0.79,18.94,0.21,78.82,1.04,-0.25,C0G650
溪湖,23.94835,120.479122,1.49,18.84,-0.64,80.54,1.02,0.29,C0G660
溪州,23.851589,120.499093,0.84,18.08,3.41,81.21,1.14,0.6,C0G720
二林,23.903325,120.376081,0.53,17.26,-0.98,83.89,1.04,0.61,C0G730
大城,23.852487,120.320935,0.56,17.51,3.06,80.82,1.11,0.6,C0G740
福興,24.041289,120.437669,1.16,18.54,-2.45,77.07,1.18,0.49,C0G770
秀水,24.03405,120.503869,0.95,18.4,-3.96,77.43,1.09,0.42,C0G780
埔鹽,24.000394,120.431683,0.53,17.46,4.83,88.96,1.09,0.47,C0G800
埔心,23.947633,120.525456,0.71,18.28,-2.58,76.39,1.11,0.37,C0G810
田尾,23.901669,120.509389,0.95,18.31,-2.31,81.32,1.05,0.31,C0G820
埤頭,23.866003,120.452806,1.37,18.59,-5.67,82.32,1.11,0.56,C0G830
社頭,23.897647,120.5862,0.87,19.11,2.89,79.46,0.88,0.01,C0G860
二水,23.810742,120.6173,1.29,19.35,-2.55,79.43,0.93,0.27,C0G880
伸港,24.148933,120.484403,0.88,17.72,4.61,87.14,1.21,0.4,C0G890
線西,24.143358,120.443536,-0.64,17.52,2.96,86.39,1.36,1.12,C0G900
花壇,24.032076,120.549461,-0.04,18.32,0.5,77.21,0.95,0.79,C0G910
埔里,23.972169,120.952425,0.4,17.75,-7.52,71.71,0.84,-0.5,C0H890
草屯,23.973672,120.68085,1.53,19.39,-1.71,75.89,0.86,-0.05,C0H960
昆陽,24.121322,121.273642,1.09,4.26,-16.79,62.14,0.91,-1.4,C0H990
神木村,23.532742,120.843667,-0.16,12.02,-7.58,76.21,1.12,-1.34,C0H9A0
合歡山,24.143442,121.272547,2.66,3.87,-22.03,60.39,1.61,-4.21,C0H9C0
廬山,24.033311,121.181808,0.42,13.14,-11.34,65.71,0.77,-3.05,C0I010
信義,23.689694,120.851036,1.01,17.56,-6.47,74.21,0.8,-0.16,C0I080
竹山,23.761225,120.688156,1.64,19.14,-8.75,76.29,0.91,-0.22,C0I110
水里,23.812553,120.849792,1.22,18.59,-11.74,69.07,0.73,-0.61,C0I360
魚池,23.895703,120.94135,0.51,16.75,-9.86,74.18,0.96,-0.81,C0I370
集集,23.828206,120.801467,1.28,18.9,-9.53,70.89,0.89,-0.22,C0I380
仁愛,24.022122,121.132206,0.37,14.14,-6.66,73.64,0.96,-1.67,C0I390
名間,23.837053,120.701447,1.48,18.75,-8.25,71.32,0.84,0.06,C0I410
國姓,24.037803,120.855072,0.78,18.13,-8.01,73.04,0.95,-0.04,C0I420
南投,23.911469,120.687331,1.26,19.18,-4.84,71.39,0.89,0.23,C0I460
梅峰,24.085272,121.173572,0.38,8.35,-15.37,68.54,1.25,-1.97,C0I480
萬大林道,23.928228,121.091411,0.89,12.88,-9.4,72.71,0.84,-1.46,C0I490
小奇萊,24.131764,121.295717,0.83,3.8,-16.82,63.0,1.27,-3.79,C0I530
崙背,23.75555,120.318925,0.39,17.5,1.11,81.61,1.07,0.55,C0K250
四湖,23.630414,120.227125,0.42,17.98,3.97,81.96,1.07,0.25,C0K280
宜梧,23.536281,120.169329,0.47,17.76,3.17,83.18,0.96,0.33,C0K291
虎尾,23.719183,120.442036,0.72,18.51,-0.4,77.39,1.11,0.15,C0K330
土庫,23.679029,120.395574,0.87,18.17,-1.66,77.64,1.05,0.49,C0K390
斗六,23.720583,120.541127,0.95,18.47,-7.26,73.89,1.02,0.41,C0K400
北港,23.573957,120.292802,0.65,18.09,-2.13,78.61,0.98,0.46,C0K410
西螺,23.800407,120.467394,0.76,18.0,-1.29,78.43,1.14,0.49,C0K420
褒忠,23.690938,120.303634,0.54,17.64,0.82,81.32,1.14,0.51,C0K430
二崙,23.772797,120.408944,0.71,17.73,-1.43,79.89,1.05,0.56,C0K440
大埤,23.646074,120.431537,0.84,18.32,1.01,80.14,0.8,0.31,C0K450
斗南,23.678734,120.478359,0.8,18.16,-3.36,75.32,0.91,0.38,C0K460
林內,23.748675,120.609642,0.71,18.11,-4.88,76.0,0.88,0.14,C0K470
莿桐,23.761192,120.502372,0.91,18.08,-3.54,76.86,0.95,0.4,C0K480
元長,23.64981,120.315024,0.67,17.93,-0.39,77.82,1.04,0.49,C0K500
水林,23.572924,120.24597,0.57,17.98,2.41,80.64,0.95,0.5,C0K510
臺西,23.701547,120.197559,0.36,17.48,3.53,83.75,0.88,0.4,C0K530
蔦松,23.514319,120.229736,0.56,18.03,-0.09,79.57,0.95,0.41,C0K550
棋山,23.68645,120.603417,0.88,18.41,-7.11,74.11,1.09,0.32,C0K560
高鐵雲林,23.737456,120.417944,0.08,18.11,-5.46,82.93,1.12,0.44,C0K580
東後寮,23.369908,120.248065,0.56,18.06,-1.39,78.46,0.7,0.34,C0M520
奮起湖,23.493903,120.699253,-0.42,12.97,-4.55,81.11,0.8,-1.01,C0M530
中埔,23.42538,120.5229,1.15,18.78,-7.79,71.61,0.86,0.34,C0M640
朴子,23.43463,120.23902,0.48,18.08,4.11,82.04,0.8,0.33,C0M650
溪口,23.604131,120.403569,0.6,17.98,-5.67,74.88,0.88,0.38,C0M660
大林,23.600616,120.45841,0.86,18.5,-0.16,76.93,1.05,0.52,C0M670
太保,23.455062,120.331455,0.63,18.48,-0.29,78.96,0.89,0.43,C0M680
水上,23.419734,120.388909,0.76,18.49,0.05,78.29,0.8,0.47,C0M690
竹崎,23.526178,120.555508,0.9,18.41,-4.87,76.04,0.91,0.42,C0M700
東石,23.458927,120.15385,0.37,17.84,1.42,81.5,0.93,0.48,C0M710
番路,23.464657,120.554156,1.28,18.42,-6.17,74.21,0.91,0.38,C0M720
嘉義市東區,23.457673,120.460531,1.26,19.88,-2.21,71.75,0.93,0.62,C0M730
六腳,23.492871,120.290625,0.46,18.06,0.75,78.89,0.88,0.27,C0M740
布袋,23.380878,120.167789,0.54,18.07,-0.35,80.25,0.77,0.39,C0M750
民雄,23.551754,120.428457,0.9,18.71,-0.58,78.07,0.98,0.45,C0M760
嘉義梅山,23.585398,120.555587,1.0,18.36,-7.16,73.39,0.96,0.45,C0M770
鹿草,23.41134,120.30835,0.72,18.56,0.24,76.82,0.71,0.29,C0M780
新港,23.553269,120.345728,0.73,18.39,-1.16,76.29,0.89,0.39,C0M790
茶山,23.299075,120.664767,0.59,18.58,-8.71,71.0,0.62,-0.13,C0M800
里佳,23.389125,120.716647,0.16,13.44,-0.49,82.36,0.77,-0.59,C0M810
達邦,23.453994,120.749517,-0.05,15.19,-11.33,66.42,0.0,-1.2,C0M820
表湖,23.24186,120.64166,-0.24,17.28,-5.21,75.14,0.73,0.06,C0M850
北寮,23.079561,120.495008,0.88,19.35,-1.98,79.36,0.71,0.18,C0O830
王爺宮,23.222064,120.40085,0.99,18.7,-7.02,76.0,0.68,0.16,C0O840
大內,23.11885,120.36083,0.64,19.35,3.77,84.82,0.64,0.31,C0O860
善化,23.112883,120.297219,0.56,19.14,5.01,87.61,0.55,0.05,C0O900
崎頂,22.959547,120.369317,1.06,19.22,-5.45,75.43,0.54,-0.04,C0O960
虎頭埤,23.021375,120.347878,0.77,19.09,-3.22,78.93,0.64,0.25,C0O970
新市,23.061614,120.298197,0.63,19.3,-2.24,77.79,0.64,0.25,C0O980
媽廟,22.99175,120.293525,0.66,19.42,4.16,83.25,0.61,0.17,C0O990
尾寮山,22.833111,120.683889,-0.44,15.14,-20.08,67.0,0.62,-0.26,C0R100
阿禮,22.742908,120.743678,0.76,16.36,-17.9,60.68,0.86,0.22,C0R130
瑪家,22.682903,120.686639,0.49,17.15,-1.61,81.36,1.18,0.55,C0R140
三地門,22.709889,120.639944,0.43,21.16,-6.19,66.71,1.04,0.46,C0R150
鹽埔,22.739558,120.530778,0.31,20.14,-3.69,78.21,0.34,-0.07,C0R160
屏東,22.660269,120.494072,0.47,20.77,-6.67,71.14,0.55,0.22,C0R170
赤山,22.592333,120.614306,0.21,20.26,-1.01,78.0,1.68,1.3,C0R190
潮州,22.534361,120.54,0.47,21.09,-5.94,72.32,1.07,0.71,C0R220
來義,22.527306,120.625111,0.07,19.96,-2.54,76.71,1.27,0.91,C0R240
春日,22.370361,120.628306,-0.13,20.48,-0.84,75.11,0.84,0.4,C0R260
琉球嶼,22.332244,120.362236,-0.51,20.72,9.78,87.46,1.29,0.87,C0R270
車城,22.0744,120.716247,-0.4,21.18,0.57,74.29,0.54,0.47,C0R320
牡丹,22.130036,120.792639,0.12,19.03,-0.89,85.46,0.84,-0.24,C0R341
貓鼻頭,21.921774,120.7358,-0.19,21.48,0.89,77.93,1.0,0.39,C0R350
大漢山,22.405264,120.753181,0.44,10.26,-5.25,92.0,2.57,0.18,C0R440
高樹,22.826389,120.600806,1.32,21.48,-15.62,61.06,0.53,0.1,C0R470
長治,22.693128,120.542622,0.36,20.66,-8.85,69.64,0.62,0.31,C0R480
九如,22.7405,120.490503,1.24,21.42,-12.8,69.06,0.53,0.18,C0R490
崁頂,22.514781,120.506914,1.65,21.98,-1.15,79.81,1.78,1.37,C0R520
佳冬,22.419456,120.552375,0.58,20.95,3.98,82.54,1.05,0.78,C0R540
新埤,22.467947,120.582894,0.41,20.78,-0.45,78.61,1.07,0.79,C0R550
新園,22.5434,120.461558,0.69,20.97,-1.38,75.76,3.12,2.68,C0R560
麟洛,22.65078,120.52719,0.43,20.95,-1.71,73.89,0.57,0.28,C0R570
南州,22.48591,120.50274,0.27,20.56,1.24,79.46,0.84,0.54,C0R580
里港,22.77919,120.49459,1.04,21.04,-1.56,75.5,0.47,0.11,C0R590
舊泰武,22.588194,120.664944,0.93,17.74,-5.73,79.96,1.25,0.51,C0R600
墾雷,21.900836,120.855269,0.02,21.53,2.14,80.04,2.29,0.44,C0R620
東港,22.46247,120.44074,-1.36,20.8,2.62,80.46,0.66,0.47,C0R640
竹田,22.58486,120.54344,-0.83,21.16,-0.35,80.12,4.06,3.79,C0R650
枋寮,22.367722,120.590647,-0.31,20.45,1.61,78.14,0.89,0.7,C0R660
楓港,22.190131,120.692156,-0.44,21.51,1.89,68.89,0.55,0.43,C0R670
佳樂水,21.993578,120.861633,-0.24,21.66,-1.18,76.61,1.95,-3.45,C0R680
墾丁,21.966756,120.810269,-0.08,19.35,-1.25,84.46,1.93,-1.2,C0R690
枋山,22.246844,120.661086,-0.62,21.06,3.18,70.68,0.61,0.57,C0R700
旭海,22.205403,120.887614,-0.06,19.58,-0.04,82.89,1.98,-4.34,C0R720
下馬,23.150427,121.070312,0.56,15.04,-2.14,84.07,0.73,0.3,C0S660
太麻里,22.60902,120.98533,0.62,17.4,-0.29,84.32,3.39,1.58,C0S690
知本,22.684866,121.005642,-0.67,15.96,-0.98,86.54,2.59,0.6,C0S700
鹿野,22.917711,121.122994,0.85,17.55,-1.39,82.82,2.39,1.09,C0S710
綠島,22.6672,121.47533,0.12,19.93,1.57,83.82,2.84,-3.29,C0S730
池上,23.119628,121.209469,0.56,17.84,-0.54,84.25,2.11,1.23,C0S740
向陽,23.248397,120.986133,0.3,7.78,-7.36,82.29,2.02,-1.33,C0S750
紅石,23.069131,121.126219,0.36,10.46,-2.54,94.11,2.12,0.27,C0S760
大溪山,22.478475,120.943325,0.01,17.56,-1.14,85.21,3.07,0.68,C0S770
金崙,22.538122,120.966875,-0.5,18.91,-0.5,80.75,3.0,1.19,C0S790
東河,22.972672,121.303986,-0.78,19.86,-0.86,78.82,2.11,0.11,C0S810
長濱,23.286817,121.411975,0.44,18.87,-0.25,80.89,2.96,1.03,C0S830
南田,22.279725,120.889208,-0.54,20.7,-0.86,80.21,1.59,-0.88,C0S840
關山,23.0395,121.175017,0.85,18.46,-0.96,82.5,2.16,1.52,C0S890
蘭嶼高中,22.04909,121.51214,-0.38,22.28,-0.93,74.61,3.12,-9.24,C0S900
蘭嶼燈塔,22.081197,121.503117,-0.71,20.49,-7.1,81.96,2.05,-3.18,C0S910
金峰嘉蘭,22.594789,120.960825,-0.41,19.15,1.14,81.07,3.32,2.25,C0S920
延平,22.902581,121.084058,0.46,18.6,-2.64,77.29,2.38,1.96,C0S930
石寧山,23.223772,121.406639,0.37,19.44,-0.18,81.39,2.54,1.61,C0S940
七塊厝,22.954453,121.229922,0.16,17.33,0.39,86.89,2.48,2.27,C0S950
香蘭,22.587569,120.993375,0.07,20.68,0.89,73.54,2.39,-0.23,C0S960
加津林,22.416211,120.926942,0.09,20.76,-0.21,74.25,1.75,-1.2,C0S970
勝林山,22.430439,120.8938,-0.7,13.87,-0.71,95.04,4.07,-0.09,C0S980
山豬窟,22.318619,120.857372,-0.02,18.04,0.21,84.46,1.77,-0.8,C0S990
歷坵,22.520969,120.89185,0.01,16.82,-5.71,83.71,2.93,1.62,C0SA00
檳榔四格山,22.810031,121.109308,0.24,17.86,-0.82,83.11,2.18,1.93,C0SA10
金崙山,22.567419,120.959667,-0.06,14.25,0.61,94.75,3.98,2.0,C0SA20
都歷,23.020333,121.323642,0.01,19.72,0.14,75.64,2.48,1.46,C0SA30
瑞和,22.974361,121.156697,0.28,18.39,-0.96,81.36,2.11,1.91,C0SA40
土坂,22.453108,120.887572,0.13,18.98,-2.11,81.79,2.5,0.67,C0SA80
大禹嶺,24.186117,121.316086,1.25,6.85,-5.66,68.14,1.16,-3.04,C0T790
天祥,24.179597,121.495639,0.52,15.57,-2.96,79.36,1.16,-1.35,C0T820
鯉魚潭,23.935639,121.508944,-0.17,16.65,-4.1,85.71,1.93,-1.22,C0T870
西林,23.8119,121.441458,0.76,17.92,-6.97,76.68,1.95,-0.42,C0T900
光復,23.660694,121.424964,0.3,17.81,3.18,92.43,2.8,0.19,C0T960
月眉山,23.809928,121.539828,0.21,15.62,-1.98,91.07,3.09,-0.22,C0T9A0
水源,23.991861,121.537169,1.1,16.16,-7.69,82.96,3.2,-1.51,C0T9B0
和中,24.26676,121.74103,-0.11,18.62,0.44,84.36,2.59,-1.01,C0T9D0
大坑,23.880628,121.581981,0.46,16.4,-6.59,83.96,2.68,-1.02,C0T9E0
水璉,23.797131,121.542514,0.07,17.93,3.83,88.18,2.84,-0.1,C0T9F0
鳳林山,23.735269,121.420131,-0.54,15.48,-10.08,84.71,4.04,0.53,C0T9G0
加路蘭山,23.682947,121.5274,0.82,15.25,-4.25,90.89,7.7,1.18,C0T9H0
豐濱,23.583897,121.514806,0.34,17.91,-5.1,82.36,6.18,0.71,C0T9I0
靜浦,23.455167,121.495028,0.73,19.06,-0.18,84.75,5.98,1.29,C0T9M0
富里,23.171639,121.249378,0.17,17.79,0.04,85.18,1.96,1.8,C0T9N0
雙連埤,24.753033,121.641303,1.56,15.12,-10.74,86.43,4.12,-1.73,C0U520
玉蘭,24.675286,121.587061,1.35,15.99,-3.14,84.43,5.09,-1.24,C0U650
太平山,24.505486,121.525656,0.24,7.83,-3.9,86.43,3.68,-0.63,C0U710
南山,24.43742,121.38167,-0.57,11.47,-9.91,86.07,2.96,1.67,C0U720
龜山島,24.841667,121.953133,0.6,16.51,-10.07,84.96,1.64,-2.25,C0U750
東澳,24.52196,121.83318,-0.47,17.62,-2.41,84.36,9.32,2.2,C0U760
南澳,24.44935,121.81022,-0.29,18.39,1.87,78.54,1.73,-1.01,C0U770
五結,24.68637,121.79794,1.77,18.91,-5.52,76.81,5.22,-0.17,C0U780
頭城,24.85323,121.8308,1.31,18.96,-5.7,76.36,2.3,-0.16,C0U860
大礁溪,24.791042,121.675047,1.11,15.84,-6.58,81.43,3.52,-0.21,C0U870
三星,24.66812,121.65302,0.88,17.71,-10.61,77.39,5.05,2.55,C0U890
冬山,24.63373,121.7937,1.35,18.69,-2.31,79.43,7.07,3.48,C0U910
羅東,24.68184,121.74934,1.58,18.66,-6.86,78.25,4.61,2.06,C0U940
鶯子嶺,24.89754,121.79244,1.07,11.92,-2.29,95.0,9.95,3.02,C0U950
翠峰湖,24.510856,121.608044,0.48,7.41,-3.94,91.96,4.23,1.86,C0U960
坪林石牌,24.86478,121.77396,1.22,14.66,-4.29,91.86,5.11,1.49,C0U980
員山,24.74435,121.72247,1.21,18.71,-3.5,77.64,2.57,0.2,C0U990
土場,24.576533,121.495333,0.78,16.05,-2.61,85.68,2.61,1.16,C0UA00
鴛鴦湖,24.590269,121.412228,0.54,8.62,-2.6,92.89,5.45,1.69,C0UA10
多加屯,24.368614,121.373189,0.33,5.74,-9.24,68.79,1.14,-0.79,C0UA20
白嶺,24.527819,121.519031,0.82,10.68,2.32,98.19,4.09,-0.01,C0UA30
西德山,24.560647,121.752608,-0.21,11.9,-4.0,92.54,11.11,6.27,C0UA40
西帽山,24.555361,121.802628,0.26,13.68,-2.63,93.39,18.96,8.79,C0UA50
樟樹山,24.41393,121.78325,-0.04,15.23,-1.58,87.11,3.73,0.13,C0UA60
桃源谷,24.962606,121.888875,1.37,15.03,-9.46,87.11,8.7,-1.22,C0UA70
復興,23.222403,120.806089,0.08,17.4,-8.58,65.46,0.59,-0.41,C0V210
阿公店,22.804194,120.355528,0.67,19.51,-5.24,75.75,0.43,0.11,C0V400
鳳山,22.646653,120.356122,1.16,21.11,-0.17,73.29,0.61,0.25,C0V440
鳳森,22.545064,120.392592,0.41,20.49,-4.58,69.7,1.34,0.87,C0V450
新興,22.627422,120.298803,0.98,21.11,-3.25,68.93,0.59,0.22,C0V490
阿蓮,22.883208,120.327508,0.41,19.36,-5.35,76.6,0.64,0.36,C0V530
梓官,22.760558,120.267211,-0.58,18.78,2.61,78.79,0.38,0.08,C0V610
永安,22.82315,120.236856,0.6,19.64,-1.06,77.11,0.52,0.28,C0V620
茄萣,22.906642,120.182608,0.48,19.22,5.69,79.39,0.54,-0.05,C0V630
湖內,22.887139,120.2445,0.8,19.75,0.08,77.79,0.66,0.13,C0V640
岡山,22.797078,120.294958,0.43,20.11,-0.79,73.57,0.43,0.12,C0V660
仁武,22.701083,120.347722,0.39,20.39,1.05,75.57,0.61,0.31,C0V680
鼓山,22.623325,120.275575,0.55,20.53,2.67,77.93,0.55,0.14,C0V690
三民,22.645017,120.311233,0.43,20.9,3.83,73.6,0.55,0.17,C0V700
苓雅,22.622742,120.330669,0.79,21.01,3.1,71.82,0.52,0.17,C0V710
林園,22.507747,120.394511,0.88,22.11,0.59,70.06,1.72,1.23,C0V720
旗山,22.888614,120.483597,0.57,20.06,-6.84,68.43,0.59,0.27,C0V740
橋頭,22.757806,120.30575,0.48,20.36,-1.53,74.21,0.5,0.15,C0V760
大社,22.730306,120.346639,0.35,20.12,-2.68,71.04,0.57,0.26,C0V770
萬山,22.905944,120.688056,0.21,18.97,-16.19,59.96,0.41,-0.28,C0V790
六龜,22.997889,120.633583,0.73,20.25,-3.25,72.36,0.57,-0.27,C0V800
東莒,25.9652,119.98069,2.81,13.55,3.6,83.75,1.84,0.36,C0W110
花嶼,23.40007,119.32276,-0.16,17.71,0.19,80.68,1.29,1.15,C0W130
金沙,24.488292,118.408778,2.47,16.35,0.71,73.5,1.38,-0.24,C0W140
金寧,24.457703,118.328989,2.78,17.28,-1.68,72.11,1.25,-0.34,C0W150
烏坵,24.9944,119.44956,2.1,14.05,2.89,86.21,0.48,-0.23,C0W160
東河,23.296598,120.385608,0.88,18.98,-0.33,80.0,0.68,0.34,C0X050
下營,23.22695,120.256261,0.51,18.34,-0.31,79.11,0.66,0.24,C0X060
佳里,23.173039,120.145086,0.01,18.29,2.56,81.14,0.61,0.11,C0X080
臺南市南區,22.961189,120.188378,0.58,19.88,-6.78,68.43,0.64,0.0,C0X110
麻豆,23.183289,120.248611,0.59,19.08,-1.1,80.25,0.62,0.19,C0X120
官田,23.193217,120.315422,0.46,19.1,2.7,82.43,0.64,0.21,C0X130
西港,23.125608,120.203108,0.85,19.32,-2.59,76.93,0.66,0.19,C0X140
安定,23.102614,120.227839,1.07,19.29,-1.6,80.75,0.45,0.0,C0X150
仁德,22.968258,120.257689,0.79,19.88,6.29,82.11,0.64,0.13,C0X160
關廟,22.963017,120.327797,0.7,19.66,4.5,80.89,0.39,-0.14,C0X170
山上,23.0757,120.363253,0.55,19.01,0.85,82.43,0.62,0.23,C0X180
安平,22.993161,120.152181,0.39,19.13,2.69,81.93,0.39,0.03,C0X190
左鎮,23.056758,120.408522,0.3,18.28,-1.37,80.96,0.61,0.21,C0X200
白河,23.347466,120.414427,0.75,18.76,-2.11,77.43,0.75,0.41,C0X210
學甲,23.230367,120.182187,0.31,17.97,0.47,78.71,0.57,0.25,C0X220
鹽水,23.272621,120.247641,0.43,18.0,-1.14,79.46,0.71,0.4,C0X230
關子嶺,23.331169,120.508025,0.7,17.1,-4.09,80.5,1.07,0.49,C0X240
新營,23.310689,120.316681,0.8,18.94,-3.74,73.43,0.7,0.35,C0X250
後壁,23.366358,120.362326,0.73,18.52,-3.32,76.0,0.75,0.46,C0X260
將軍,23.214999,120.13577,0.42,18.11,0.41,80.39,0.43,0.13,C0X280
北門,23.267772,120.125481,0.48,18.21,2.87,82.57,0.71,0.36,C0X290
鹿寮,23.386047,120.477331,0.6,18.27,-2.06,80.75,0.91,0.46,C0X300
柳營,23.253328,120.375253,-0.13,18.8,-0.29,76.61,0.62,0.54,C0X320
明里,23.208717,121.262342,0.56,17.78,-8.2,81.21,2.25,1.25,C0Z020
佳心,23.34567,121.21316,0.42,14.25,-5.07,83.89,1.7,0.21,C0Z050
玉里,23.3215,121.339656,0.36,18.12,-5.2,81.93,2.62,1.18,C0Z061
舞鶴,23.46811,121.37407,0.66,17.35,2.88,93.64,2.21,0.69,C0Z070
富源,23.587642,121.378225,0.83,17.3,1.81,92.71,2.96,0.91,C0Z080
東華,23.89525,121.549833,0.71,18.38,-6.41,82.04,1.3,0.01,C0Z100
吉安光華,23.930925,121.595153,0.4,18.84,7.88,91.61,1.62,0.26,C0Z150
鳳林,23.746114,121.453411,0.36,18.2,-1.43,83.75,1.77,0.56,C0Z160
卓溪,23.3443,121.3029,-0.37,17.91,2.49,85.07,2.54,1.99,C0Z170
新城,24.03946,121.60454,0.4,19.15,4.06,83.18,2.05,-0.32,C0Z180
富世,24.14743,121.6297,0.46,19.22,1.43,83.04,1.79,-0.55,C0Z190
萬榮,23.709219,121.420106,0.35,17.85,-11.91,78.68,2.32,1.23,C0Z200
瑞穗,23.5239,121.39021,0.03,17.62,1.54,88.68,3.36,2.4,C0Z210
和平林道,24.343922,121.656317,0.41,15.23,4.11,93.04,1.45,0.08,C0Z220
和平,24.30717,121.77007,1.13,19.76,-4.53,70.29,1.5,-0.96,C0Z230
瑞穗林道,23.49284,121.30688,-0.66,11.87,-0.26,95.93,4.36,1.56,C0Z250
蕃薯寮,23.73835,121.540108,0.6,17.02,-1.83,85.39,5.75,2.53,C0Z270
德武,23.47426,121.41071,0.0,17.67,0.18,90.39,2.86,1.83,C0Z280
赤柯山,23.36893,121.38293,0.07,13.49,-2.31,92.61,4.84,2.94,C0Z290
東里,23.26853,121.30547,0.14,18.08,-6.42,82.96,2.52,1.66,C0Z300
清水斷崖,24.218294,121.689142,0.6,19.36,-10.38,71.61,1.98,0.62,C0Z310
清水林道,23.27125,121.188272,-0.61,15.07,-3.85,84.86,3.16,1.66,C0Z320
安通山,23.290728,121.348528,-0.61,16.55,0.26,88.43,3.02,1.66,C0Z330
口湖工作站,23.589978,120.180394,-1.31,17.58,-0.54,75.07,0.64,0.4,12J990
東港工作站,22.479997,120.466058,-1.18,20.95,-2.57,63.71,0.64,0.56,12Q970
恆春工作站,22.079678,120.714425,-1.16,21.46,-3.32,64.29,0.38,0.14,12Q980
萬大發電廠,23.978875,121.139639,-1.0,14.89,3.52,81.18,0.73,-1.04,42HA10
桃改樹林分場,24.944503,121.386972,0.67,17.96,-1.93,74.07,1.5,-0.23,72AI40
桃園農改場,24.950944,121.030583,1.49,16.99,-6.26,79.04,2.25,-1.1,72C440
桃改五峰分場,24.612194,121.157167,1.56,13.65,-6.29,81.93,1.07,-3.56,72D080
臺中農改場,24.003028,120.534389,0.44,17.81,-3.05,77.43,1.12,-0.11,72G600
中改埔里分場,23.903208,120.963364,-1.14,15.91,1.29,82.36,0.0,-2.19,72HA00
南改斗南分場,23.634556,120.477333,0.53,18.24,-0.42,81.18,0.96,-0.02,72K220
南改義竹分場,23.360694,120.279361,0.39,18.19,-3.32,78.25,0.64,0.07,72M360
南改鹿草分場,23.416869,120.283061,-1.38,17.88,-1.12,79.46,0.55,0.34,72M700
臺南農改場,23.0605,120.342194,-0.11,18.68,-0.58,79.79,0.27,-0.15,72N100
七股研究中心,23.081672,120.062894,-1.29,18.55,-0.57,80.5,0.54,0.45,72N240
高雄農改場,22.709333,120.525889,-0.2,20.44,-5.7,72.43,0.68,0.34,72Q010
東改班鳩分場,22.829528,121.077694,0.52,18.53,2.07,82.36,2.34,0.98,72S200
東改賓朗果園,22.813889,121.071278,-0.51,17.86,1.13,89.14,2.43,1.08,72S590
花蓮農改場,23.975222,121.563889,0.41,18.52,-1.24,81.25,1.2,-1.13,72T250
花改蘭陽分場,24.686306,121.716583,1.45,18.49,0.81,84.21,4.68,0.33,72U480
高改旗南分場,22.857861,120.516667,-0.53,19.75,1.34,74.75,0.39,0.03,72V140
茶改北部分場,24.955778,121.631222,1.93,15.92,-0.82,86.32,3.61,-3.76,82A750
茶改場,24.908472,121.185333,2.04,17.05,-10.06,75.79,1.29,-3.71,82C160
茶改中部分場,23.875611,120.913583,0.15,16.27,-9.52,73.71,0.91,-0.67,82H320
茶改南部分場,23.762528,120.7405,0.67,17.13,-12.35,76.32,0.98,-0.15,82H840
茶改東部分場,22.907694,121.130139,0.14,18.69,-2.39,79.54,3.0,2.07,82S580
農工中心,24.985917,121.239833,1.62,17.38,-6.56,74.5,1.34,-3.01,A2C560
水試臺西試驗場,23.717231,120.190522,-0.07,17.74,-0.24,82.82,0.45,0.21,A2K360
臺大雲林校區,23.730628,120.423903,-0.14,17.52,0.57,79.5,1.0,0.75,A2K630
臺南蘭花園區,23.340258,120.379661,-0.17,18.29,-0.32,77.5,0.0,-0.21,A2N290
畜試北區分所,24.527806,120.770972,0.3,16.1,-4.4,80.82,1.88,0.59,B2E890
畜產試驗所,23.058972,120.336406,0.47,18.9,-3.81,76.64,0.59,0.08,B2N890
畜試南區分所,21.945583,120.802167,-0.45,21.34,-2.86,71.93,1.64,0.33,B2Q810
畜試東區分所,24.669039,121.832561,0.79,18.06,-0.54,80.54,4.64,0.8,B2U990
蓮華池,23.918333,120.885278,-0.29,15.95,-4.23,81.11,0.82,-1.08,E2H360
林試畢祿溪站,24.226944,121.308522,0.08,7.54,-6.34,69.07,0.98,-0.8,E2HA20
四湖植物園,23.676986,120.163433,-1.41,17.58,7.55,90.07,0.91,0.39,E2K600
林試六龜中心,22.991703,120.645722,0.15,18.89,-3.57,72.54,0.54,-0.55,E2P980
林試扇平站,22.9677,120.6857,0.28,16.97,-3.61,76.71,0.62,-0.57,E2P990
林試太麻里2,22.598,120.99775,0.21,20.32,-1.18,74.68,2.41,0.5,E2S960
林試太麻里1,22.598922,120.980044,0.06,19.44,-0.11,76.79,3.0,1.68,E2S980
農試所(霧峰),24.031261,120.688133,0.59,18.62,-5.99,74.04,0.88,-0.64,G2F820
農試嘉義分所,23.485028,120.473806,0.35,18.02,-5.3,76.36,0.66,-0.22,G2L020
農試溪口農場,23.58565,120.408111,0.27,18.25,1.08,83.46,0.91,0.73,G2M350
農試鳳山分所,22.646611,120.356083,-0.38,20.2,-1.1,71.68,0.52,0.02,G2P820
苗栗農改場,24.495722,120.829111,0.74,16.47,-2.2,82.07,1.52,-1.24,K2E360
苗改生物防治研究中心,24.422861,120.871833,-0.35,15.83,-1.53,83.57,1.3,0.4,K2E710
種苗改良場,24.225972,120.800917,0.42,16.04,-3.97,75.93,1.02,-1.34,K2F750
溪頭,23.670306,120.798194,-0.66,12.61,-1.29,86.0,0.95,-1.04,U2H480
臺大和社,23.590856,120.888864,-1.15,15.59,-2.11,72.93,0.89,0.7,U2HA30
臺大內茅埔,23.689722,120.851117,-0.73,17.43,-1.28,74.14,0.8,0.3,U2HA40
臺大竹山,23.756972,120.681556,0.53,18.4,-10.54,72.46,0.96,-0.09,U2HA50
板橋,24.997647,121.442017,1.87,18.81,-4.18,73.25,1.35,-4.01,466880
蘇澳,24.596736,121.857372,1.32,18.74,-0.04,81.68,13.12,1.99,467060
梧棲,24.256003,120.523381,0.64,17.12,-2.9,78.32,1.59,-0.2,467770
四堵,24.8926,121.745736,1.27,15.47,-3.74,89.11,6.71,1.16,C0A540
福山,24.776203,121.502811,-0.21,13.86,-1.05,90.75,2.54,-1.97,C0A560
火燒寮,25.002719,121.742892,0.94,15.0,3.47,96.5,5.66,-1.97,C0A650
瑞芳,25.113169,121.801147,1.29,16.96,-7.24,81.64,5.12,-10.93,C0A660
福隆,25.017842,121.942083,1.38,17.96,-6.82,81.14,4.27,-6.84,C0A880
富貴角,25.263783,121.565258,1.99,16.99,-7.9,80.29,6.04,-9.18,C0A920
士林,25.090253,121.503019,1.74,18.88,-7.62,70.07,1.59,-2.09,C0A9E0
三芝,25.258131,121.501917,1.75,17.51,-6.87,78.21,4.7,-5.54,C0AD00
中和,24.992647,121.490444,3.4,20.38,-4.0,75.36,2.02,-2.71,C0AG90
大園,25.04775,121.225958,1.88,17.58,-3.8,78.93,1.93,-2.47,C0C540
關西,24.7982,121.1739,1.89,17.38,-7.6,76.5,2.05,-2.04,C0D390
香山,24.746892,120.905456,1.06,16.71,-5.25,81.21,2.07,-0.98,C0D570
大湖,24.41494,120.87087,1.16,16.08,-4.62,82.86,1.36,-0.92,C0E520
後龍,24.606489,120.783933,0.91,16.56,-4.77,81.36,1.86,0.03,C0E540
卓蘭,24.312764,120.824753,2.08,18.14,-4.53,80.36,1.2,-0.35,C0E790
三義,24.40548,120.74982,-0.33,15.9,-6.11,79.86,1.52,1.07,C0E880
大肚,24.15295,120.572117,1.13,16.85,2.02,87.68,1.18,0.31,C0F000
梨山,24.247522,121.243669,0.6,9.19,-9.12,71.46,1.05,-3.8,C0F861
大甲,24.347667,120.640403,1.67,17.8,-4.06,81.32,1.62,0.33,C0F930
中竹林,24.103556,120.751061,1.74,18.19,-10.49,72.11,0.96,-0.21,C0F9A0
鹿港,24.0753,120.430481,0.28,17.26,1.22,84.36,1.3,0.27,C0G640
竹塘,23.846617,120.382486,0.58,17.64,-0.06,79.07,0.79,0.29,C0G750
高鐵彰化,23.875247,120.574608,0.06,18.34,-6.61,75.07,0.91,0.36,C0G760
北斗,23.877586,120.514222,0.14,17.49,-3.68,80.89,1.16,0.44,C0G840
芳苑,23.922303,120.320025,0.6,17.74,-2.68,82.39,1.12,0.6,C0G870
中寮,23.884447,120.766406,0.74,17.71,-6.23,78.04,0.91,-0.12,C0H950
鳳凰,23.728081,120.787347,0.58,15.47,-5.78,80.86,1.02,-0.48,C0I090
草嶺,23.59555,120.693461,0.66,15.28,-7.87,78.29,0.82,-0.6,C0K240
古坑,23.654301,120.559754,0.9,18.4,-3.89,75.68,1.07,0.47,C0K490
雲林東勢,23.674449,120.154778,0.44,17.76,1.01,79.5,1.12,0.55,C0K520
馬頭山,23.324361,120.582017,0.64,19.59,-10.37,69.89,0.59,-0.27,C0M410
曾文,23.219681,120.497328,0.68,19.71,-4.66,77.5,0.54,-0.2,C0O810
玉井,23.126042,120.46055,1.13,19.68,-7.27,74.43,0.55,0.01,C0O930
安南,23.076694,120.144861,-0.19,18.3,2.94,85.25,0.59,0.0,C0O950
萬丹,22.587775,120.490394,0.43,21.19,-6.26,67.79,1.27,0.81,C0R510
林邊,22.430836,120.509983,0.19,20.46,-5.71,72.0,1.66,1.48,C0R530
旗津,22.5886,120.285944,0.36,20.8,-4.43,69.36,0.64,0.15,C0V500
楠梓,22.71975,120.286,1.01,20.36,2.32,76.71,0.62,0.25,C0V670
東引,26.358836,120.483631,2.26,13.05,1.49,82.68,2.86,0.83,C0W170
七股,23.147289,120.086253,0.35,18.31,3.38,82.25,0.5,0.21,C0X310
臺大竹山,23.756972,120.681556,0.53,18.4,-10.54,72.46,0.96,-0.09,U2HA50
臺大內茅埔,23.689722,120.851117,-0.73,17.43,-1.28,74.14,0.8,0.3,U2HA40
臺大和社,23.590856,120.888864,-1.15,15.59,-2.11,72.93,0.89,0.7,U2HA30
臺大溪頭,23.670306,120.798194,-0.66,12.61,-1.29,86.0,0.95,-1.04,U2H480
種苗繁殖,24.225972,120.800917,0.42,16.04,-3.97,75.93,1.02,-1.34,K2F750
苗改生物防治研究中心,24.422861,120.871833,-0.35,15.83,-1.53,83.57,1.3,0.4,K2E710
苗栗農改,24.495722,120.829111,0.74,16.47,-2.2,82.07,1.52,-1.24,K2E360
農試鳳山分所,22.646611,120.356083,-0.38,20.2,-1.1,71.68,0.52,0.02,G2P820
農試溪口農場,23.58565,120.408111,0.27,18.25,1.08,83.46,0.91,0.73,G2M350
農試嘉義分所,23.485028,120.473806,0.35,18.02,-5.3,76.36,0.66,-0.22,G2L020
農業試驗所,24.031261,120.688133,0.59,18.62,-5.99,74.04,0.88,-0.64,G2F820
林試太麻里1,22.598922,120.980044,0.06,19.44,-0.11,76.79,3.0,1.68,E2S980
林試太麻里2,22.598014,120.989761,0.21,20.32,-1.18,74.68,2.41,0.5,E2S960
林試扇平站,22.9677,120.6857,0.28,16.97,-3.61,76.71,0.62,-0.57,E2P990
林試六龜中心,22.991703,120.645722,0.15,18.89,-3.57,72.54,0.54,-0.55,E2P980
四湖植物園,23.676986,120.163433,-1.41,17.58,7.55,90.07,0.91,0.39,E2K600
林試畢祿溪站,24.226944,121.308522,0.08,7.54,-6.34,69.07,0.98,-0.8,E2HA20
蓮華池,23.918333,120.885278,-0.29,15.95,-4.23,81.11,0.82,-1.08,E2H360
畜試東區分所,24.669039,121.832561,0.79,18.06,-0.54,80.54,4.64,0.8,B2U990
畜試南區分所,21.945583,120.802167,-0.45,21.34,-2.86,71.93,1.64,0.33,B2Q810
畜試所,23.058972,120.336406,0.47,18.9,-3.81,76.64,0.59,0.08,B2N890
畜試北區分所,24.527806,120.770972,0.3,16.1,-4.4,80.82,1.88,0.59,B2E890
臺南蘭花園區,23.340258,120.379661,-0.17,18.29,-0.32,77.5,0.0,-0.21,A2N290
臺大雲林校區,23.730628,120.423903,-0.14,17.52,0.57,79.5,1.0,0.75,A2K630
古坑花卉中心,23.63353,120.55239,-0.42,17.54,-7.36,78.59,1.11,0.67,A2K570
水試臺西試驗場,23.717231,120.190522,-0.07,17.74,-0.24,82.82,0.45,0.21,A2K360
農工中心,24.985917,121.239833,1.62,17.38,-6.56,74.5,1.34,-3.01,A2C560
茶改東部分場,22.907694,121.130139,0.14,18.69,-2.39,79.54,3.0,2.07,82S580
茶改南部分場,23.762528,120.7405,0.67,17.13,-12.35,76.32,0.98,-0.15,82H840
茶改中部分場,23.875611,120.913583,0.15,16.27,-9.52,73.71,0.91,-0.67,82H320
茶改場,24.908472,121.185333,2.04,17.05,-10.06,75.79,1.29,-3.71,82C160
茶改北部分場,24.955778,121.631222,1.93,15.92,-0.82,86.32,3.61,-3.76,82A750
高改旗南分場,22.857861,120.516667,-0.53,19.75,1.34,74.75,0.39,0.03,72V140
花改蘭陽分場,24.686306,121.716583,1.45,18.49,0.81,84.21,4.68,0.33,72U480
花蓮農改,23.975222,121.563889,0.41,18.52,-1.24,81.25,1.2,-1.13,72T250
東改賓朗果園,22.813889,121.071278,-0.51,17.86,1.13,89.14,2.43,1.08,72S590
東改班鳩分場,22.829528,121.077694,0.52,18.53,2.07,82.36,2.34,0.98,72S200
高雄農改,22.709333,120.525889,-0.2,20.44,-5.7,72.43,0.68,0.34,72Q010
七股研究中心,23.081672,120.062894,-1.29,18.55,-0.57,80.5,0.54,0.45,72N240
臺南農改,23.0605,120.342194,-0.11,18.68,-0.58,79.79,0.27,-0.15,72N100
南改鹿草分場,23.416869,120.283061,-1.38,17.88,-1.12,79.46,0.55,0.34,72M700
南改義竹分場,23.360694,120.279361,0.39,18.19,-3.32,78.25,0.64,0.07,72M360
南改斗南分場,23.634556,120.477333,0.53,18.24,-0.42,81.18,0.96,-0.02,72K220
中改埔里分場,23.903208,120.963364,-1.14,15.91,1.29,82.36,0.0,-2.19,72HA00
臺中農改,24.003028,120.534389,0.44,17.81,-3.05,77.43,1.12,-0.11,72G600
桃改五峰分場,24.612194,121.157167,1.56,13.65,-6.29,81.93,1.07,-3.56,72D080
桃園農改,24.950944,121.030583,1.49,16.99,-6.26,79.04,2.25,-1.1,72C440
桃改樹林分場,24.944503,121.386972,0.67,17.96,-1.93,74.07,1.5,-0.23,72AI40
萬大發電廠,23.978875,121.139639,-1.0,14.89,3.52,81.18,0.73,-1.04,42HA10
恆春工作站,22.079678,120.714425,-1.16,21.46,-3.32,64.29,0.38,0.14,12Q980
東港工作站,22.479997,120.466058,-1.18,20.95,-2.57,63.71,0.64,0.56,12Q970
口湖工作站,23.589978,120.180394,-1.31,17.58,-0.54,75.07,0.64,0.4,12J990
