站名,緯度,經度,平均溫距平,本年度平均溫,平均溼度距平,本年度日均相對溼度,本年度日均降水量,日均降水量距平,站號
淡水,25.164889,121.448906,-0.45,15.55,6.51,88.82,10.45,5.89,466900
鞍部,25.182586,121.529731,-1.18,10.33,7.87,99.32,25.45,15.01,466910
臺北,25.037658,121.514853,-0.88,16.4,8.11,85.68,9.01,4.03,466920
竹子湖,25.162078,121.544547,-0.94,12.16,7.65,95.54,22.71,14.6,466930
基隆,25.133314,121.740475,-0.44,16.14,6.69,86.57,29.63,17.25,466940
花蓮,23.975128,121.613275,-0.3,18.66,2.55,79.11,1.76,-0.7,466990
新屋,25.006744,121.047486,-0.28,15.33,7.51,88.39,9.2,5.8,467050
宜蘭,24.763975,121.756528,-0.9,16.58,12.1,92.11,14.46,8.97,467080
金門,24.407306,118.289281,-1.21,12.35,6.98,82.68,6.42,4.45,467110
澎湖,23.565503,119.563094,-2.46,14.94,7.55,88.75,3.05,2.17,467350
臺南,22.993239,120.204772,-1.76,17.36,9.17,83.93,1.83,1.31,467410
永康,23.038386,120.2367,-1.22,17.45,10.53,84.61,2.82,2.38,467420
嘉義,23.495925,120.432906,-1.2,16.83,8.76,87.64,3.96,2.9,467480
臺中,24.145736,120.684075,-1.23,16.77,6.32,81.46,4.38,2.68,467490
阿里山,23.508208,120.813242,-0.41,7.22,1.79,85.32,7.22,4.34,467530
大武,22.355675,120.903789,-0.56,20.63,1.42,74.0,1.3,-0.19,467540
玉山,23.487614,120.959522,0.78,0.99,-0.13,68.18,7.52,5.81,467550
新竹,24.827853,121.014219,-0.55,15.66,5.34,85.96,7.62,3.78,467571
恆春,22.003897,120.746339,-0.57,21.31,1.82,73.71,0.63,-0.11,467590
成功,23.097486,121.373428,-0.55,19.16,4.95,81.18,3.02,0.46,467610
日月潭,23.881325,120.90805,-0.93,14.48,9.11,87.07,4.72,2.87,467650
臺東,22.752211,121.154586,-0.43,20.04,1.27,74.04,1.5,0.2,467660
馬祖,26.169269,119.923419,-1.67,8.74,3.73,87.71,4.03,1.3,467990
山佳,24.974944,121.402008,-0.58,16.12,3.82,85.79,10.61,6.04,C0A520
坪林,24.938183,121.70975,-1.5,13.18,5.5,97.96,11.2,6.42,C0A530
泰平,24.971197,121.823711,-1.48,12.19,4.1,99.32,31.59,19.34,C0A550
桶後,24.848222,121.597992,-0.49,13.63,2.37,96.82,13.95,7.36,C0A570
石碇,24.993969,121.662917,-0.78,14.02,5.75,96.22,14.33,8.32,C0A640
大坪,25.165914,121.632969,-1.05,13.16,5.88,98.04,56.91,33.53,C0A860
五指山,25.132153,121.608692,-1.28,11.08,3.05,96.71,25.8,16.11,C0A870
雙溪,25.036003,121.864242,-0.72,15.12,4.32,96.36,27.16,16.84,C0A890
三和,25.233153,121.595236,-0.25,14.33,10.42,96.73,45.72,29.79,C0A931
金山,25.223628,121.643967,-0.61,15.31,8.07,94.3,24.63,14.82,C0A940
鼻頭角,25.129036,121.923372,-1.12,15.7,6.28,89.71,13.68,10.08,C0A950
三貂角,25.007606,122.002058,-0.83,15.88,9.51,97.75,17.77,10.76,C0A970
社子,25.109508,121.469681,-0.54,16.28,1.16,82.75,7.16,3.74,C0A980
天母,25.117494,121.537169,-0.4,16.8,0.62,78.0,6.05,2.88,C0A9C0
內湖,25.079422,121.57545,-0.73,16.49,15.35,96.32,7.43,3.72,C0A9F0
大屯山,25.175675,121.522408,-1.08,9.17,4.23,98.82,16.3,10.06,C0AC40
三峽,24.939025,121.369728,-0.58,15.99,7.39,90.75,11.57,6.4,C0AC60
信義,25.037822,121.564597,-0.88,16.0,3.87,85.75,9.29,4.51,C0AC70
文山,25.00235,121.575728,-0.63,15.75,3.51,88.54,10.86,5.97,C0AC80
新莊,25.051478,121.446756,-0.76,16.26,14.63,91.71,8.62,4.61,C0ACA0
八里,25.150211,121.403947,-0.35,15.88,5.69,88.82,10.86,6.4,C0AD10
蘆洲,25.086594,121.472331,-0.36,16.76,7.69,85.96,7.09,3.54,C0AD30
土城,24.973208,121.445169,-0.75,15.67,7.27,89.71,10.89,5.84,C0AD40
鶯歌,24.951533,121.346294,0.5,16.75,0.78,85.64,10.59,6.07,C0AD50
汐止,25.066881,121.658778,-0.59,15.69,3.12,90.54,16.32,9.34,C0AH00
永和,25.01125,121.508111,-0.57,16.16,13.36,90.32,8.96,5.17,C0AH10
五分山,25.07125,121.780794,-0.33,11.48,3.03,97.5,38.71,22.98,C0AH30
平等,25.129142,121.577086,-1.46,13.1,4.72,90.89,11.7,8.03,C0AH40
林口,25.072181,121.38084,-0.86,14.3,9.05,92.89,10.46,7.1,C0AH50
松山,25.04871,121.55042,-0.85,16.66,1.79,74.04,8.02,5.09,C0AH70
深坑,25.002703,121.628328,-0.61,15.48,1.05,90.04,11.04,7.54,C0AH80
福山植物園,24.760717,121.58135,-0.73,11.77,4.91,97.61,12.3,7.61,C0AH90
五股,25.07445,121.42728,-2.25,14.74,9.77,96.14,8.84,6.73,C0AI00
屈尺,24.92184,121.54475,-1.61,15.76,6.34,91.29,13.62,11.56,C0AI10
白沙灣,25.283128,121.519058,-0.93,15.77,0.04,85.36,10.12,6.84,C0AI20
三重,25.057328,121.500629,-1.73,16.58,5.96,84.43,6.57,5.84,C0AI30
石牌,25.115597,121.513139,-1.96,16.76,12.34,85.04,5.46,3.76,C0AI40
七堵,25.094819,121.71713,-1.42,15.77,7.84,97.46,24.59,18.82,C0B010
基隆嶼,25.19141,121.78391,-1.5,15.2,4.96,92.36,16.21,12.62,C0B020
復興,24.820208,121.352281,-0.6,13.66,2.46,86.36,8.09,3.56,C0C460
桃園,24.992425,121.323172,-0.79,15.37,9.98,88.96,10.77,6.38,C0C480
八德,24.928708,121.283289,-0.57,15.06,4.02,87.07,12.16,7.47,C0C490
觀音,25.027072,121.153317,-0.04,15.17,6.0,89.57,12.16,7.53,C0C590
蘆竹,25.084275,121.265767,-0.37,15.3,4.27,87.32,12.21,7.61,C0C620
大溪,24.882853,121.265547,-0.44,14.65,6.99,88.75,9.89,5.83,C0C630
平鎮,24.897503,121.214636,-0.36,14.51,3.49,87.82,10.8,6.6,C0C650
楊梅,24.912375,121.143047,-0.64,14.55,8.17,88.46,11.23,7.34,C0C660
龍潭,24.870056,121.221389,-0.27,14.23,6.29,88.32,12.07,8.23,C0C670
龜山,25.02846,121.38656,-0.89,14.27,6.75,90.36,10.05,7.66,C0C680
中壢,24.977661,121.256375,-0.96,14.76,3.44,85.43,10.12,6.96,C0C700
大溪永福,24.892936,121.324975,-1.57,14.89,10.11,96.32,12.27,10.32,C0C710
梅花,24.678347,121.208558,-1.35,12.74,6.22,93.86,9.75,5.38,C0D360
峨眉,24.6905,121.017189,-0.2,15.2,3.81,91.12,9.88,6.17,C0D430
打鐵坑,24.849664,121.150789,-0.71,13.99,1.16,89.54,8.74,4.59,C0D480
橫山,24.71116,121.11693,-0.96,14.18,6.98,94.04,9.02,5.01,C0D540
竹東,24.767147,121.057881,-0.18,15.11,8.44,87.68,8.32,4.73,C0D560
寶山,24.735006,121.025192,-0.52,14.62,11.39,96.18,9.05,4.96,C0D580
新豐,24.87068,120.97721,-0.48,14.48,6.11,91.5,8.23,4.7,C0D590
湖口,24.904794,121.043628,-0.56,14.81,3.89,86.36,6.66,4.02,C0D650
新竹市東區,24.798681,120.986942,-0.16,15.48,8.15,85.54,7.21,4.97,C0D660
竹南,24.708978,120.888897,-0.57,15.28,5.21,87.46,6.25,3.19,C0E420
南庄,24.601775,121.000214,-0.79,14.32,4.74,90.35,10.96,6.44,C0E430
明德,24.583486,120.885411,-0.74,14.81,-2.27,83.82,7.73,4.97,C0E550
通霄,24.471892,120.704622,-0.68,15.24,4.37,89.86,6.14,4.63,C0E590
馬都安,24.451272,120.930192,-1.43,12.58,2.32,86.07,8.8,5.43,C0E610
頭份,24.688247,120.912206,-0.5,15.58,4.89,84.39,7.34,4.41,C0E730
造橋,24.637056,120.864778,-0.53,15.22,4.0,90.04,7.64,4.88,C0E740
苗栗,24.564569,120.824575,-0.47,15.45,6.71,88.29,6.89,4.36,C0E750
銅鑼,24.489681,120.790853,-0.82,14.71,9.78,94.5,6.45,4.3,C0E780
西湖,24.562947,120.7485,-0.89,14.48,12.48,98.36,5.23,3.52,C0E810
獅潭,24.539133,120.920042,-0.97,13.94,0.21,88.81,9.13,6.3,C0E820
苑裡,24.439714,120.653053,-1.1,15.31,7.98,89.11,4.73,3.75,C0E830
大河,24.618069,120.948578,-0.41,14.9,5.99,90.92,9.52,7.05,C0E850
高鐵苗栗,24.60725,120.826094,-1.09,15.36,13.75,96.43,6.7,5.3,C0E870
石岡,24.276061,120.777644,-1.17,15.11,3.12,86.82,4.89,4.02,C0F0B0
中坑,24.248517,120.903319,-1.4,13.76,7.71,91.96,6.82,5.64,C0F0C0
審馬陣,24.381675,121.4203,-0.82,2.73,7.49,77.75,11.68,9.3,C0F0D0
東勢,24.246428,120.833047,-0.8,15.45,4.44,85.07,5.98,4.64,C0F850
大坑,24.173142,120.722289,-1.07,16.49,3.87,79.96,5.07,4.14,C0F970
神岡,24.272481,120.658314,-1.0,14.98,5.72,92.43,5.11,3.75,C0F9I0
大安,24.345061,120.588025,-0.8,15.44,5.37,91.68,3.32,2.37,C0F9K0
后里,24.310436,120.729725,-0.34,15.7,3.08,87.82,4.68,3.38,C0F9L0
豐原,24.254322,120.720692,-0.47,16.0,5.75,85.93,5.04,3.83,C0F9M0
大里,24.092464,120.701378,-1.01,17.58,6.15,78.89,4.02,2.99,C0F9N0
潭子,24.213106,120.703933,-0.08,17.25,5.36,83.61,4.11,3.21,C0F9O0
清水,24.312297,120.562242,-0.66,15.84,14.56,97.75,2.93,2.08,C0F9P0
外埔,24.347817,120.705686,-0.97,15.22,-0.75,84.18,3.64,2.29,C0F9Q0
龍井,24.184536,120.528972,-1.1,15.92,0.34,84.82,3.84,2.98,C0F9R0
烏日,24.107058,120.624103,-0.32,17.25,4.47,79.57,3.8,3.02,C0F9S0
西屯,24.179494,120.641275,-0.58,16.37,9.54,87.93,3.59,2.86,C0F9T0
南屯,24.137006,120.637969,-0.98,17.09,5.91,79.93,3.86,3.11,C0F9U0
新社,24.200172,120.815806,0.05,15.72,3.45,87.11,5.54,4.19,C0F9V0
大雅(中科園區),24.21528,120.62445,-1.6,14.89,12.09,91.25,4.73,4.11,C0F9X0
桃山,24.432739,121.303808,-0.61,2.63,6.16,71.25,10.61,8.83,C0F9Y0
雪山東峰,24.388792,121.268675,-0.56,3.36,6.03,71.21,15.5,13.6,C0F9Z0
芬園,24.015678,120.6213,-1.17,15.95,11.75,92.68,4.36,3.52,C0G620
員林,23.946503,120.585597,-0.83,17.32,9.82,88.43,3.66,2.38,C0G650
溪湖,23.94835,120.479122,-1.08,16.27,11.25,92.43,3.07,2.34,C0G660
溪州,23.851589,120.499093,-1.14,16.1,9.84,87.64,3.88,3.34,C0G720
二林,23.903325,120.376081,-0.95,15.79,5.27,90.14,1.98,1.55,C0G730
大城,23.852487,120.320935,-0.97,15.97,7.39,85.14,3.48,2.97,C0G740
福興,24.041289,120.437669,-0.91,16.47,4.19,83.71,3.05,2.37,C0G770
秀水,24.03405,120.503869,-1.31,16.13,8.46,89.86,3.54,2.87,C0G780
埔鹽,24.000394,120.431683,-0.97,15.96,13.54,97.68,2.12,1.51,C0G800
埔心,23.947633,120.525456,-1.06,16.5,3.31,82.29,3.36,2.62,C0G810
田尾,23.901669,120.509389,-0.4,16.97,3.37,87.0,3.36,2.61,C0G820
埤頭,23.866003,120.452806,-0.58,16.64,1.48,89.46,1.79,1.24,C0G830
社頭,23.897647,120.5862,-1.06,17.18,9.57,86.14,3.7,2.83,C0G860
二水,23.810742,120.6173,-1.8,16.26,12.45,94.43,3.54,2.88,C0G880
伸港,24.148933,120.484403,-0.8,16.04,4.33,86.86,3.32,2.51,C0G890
線西,24.143358,120.443536,-2.05,16.11,8.79,92.21,2.5,2.27,C0G900
花壇,24.032076,120.549461,-1.34,17.02,10.29,87.0,2.98,2.82,C0G910
埔里,23.972169,120.952425,-0.48,16.86,6.19,85.43,4.96,3.62,C0H890
草屯,23.973672,120.68085,-1.03,16.82,15.58,93.18,4.3,3.39,C0H960
昆陽,24.121322,121.273642,-0.25,2.92,3.57,82.5,7.36,5.04,C0H990
神木村,23.532742,120.843667,-0.33,11.85,4.85,88.64,6.86,4.39,C0H9A0
合歡山,24.143442,121.272547,0.83,2.04,2.68,85.11,15.05,9.23,C0H9C0
廬山,24.033311,121.181808,-0.79,11.93,2.66,79.71,7.23,3.41,C0I010
竹山,23.761225,120.688156,-0.58,16.91,3.15,88.18,3.89,2.76,C0I110
水里,23.812553,120.849792,-0.81,16.55,5.37,86.18,3.89,2.55,C0I360
魚池,23.895703,120.94135,-0.44,15.79,4.39,88.43,4.95,3.17,C0I370
集集,23.828206,120.801467,-1.08,16.55,3.44,83.86,4.43,3.31,C0I380
仁愛,24.022122,121.132206,-0.46,13.31,7.87,88.18,6.71,4.08,C0I390
名間,23.837053,120.701447,-0.95,16.31,5.18,84.75,4.16,3.38,C0I410
國姓,24.037803,120.855072,-0.85,16.5,4.92,85.96,4.95,3.96,C0I420
南投,23.911469,120.687331,-1.05,16.86,10.12,86.36,4.02,3.36,C0I460
梅峰,24.085272,121.173572,1.68,9.65,15.09,99.0,9.12,5.9,C0I480
萬大林道,23.928228,121.091411,-0.37,11.61,-0.15,81.96,5.68,3.38,C0I490
奇萊稜線,24.109231,121.326456,-0.36,1.03,5.11,83.61,8.48,7.73,C0I540
崙背,23.75555,120.318925,-0.99,16.12,6.36,86.86,3.27,2.75,C0K250
四湖,23.630414,120.227125,-1.17,16.4,7.22,85.21,3.25,2.43,C0K280
宜梧,23.536281,120.169329,-1.02,16.26,6.56,86.57,2.77,2.13,C0K291
虎尾,23.719183,120.442036,-1.41,16.39,7.49,85.29,3.66,2.7,C0K330
土庫,23.679029,120.395574,-1.09,16.21,9.98,89.29,3.34,2.77,C0K390
斗六,23.720583,120.541127,-1.19,16.33,3.34,84.5,3.54,2.92,C0K400
北港,23.573957,120.292802,-1.3,16.14,10.16,90.89,2.86,2.34,C0K410
西螺,23.800407,120.467394,-1.07,16.17,3.74,83.46,3.38,2.72,C0K420
褒忠,23.690938,120.303634,-1.16,15.94,6.32,86.82,3.2,2.56,C0K430
二崙,23.772797,120.408944,-1.13,15.9,4.07,85.39,1.62,1.13,C0K440
大埤,23.646074,120.431537,-1.37,16.11,6.09,85.21,2.57,2.08,C0K450
斗南,23.678734,120.478359,-1.31,16.06,7.39,86.07,2.86,2.33,C0K460
林內,23.748675,120.609642,-1.09,16.31,6.55,87.43,3.96,3.22,C0K470
莿桐,23.761192,120.502372,-1.22,15.95,7.06,87.46,3.55,3.01,C0K480
元長,23.64981,120.315024,-1.13,16.13,10.0,88.21,3.07,2.53,C0K500
水林,23.572924,120.24597,-1.2,16.21,7.98,86.21,2.88,2.43,C0K510
臺西,23.701547,120.197559,-1.16,15.96,8.11,88.32,2.48,2.01,C0K530
蔦松,23.514319,120.229736,-1.18,16.3,4.74,84.39,2.8,2.26,C0K550
棋山,23.68645,120.603417,-1.01,16.51,2.82,84.04,4.21,3.45,C0K560
高鐵雲林,23.737456,120.417944,-1.67,16.36,8.07,96.46,2.84,2.15,C0K580
東後寮,23.369908,120.248065,-0.89,16.61,4.26,84.11,2.75,2.39,C0M520
中埔,23.42538,120.5229,-1.39,16.24,5.79,85.18,4.14,3.63,C0M640
朴子,23.43463,120.23902,-1.29,16.3,9.11,87.04,3.07,2.6,C0M650
溪口,23.604131,120.403569,-1.08,16.3,3.63,84.18,2.88,2.38,C0M660
大林,23.600616,120.45841,-1.11,16.52,8.99,86.07,3.75,3.21,C0M670
太保,23.455062,120.331455,-1.21,16.63,5.25,84.5,3.71,3.25,C0M680
水上,23.419734,120.388909,-1.13,16.6,5.37,83.61,3.54,3.2,C0M690
竹崎,23.526178,120.555508,-1.15,16.37,8.17,89.07,4.36,3.87,C0M700
東石,23.458927,120.15385,-1.11,16.36,5.63,85.71,2.5,2.05,C0M710
番路,23.464657,120.554156,-1.3,15.84,12.51,92.89,3.98,3.45,C0M720
嘉義市東區,23.457673,120.460531,-1.08,17.54,8.15,82.11,3.98,3.67,C0M730
六腳,23.492871,120.290625,-1.32,16.28,9.81,87.95,3.79,3.18,C0M740
布袋,23.380878,120.167789,-1.13,16.41,4.83,85.43,2.7,2.32,C0M750
民雄,23.551754,120.428457,-1.16,16.64,6.14,84.79,3.96,3.44,C0M760
嘉義梅山,23.585398,120.555587,-1.4,15.96,7.77,88.32,3.71,3.2,C0M770
鹿草,23.41134,120.30835,-1.21,16.64,14.81,91.39,3.29,2.86,C0M780
新港,23.553269,120.345728,-1.31,16.34,9.91,87.36,3.48,2.98,C0M790
茶山,23.299075,120.664767,-0.41,17.58,3.72,83.43,4.29,3.53,C0M800
達邦,23.453994,120.749517,-0.23,15.01,0.46,78.21,4.91,3.71,C0M820
表湖,23.24186,120.64166,-1.38,16.14,9.29,89.64,4.29,3.61,C0M850
北寮,23.079561,120.495008,-1.03,17.45,8.38,89.71,2.71,2.18,C0O830
王爺宮,23.222064,120.40085,-1.26,16.44,7.88,90.89,3.55,3.03,C0O840
大內,23.11885,120.36083,-1.59,17.13,14.45,95.5,2.7,2.36,C0O860
善化,23.112883,120.297219,-1.32,17.26,4.08,86.68,2.8,2.3,C0O900
崎頂,22.959547,120.369317,-0.5,17.66,9.52,90.39,2.09,1.52,C0O960
虎頭埤,23.021375,120.347878,-0.87,17.45,6.28,88.43,2.89,2.5,C0O970
新市,23.061614,120.298197,-1.51,17.17,6.65,86.68,2.96,2.57,C0O980
媽廟,22.99175,120.293525,-1.28,17.48,12.51,91.61,2.43,1.99,C0O990
阿禮,22.742908,120.743678,0.43,16.03,-12.11,66.46,1.55,0.91,C0R130
瑪家,22.682903,120.686639,-0.45,16.21,11.25,94.21,1.8,1.17,C0R140
三地門,22.709889,120.639944,-1.01,19.72,13.73,86.64,1.12,0.55,C0R150
鹽埔,22.739558,120.530778,-0.55,19.28,0.0,81.91,1.07,0.67,C0R160
赤山,22.592333,120.614306,-0.72,19.33,6.53,85.54,1.43,1.05,C0R190
潮州,22.534361,120.54,-0.55,20.06,1.35,79.61,1.2,0.83,C0R220
琉球嶼,22.332244,120.362236,-1.16,20.07,11.63,89.32,1.14,0.73,C0R270
車城,22.0744,120.716247,-0.5,21.08,1.75,75.46,0.57,0.51,C0R320
牡丹,22.130036,120.792639,-0.26,18.64,3.04,89.39,1.14,0.07,C0R341
貓鼻頭,21.921774,120.7358,-0.35,21.33,5.96,83.0,0.96,0.36,C0R350
大漢山,22.405264,120.753181,0.64,10.46,-0.61,96.64,2.14,-0.25,C0R440
高樹,22.826389,120.600806,-1.51,18.66,6.32,83.0,1.41,0.98,C0R470
長治,22.693128,120.542622,-0.82,19.49,7.72,86.21,0.79,0.47,C0R480
九如,22.7405,120.490503,-0.78,19.4,-3.65,78.21,1.0,0.65,C0R490
崁頂,22.514781,120.506914,-0.48,19.85,1.71,82.68,1.25,0.84,C0R520
佳冬,22.419456,120.552375,-0.56,19.81,3.95,82.5,0.57,0.3,C0R540
新埤,22.467947,120.582894,-0.67,19.71,13.37,92.43,0.84,0.55,C0R550
新園,22.5434,120.461558,-0.48,19.8,3.29,80.43,1.36,0.91,C0R560
麟洛,22.65078,120.52719,-0.65,19.87,3.79,79.39,0.82,0.53,C0R570
南州,22.48591,120.50274,-0.78,19.51,8.1,86.32,1.2,0.89,C0R580
里港,22.77919,120.49459,-1.25,18.75,13.37,90.43,1.25,0.89,C0R590
舊泰武,22.588194,120.664944,-0.18,16.64,3.41,89.11,1.79,1.05,C0R600
墾雷,21.900836,120.855269,-0.15,21.35,6.68,84.57,2.11,0.27,C0R620
東港,22.46247,120.44074,-2.14,20.01,5.66,83.5,1.21,1.03,C0R640
竹田,22.58486,120.54344,-2.27,19.73,9.39,89.86,1.32,1.05,C0R650
枋寮,22.367722,120.590647,-0.95,19.8,8.54,85.07,0.52,0.32,C0R660
楓港,22.190131,120.692156,-0.54,21.41,2.86,69.86,1.04,0.91,C0R670
佳樂水,21.993578,120.861633,-0.51,21.39,2.61,80.39,2.38,-3.02,C0R680
墾丁,21.966756,120.810269,-0.39,19.04,2.96,88.68,1.59,-1.54,C0R690
枋山,22.246844,120.661086,-0.92,20.75,7.54,75.04,0.89,0.86,C0R700
旭海,22.205403,120.887614,-0.46,19.18,2.5,85.43,2.41,-3.91,C0R720
下馬,23.150427,121.070312,-0.19,14.29,4.68,90.89,2.95,2.52,C0S660
太麻里,22.60902,120.98533,-0.18,16.59,2.82,87.43,1.55,-0.26,C0S690
知本,22.684866,121.005642,-1.16,15.47,2.41,89.93,2.48,0.49,C0S700
鹿野,22.917711,121.122994,-0.15,16.55,4.04,88.25,1.91,0.61,C0S710
綠島,22.6672,121.47533,-0.39,19.42,8.68,90.93,8.59,2.46,C0S730
池上,23.119628,121.209469,-0.29,16.99,2.86,87.64,1.8,0.93,C0S740
向陽,23.248397,120.986133,-0.09,7.39,0.68,90.32,6.96,3.62,C0S750
紅石,23.069131,121.126219,-0.26,9.84,1.93,98.57,3.38,1.52,C0S760
大溪山,22.478475,120.943325,-0.44,17.11,2.0,88.36,1.57,-0.82,C0S770
金崙,22.538122,120.966875,-1.23,18.18,2.82,84.07,1.39,-0.42,C0S790
東河,22.972672,121.303986,-1.66,18.99,2.64,82.32,2.27,0.27,C0S810
長濱,23.286817,121.411975,-0.61,17.81,3.54,84.68,1.79,-0.15,C0S830
南田,22.279725,120.889208,-0.71,20.54,0.75,81.82,1.68,-0.79,C0S840
關山,23.0395,121.175017,0.0,17.61,3.07,86.54,2.04,1.39,C0S890
蘭嶼高中,22.04909,121.51214,-1.18,21.49,7.61,83.14,12.45,0.08,C0S900
蘭嶼燈塔,22.081197,121.503117,-1.43,19.78,-0.48,88.57,5.5,0.27,C0S910
金峰嘉蘭,22.594789,120.960825,-0.85,18.71,4.79,84.71,1.71,0.64,C0S920
延平,22.902581,121.084058,-0.46,17.69,4.43,84.36,1.96,1.55,C0S930
石寧山,23.223772,121.406639,-0.9,18.16,5.68,87.25,1.96,1.04,C0S940
七塊厝,22.954453,121.229922,-0.68,16.49,5.18,91.68,2.14,1.93,C0S950
香蘭,22.587569,120.993375,-0.51,20.09,5.14,77.79,1.16,-1.46,C0S960
加津林,22.416211,120.926942,-0.31,20.36,1.14,75.61,2.27,-0.68,C0S970
勝林山,22.430439,120.8938,-1.05,13.53,0.75,96.5,4.48,0.32,C0S980
山豬窟,22.318619,120.857372,-0.45,17.61,2.11,86.36,1.71,-0.86,C0S990
歷坵,22.520969,120.89185,-0.27,16.54,3.46,92.89,1.5,0.2,C0SA00
檳榔四格山,22.810031,121.109308,-0.93,16.69,5.5,89.43,2.41,2.16,C0SA10
金崙山,22.567419,120.959667,-0.4,13.91,1.57,95.71,3.18,1.2,C0SA20
都歷,23.020333,121.323642,-0.84,18.88,3.36,78.86,1.73,0.71,C0SA30
瑞和,22.974361,121.156697,-0.4,17.7,2.64,84.96,1.68,1.48,C0SA40
土坂,22.453108,120.887572,-0.37,18.48,2.89,86.79,1.89,0.06,C0SA80
大禹嶺,24.186117,121.316086,-0.88,4.71,8.02,81.82,14.61,10.41,C0T790
天祥,24.179597,121.495639,-0.35,14.69,12.72,95.04,5.54,3.03,C0T820
鯉魚潭,23.935639,121.508944,-0.64,16.18,-0.5,89.32,3.38,0.23,C0T870
西林,23.8119,121.441458,-0.39,16.77,1.74,85.39,3.34,0.97,C0T900
光復,23.660694,121.424964,-0.15,17.37,7.43,96.68,3.11,0.49,C0T960
月眉山,23.809928,121.539828,-1.16,14.26,5.38,98.43,3.95,0.64,C0T9A0
水源,23.991861,121.537169,0.06,15.11,4.6,95.25,5.91,1.2,C0T9B0
和中,24.26676,121.74103,-1.62,17.11,-0.63,83.29,5.39,1.79,C0T9D0
大坑,23.880628,121.581981,-0.97,14.98,3.05,93.61,3.21,-0.48,C0T9E0
水璉,23.797131,121.542514,-0.83,17.03,11.11,95.46,2.06,-0.88,C0T9F0
鳳林山,23.735269,121.420131,-1.81,14.21,-0.12,94.68,4.04,0.53,C0T9G0
加路蘭山,23.682947,121.5274,-0.54,13.9,1.78,96.93,9.73,3.21,C0T9H0
豐濱,23.583897,121.514806,-0.19,17.38,-1.49,85.96,8.8,3.34,C0T9I0
靜浦,23.455167,121.495028,-0.25,18.08,3.39,88.32,9.46,4.77,C0T9M0
富里,23.171639,121.249378,-0.67,16.95,4.25,89.39,1.79,1.62,C0T9N0
雙連埤,24.753033,121.641303,-0.55,13.01,0.94,98.11,13.2,7.34,C0U520
礁溪,24.817539,121.765608,-0.71,16.5,7.02,91.07,11.82,6.69,C0U600
玉蘭,24.675286,121.587061,-0.93,13.71,8.54,96.11,9.82,3.49,C0U650
太平山,24.505486,121.525656,-1.56,6.03,7.14,97.46,10.79,6.48,C0U710
南山,24.43742,121.38167,-2.0,10.04,-0.05,95.93,10.25,8.96,C0U720
龜山島,24.841667,121.953133,-1.66,14.25,3.36,98.39,8.3,4.41,C0U750
東澳,24.52196,121.83318,-1.46,16.63,2.88,89.64,21.0,13.88,C0U760
南澳,24.44935,121.81022,-1.28,17.41,-1.06,75.61,8.95,6.21,C0U770
五結,24.68637,121.79794,-1.19,15.94,7.16,89.5,18.89,13.5,C0U780
頭城,24.85323,121.8308,-1.02,16.64,4.19,86.25,12.45,9.98,C0U860
大礁溪,24.791042,121.675047,-1.19,13.54,10.56,98.57,12.96,9.24,C0U870
三星,24.66812,121.65302,-1.08,15.75,0.79,88.79,10.34,7.83,C0U890
內城,24.71813,121.68766,-0.92,16.15,4.25,91.0,11.02,8.68,C0U900
冬山,24.63373,121.7937,-0.83,16.51,12.37,94.11,22.89,19.3,C0U910
羅東,24.68184,121.74934,-0.73,16.35,5.71,90.82,16.7,14.15,C0U940
鶯子嶺,24.89754,121.79244,-0.84,10.02,2.03,99.32,20.98,14.06,C0U950
翠峰湖,24.510856,121.608044,-0.54,6.39,3.13,99.04,8.84,6.47,C0U960
大福,24.80064,121.81389,-0.78,16.66,9.12,90.14,16.12,14.09,C0U970
坪林石牌,24.86478,121.77396,-0.74,12.7,2.57,98.71,13.02,9.4,C0U980
員山,24.74435,121.72247,-1.17,16.33,10.07,91.21,12.82,10.45,C0U990
土場,24.576533,121.495333,-0.96,14.31,6.14,94.43,7.66,6.21,C0UA00
鴛鴦湖,24.590269,121.412228,-0.97,7.11,1.9,97.39,15.82,12.07,C0UA10
多加屯,24.368614,121.373189,-0.74,4.67,6.33,84.36,10.91,8.98,C0UA20
白嶺,24.527819,121.519031,-1.24,8.63,2.56,98.43,12.18,8.08,C0UA30
西德山,24.560647,121.752608,-1.99,10.12,2.5,99.04,16.41,11.58,C0UA40
西帽山,24.555361,121.802628,-1.57,11.84,3.02,99.04,37.38,27.21,C0UA50
樟樹山,24.41393,121.78325,-1.26,14.01,5.03,93.71,8.27,4.67,C0UA60
桃源谷,24.962606,121.888875,-1.22,12.44,2.25,98.82,32.98,23.07,C0UA70
復興,23.222403,120.806089,-0.52,16.8,5.39,79.43,4.52,3.52,C0V210
溪埔,22.738578,120.446797,-1.18,18.53,7.4,84.57,1.04,0.69,C0V350
內門,22.975481,120.466769,-0.57,17.98,5.11,83.57,2.05,1.57,C0V360
阿公店,22.804194,120.355528,-0.62,18.22,3.86,84.86,1.21,0.9,C0V400
鳳山,22.646653,120.356122,-0.56,19.38,12.58,86.04,0.77,0.41,C0V440
鳳森,22.545064,120.392592,-0.83,19.26,3.4,77.68,0.86,0.39,C0V450
新興,22.627422,120.298803,-0.88,19.25,1.07,73.25,0.86,0.49,C0V490
阿蓮,22.883208,120.327508,-0.97,17.98,3.65,85.61,1.84,1.56,C0V530
梓官,22.760558,120.267211,-1.24,18.13,9.96,86.14,1.16,0.87,C0V610
永安,22.82315,120.236856,-0.79,18.26,4.05,82.21,1.43,1.19,C0V620
茄萣,22.906642,120.182608,-1.0,17.75,14.55,88.25,1.62,1.04,C0V630
湖內,22.887139,120.2445,-1.49,17.46,9.04,86.75,1.59,1.06,C0V640
彌陀,22.783806,120.246361,-1.24,18.1,6.67,84.0,1.36,1.09,C0V650
岡山,22.797078,120.294958,-1.46,18.21,6.79,81.14,1.43,1.12,C0V660
仁武,22.701083,120.347722,-1.54,18.46,10.73,85.25,1.21,0.91,C0V680
鼓山,22.623325,120.275575,-1.16,18.82,10.24,85.5,0.88,0.46,C0V690
三民,22.645017,120.311233,-1.46,19.01,9.66,79.43,0.93,0.55,C0V700
苓雅,22.622742,120.330669,-1.07,19.16,12.1,80.82,0.7,0.35,C0V710
林園,22.507747,120.394511,-1.43,19.8,7.1,76.57,1.43,0.94,C0V720
大寮,22.605614,120.395717,-1.28,19.09,7.34,79.07,0.84,0.34,C0V730
旗山,22.888614,120.483597,-0.31,19.19,7.23,82.5,1.34,1.02,C0V740
路竹,22.854997,120.259439,-0.3,19.0,5.29,81.04,1.59,1.3,C0V750
橋頭,22.757806,120.30575,-1.51,18.37,13.44,89.18,1.14,0.79,C0V760
大社,22.730306,120.346639,-1.47,18.3,8.1,81.82,1.25,0.94,C0V770
萬山,22.905944,120.688056,-0.24,18.53,10.7,86.86,1.73,1.04,C0V790
六龜,22.997889,120.633583,0.44,19.96,8.89,84.5,2.36,1.52,C0V800
左營,22.67491,120.28491,-1.21,18.34,2.74,83.82,0.88,0.63,C0V810
小林,23.148408,120.63325,-1.86,17.95,12.07,84.39,3.77,3.28,C0V820
東莒,25.9652,119.98069,-1.27,9.46,3.11,83.26,2.85,1.38,C0W110
西嶼,23.5626,119.468436,-2.62,14.29,6.85,91.5,3.59,3.23,C0W120
花嶼,23.40007,119.32276,-2.99,14.88,7.72,88.21,3.82,3.68,C0W130
金沙,24.488292,118.408778,-1.05,12.84,4.52,77.31,3.04,1.43,C0W140
金寧,24.457703,118.328989,-1.52,12.98,4.11,77.89,5.04,3.45,C0W150
烏坵,24.9944,119.44956,-2.0,9.95,3.25,86.57,2.09,1.38,C0W160
東河,23.296598,120.385608,-1.44,16.66,5.78,86.11,2.95,2.61,C0X050
下營,23.22695,120.256261,-0.9,16.92,0.55,79.96,3.11,2.68,C0X060
佳里,23.173039,120.145086,-1.5,16.78,6.92,85.5,2.79,2.29,C0X080
臺南市北區,23.010394,120.194228,-1.5,17.37,8.37,83.79,1.96,1.5,C0X100
臺南市南區,22.961189,120.188378,-1.44,17.86,1.08,76.29,2.3,1.66,C0X110
麻豆,23.183289,120.248611,-1.38,17.11,6.94,88.29,2.48,2.05,C0X120
官田,23.193217,120.315422,-1.34,17.3,17.49,97.21,3.05,2.62,C0X130
西港,23.125608,120.203108,-0.9,17.58,2.73,82.25,3.43,2.95,C0X140
安定,23.102614,120.227839,-0.93,17.28,6.12,88.46,2.43,1.98,C0X150
仁德,22.968258,120.257689,-1.34,17.75,18.08,93.89,2.48,1.97,C0X160
關廟,22.963017,120.327797,-1.7,17.26,14.47,90.86,2.11,1.57,C0X170
山上,23.0757,120.363253,-1.42,17.03,11.63,93.21,3.04,2.64,C0X180
安平,22.993161,120.152181,-1.46,17.27,3.15,82.39,2.32,1.96,C0X190
左鎮,23.056758,120.408522,-1.0,16.98,8.98,91.32,2.82,2.42,C0X200
白河,23.347466,120.414427,-1.2,16.81,9.71,89.25,2.98,2.64,C0X210
學甲,23.230367,120.182187,-1.49,16.16,4.11,82.36,2.55,2.23,C0X220
鹽水,23.272621,120.247641,-1.12,16.45,12.69,93.29,2.29,1.98,C0X230
關子嶺,23.331169,120.508025,-1.05,15.35,8.34,92.93,4.05,3.48,C0X240
新營,23.310689,120.316681,-1.36,16.78,6.69,83.86,2.59,2.24,C0X250
後壁,23.366358,120.362326,-1.22,16.57,5.61,84.93,3.25,2.96,C0X260
將軍,23.214999,120.13577,-1.49,16.2,6.2,86.18,1.59,1.29,C0X280
北門,23.267772,120.125481,-1.39,16.34,7.16,86.86,2.84,2.49,C0X290
柳營,23.253328,120.375253,-1.56,17.38,11.64,88.54,2.66,2.57,C0X320
明里,23.208717,121.262342,-0.04,17.19,-2.84,86.57,1.46,0.47,C0Z020
佳心,23.34567,121.21316,-0.53,13.3,2.79,91.75,2.79,1.3,C0Z050
玉里,23.3215,121.339656,-0.23,17.54,-1.6,85.54,2.34,0.9,C0Z061
舞鶴,23.46811,121.37407,-0.16,16.53,1.35,92.11,1.96,0.44,C0Z070
富源,23.587642,121.378225,-0.46,16.01,3.31,94.21,3.29,1.23,C0Z080
吉安光華,23.930925,121.595153,-0.15,18.29,-3.48,80.25,1.23,-0.13,C0Z150
鳳林,23.746114,121.453411,-0.32,17.52,8.57,93.75,2.34,1.13,C0Z160
卓溪,23.3443,121.3029,-0.46,17.81,3.71,86.29,2.04,1.49,C0Z170
新城,24.03946,121.60454,-0.59,18.17,4.38,83.5,2.11,-0.27,C0Z180
富世,24.14743,121.6297,-0.72,18.05,-3.84,77.76,2.75,0.42,C0Z190
萬榮,23.709219,121.420106,-0.37,17.13,1.66,92.25,2.45,1.36,C0Z200
瑞穗,23.5239,121.39021,-0.25,17.35,-1.54,85.61,2.82,1.87,C0Z210
和平林道,24.343922,121.656317,-0.45,14.36,2.79,91.71,3.5,2.14,C0Z220
和平,24.30717,121.77007,-0.75,17.87,6.77,81.59,4.77,2.3,C0Z230
瑞穗林道,23.49284,121.30688,-1.34,11.19,1.41,97.61,7.23,4.44,C0Z250
蕃薯寮,23.73835,121.540108,-0.36,16.05,-1.76,85.46,6.04,2.82,C0Z270
德武,23.47426,121.41071,-0.78,16.89,1.28,91.5,2.66,1.64,C0Z280
赤柯山,23.36893,121.38293,-0.81,12.61,3.01,97.93,4.29,2.39,C0Z290
東里,23.26853,121.30547,-0.64,17.3,-1.89,87.5,2.57,1.72,C0Z300
清水斷崖,24.218294,121.689142,-0.71,18.05,14.4,96.39,3.2,1.83,C0Z310
清水林道,23.27125,121.188272,-0.88,14.79,0.4,89.11,4.61,3.11,C0Z320
安通山,23.290728,121.348528,-2.2,14.96,5.62,93.79,3.04,1.68,C0Z330
口湖工作站,23.589978,120.180394,-2.8,16.09,3.54,79.14,2.05,1.81,12J990
東港工作站,22.479997,120.466058,-2.39,19.73,4.04,70.32,1.04,0.96,12Q970
恆春工作站,22.079678,120.714425,-1.28,21.34,-2.32,65.29,0.36,0.12,12Q980
萬大發電廠,23.978875,121.139639,-1.71,14.18,13.77,91.43,5.96,4.19,42HA10
桃改樹林分場,24.944503,121.386972,-1.64,15.66,9.36,85.36,9.61,7.88,72AI40
桃園農改場,24.950944,121.030583,-0.52,14.98,2.27,87.57,8.73,5.39,72C440
桃改五峰分場,24.612194,121.157167,-0.8,11.29,5.31,93.54,11.25,6.62,72D080
臺中農改場,24.003028,120.534389,-1.32,16.05,9.34,89.82,3.57,2.34,72G600
中改埔里分場,23.903208,120.963364,-1.7,15.35,8.07,89.14,4.96,2.78,72HA00
南改斗南分場,23.634556,120.477333,-1.08,16.64,4.44,86.04,3.41,2.43,72K220
南改義竹分場,23.360694,120.279361,-1.11,16.69,0.14,81.71,3.23,2.66,72M360
南改鹿草分場,23.416869,120.283061,-2.94,16.32,4.16,84.75,2.41,2.2,72M700
臺南農改場,23.0605,120.342194,-1.79,17.0,8.31,88.68,1.39,0.97,72N100
七股研究中心,23.081672,120.062894,-3.4,16.44,4.18,85.25,3.09,3.01,72N240
高雄農改場,22.709333,120.525889,-1.28,19.36,3.02,81.14,1.07,0.73,72Q010
東改班鳩分場,22.829528,121.077694,-0.15,17.86,0.96,81.25,2.23,0.87,72S200
東改賓朗果園,22.813889,121.071278,-1.15,17.22,2.95,90.96,2.91,1.56,72S590
花蓮農改場,23.975222,121.563889,-0.24,17.87,4.59,87.07,2.95,0.62,72T250
花改蘭陽分場,24.686306,121.716583,-0.78,16.25,8.56,91.96,12.79,8.44,72U480
高改旗南分場,22.857861,120.516667,-1.85,18.42,10.23,83.64,1.54,1.17,72V140
茶改北部分場,24.955778,121.631222,-0.61,13.38,7.32,94.46,13.05,5.69,82A750
茶改場,24.908472,121.185333,-0.73,14.29,4.37,90.21,11.77,6.77,82C160
茶改中部分場,23.875611,120.913583,-1.26,14.86,9.05,92.29,4.77,3.19,82H320
茶改南部分場,23.762528,120.7405,-1.31,15.15,3.75,92.43,4.71,3.58,82H840
茶改東部分場,22.907694,121.130139,-0.57,17.99,1.29,83.21,2.36,1.43,82S580
農工中心,24.985917,121.239833,-1.0,14.76,5.51,86.57,8.3,3.95,A2C560
水試臺西試驗場,23.717231,120.190522,-1.69,16.12,2.23,85.29,2.75,2.51,A2K360
臺大雲林校區,23.730628,120.423903,-1.78,15.89,8.14,87.07,2.93,2.68,A2K630
臺南蘭花園區,23.340258,120.379661,-1.65,16.81,6.86,84.68,2.46,2.25,A2N290
畜試北區分所,24.527806,120.770972,-1.14,14.66,2.89,88.11,6.46,5.18,B2E890
畜產試驗所,23.058972,120.336406,-1.31,17.11,4.44,84.89,2.5,1.99,B2N890
畜試南區分所,21.945583,120.802167,-0.73,21.06,-0.29,74.5,0.91,-0.4,B2Q810
畜試東區分所,24.669039,121.832561,-1.29,15.98,7.82,88.89,25.45,21.61,B2U990
蓮華池,23.918333,120.885278,-1.42,14.83,8.78,94.12,4.79,2.89,E2H360
林試畢祿溪站,24.226944,121.308522,-0.58,6.87,10.95,86.36,12.45,10.67,E2HA20
四湖植物園,23.676986,120.163433,-2.93,16.07,4.02,86.54,2.93,2.41,E2K600
林試六龜中心,22.991703,120.645722,-0.2,18.54,9.79,85.89,1.98,0.89,E2P980
林試扇平站,22.9677,120.6857,-0.15,16.54,6.64,86.96,1.64,0.45,E2P990
林試太麻里2,22.598,120.99775,-0.49,19.62,2.68,78.54,1.18,-0.73,E2S960
林試太麻里1,22.598922,120.980044,-0.71,18.66,5.04,81.93,1.55,0.23,E2S980
農試所(霧峰),24.031261,120.688133,-1.22,16.81,11.01,91.04,3.95,2.43,G2F820
農試嘉義分所,23.485028,120.473806,-1.57,16.1,2.7,84.36,3.14,2.26,G2L020
農試溪口農場,23.58565,120.408111,-1.2,16.78,3.11,85.5,3.23,3.05,G2M350
農試鳳山分所,22.646611,120.356083,-2.01,18.57,6.76,79.54,0.73,0.23,G2P820
苗栗農改場,24.495722,120.829111,-1.06,14.66,7.91,92.18,7.7,4.94,K2E360
苗改生物防治研究中心,24.422861,120.871833,-2.12,14.06,7.61,92.71,7.34,6.43,K2E710
種苗改良場,24.225972,120.800917,-1.53,14.09,10.63,90.54,5.71,3.35,K2F750
溪頭,23.670306,120.798194,-0.72,12.55,5.21,92.5,5.66,3.67,U2H480
臺大和社,23.590856,120.888864,-2.31,14.42,11.89,86.93,4.89,4.7,U2HA30
臺大內茅埔,23.689722,120.851117,-2.54,15.62,14.3,89.71,4.3,3.8,U2HA40
臺大竹山,23.756972,120.681556,-1.49,16.39,5.32,88.32,3.89,2.83,U2HA50
板橋,24.997647,121.442017,-0.61,16.32,9.46,86.89,11.31,5.95,466880
蘇澳,24.596736,121.857372,-0.68,16.74,9.92,91.64,32.77,21.63,467060
梧棲,24.256003,120.523381,-1.02,15.47,5.56,86.79,2.84,1.05,467770
富貴角,25.263783,121.565258,0.7,15.7,10.81,99.0,40.88,25.66,C0A920
三芝,25.258131,121.501917,-0.76,15.0,4.84,89.93,25.96,15.72,C0AD00
大園,25.04775,121.225958,-0.49,15.21,7.7,90.43,11.34,6.94,C0C540
關西,24.7982,121.1739,-0.36,15.12,3.83,87.93,9.93,5.84,C0D390
卓蘭,24.312764,120.824753,-0.24,15.82,10.22,95.11,5.61,4.06,C0E790
中竹林,24.103556,120.751061,0.76,17.2,17.41,100.0,4.46,3.29,C0F9A0
雲林東勢,23.674449,120.154778,-1.22,16.11,7.4,85.89,3.43,2.85,C0K520
馬頭山,23.324361,120.582017,-1.1,17.85,3.34,83.61,3.75,2.89,C0M410
曾文,23.219681,120.497328,-0.96,18.08,8.52,90.68,3.54,2.8,C0O810
玉井,23.126042,120.46055,-0.32,18.23,3.06,84.75,3.09,2.54,C0O930
安南,23.076694,120.144861,-1.31,17.19,9.02,91.32,2.89,2.3,C0O950
萬丹,22.587775,120.490394,-1.24,19.51,5.24,79.29,1.14,0.69,C0R510
林邊,22.430836,120.509983,0.19,20.46,-0.35,77.36,0.73,0.56,C0R530
甲仙,23.080106,120.591758,-0.99,17.85,5.43,85.57,2.95,2.35,C0V250
月眉,22.971003,120.539853,-0.87,18.75,9.9,85.71,1.95,1.41,C0V260
旗津,22.5886,120.285944,-2.12,18.32,5.82,79.61,0.77,0.27,C0V500
楠梓,22.71975,120.286,-1.39,17.96,9.25,83.64,1.14,0.77,C0V670
東引,26.358836,120.483631,-1.18,9.61,6.08,87.27,5.57,3.54,C0W170
七股,23.147289,120.086253,-1.58,16.38,14.91,93.79,2.38,2.09,C0X310
臺大竹山,23.756972,120.681556,-1.49,16.39,5.32,88.32,3.89,2.83,U2HA50
臺大內茅埔,23.689722,120.851117,-2.54,15.62,14.3,89.71,4.3,3.8,U2HA40
臺大和社,23.590856,120.888864,-2.31,14.42,11.89,86.93,4.89,4.7,U2HA30
臺大溪頭,23.670306,120.798194,-0.72,12.55,5.21,92.5,5.66,3.67,U2H480
種苗繁殖,24.225972,120.800917,-1.53,14.09,10.63,90.54,5.71,3.35,K2F750
苗改生物防治研究中心,24.422861,120.871833,-2.12,14.06,7.61,92.71,7.34,6.43,K2E710
苗栗農改,24.495722,120.829111,-1.06,14.66,7.91,92.18,7.7,4.94,K2E360
農試鳳山分所,22.646611,120.356083,-2.01,18.57,6.76,79.54,0.73,0.23,G2P820
農試溪口農場,23.58565,120.408111,-1.2,16.78,3.11,85.5,3.23,3.05,G2M350
農試嘉義分所,23.485028,120.473806,-1.57,16.1,2.7,84.36,3.14,2.26,G2L020
農業試驗所,24.031261,120.688133,-1.22,16.81,11.01,91.04,3.95,2.43,G2F820
林試太麻里1,22.598922,120.980044,-0.71,18.66,5.04,81.93,1.55,0.23,E2S980
林試太麻里2,22.598014,120.989761,-0.49,19.62,2.68,78.54,1.18,-0.73,E2S960
林試扇平站,22.9677,120.6857,-0.15,16.54,6.64,86.96,1.64,0.45,E2P990
林試六龜中心,22.991703,120.645722,-0.2,18.54,9.79,85.89,1.98,0.89,E2P980
四湖植物園,23.676986,120.163433,-2.93,16.07,4.02,86.54,2.93,2.41,E2K600
林試畢祿溪站,24.226944,121.308522,-0.58,6.87,10.95,86.36,12.45,10.67,E2HA20
蓮華池,23.918333,120.885278,-1.42,14.83,8.78,94.12,4.79,2.89,E2H360
畜試東區分所,24.669039,121.832561,-1.29,15.98,7.82,88.89,25.45,21.61,B2U990
畜試南區分所,21.945583,120.802167,-0.73,21.06,-0.29,74.5,0.91,-0.4,B2Q810
畜試所,23.058972,120.336406,-1.31,17.11,4.44,84.89,2.5,1.99,B2N890
畜試北區分所,24.527806,120.770972,-1.14,14.66,2.89,88.11,6.46,5.18,B2E890
臺南蘭花園區,23.340258,120.379661,-1.65,16.81,6.86,84.68,2.46,2.25,A2N290
臺大雲林校區,23.730628,120.423903,-1.78,15.89,8.14,87.07,2.93,2.68,A2K630
古坑花卉中心,23.63353,120.55239,-1.81,16.15,3.34,89.29,4.09,3.64,A2K570
水試臺西試驗場,23.717231,120.190522,-1.69,16.12,2.23,85.29,2.75,2.51,A2K360
農工中心,24.985917,121.239833,-1.0,14.76,5.51,86.57,8.3,3.95,A2C560
茶改東部分場,22.907694,121.130139,-0.57,17.99,1.29,83.21,2.36,1.43,82S580
茶改南部分場,23.762528,120.7405,-1.31,15.15,3.75,92.43,4.71,3.58,82H840
茶改中部分場,23.875611,120.913583,-1.26,14.86,9.05,92.29,4.77,3.19,82H320
茶改場,24.908472,121.185333,-0.73,14.29,4.37,90.21,11.77,6.77,82C160
茶改北部分場,24.955778,121.631222,-0.61,13.38,7.32,94.46,13.05,5.69,82A750
高改旗南分場,22.857861,120.516667,-1.85,18.42,10.23,83.64,1.54,1.17,72V140
花改蘭陽分場,24.686306,121.716583,-0.78,16.25,8.56,91.96,12.79,8.44,72U480
花蓮農改,23.975222,121.563889,-0.24,17.87,4.59,87.07,2.95,0.62,72T250
東改賓朗果園,22.813889,121.071278,-1.15,17.22,2.95,90.96,2.91,1.56,72S590
東改班鳩分場,22.829528,121.077694,-0.15,17.86,0.96,81.25,2.23,0.87,72S200
高雄農改,22.709333,120.525889,-1.28,19.36,3.02,81.14,1.07,0.73,72Q010
七股研究中心,23.081672,120.062894,-3.4,16.44,4.18,85.25,3.09,3.01,72N240
臺南農改,23.0605,120.342194,-1.79,17.0,8.31,88.68,1.39,0.97,72N100
南改鹿草分場,23.416869,120.283061,-2.94,16.32,4.16,84.75,2.41,2.2,72M700
南改義竹分場,23.360694,120.279361,-1.11,16.69,0.14,81.71,3.23,2.66,72M360
南改斗南分場,23.634556,120.477333,-1.08,16.64,4.44,86.04,3.41,2.43,72K220
中改埔里分場,23.903208,120.963364,-1.7,15.35,8.07,89.14,4.96,2.78,72HA00
臺中農改,24.003028,120.534389,-1.32,16.05,9.34,89.82,3.57,2.34,72G600
桃改五峰分場,24.612194,121.157167,-0.8,11.29,5.31,93.54,11.25,6.62,72D080
桃園農改,24.950944,121.030583,-0.52,14.98,2.27,87.57,8.73,5.39,72C440
桃改樹林分場,24.944503,121.386972,-1.64,15.66,9.36,85.36,9.61,7.88,72AI40
萬大發電廠,23.978875,121.139639,-1.71,14.18,13.77,91.43,5.96,4.19,42HA10
恆春工作站,22.079678,120.714425,-1.28,21.34,-2.32,65.29,0.36,0.12,12Q980
東港工作站,22.479997,120.466058,-2.39,19.73,4.04,70.32,1.04,0.96,12Q970
口湖工作站,23.589978,120.180394,-2.8,16.09,3.54,79.14,2.05,1.81,12J990
