站名,緯度,經度,平均溫距平,本年度平均溫,平均溼度距平,本年度日均相對溼度,本年度日均降水量,日均降水量距平,站號
淡水,25.164889,121.448906,1.03,27.27,1.18,81.33,5.53,-7.96,466900
鞍部,25.182586,121.529731,1.14,22.1,4.83,94.0,4.17,-13.1,466910
臺北,25.037658,121.514853,1.65,28.77,-3.13,72.67,1.17,-9.88,466920
竹子湖,25.162078,121.544547,1.26,23.83,4.1,89.67,3.33,-12.29,466930
基隆,25.133314,121.740475,0.88,27.0,0.23,79.67,6.33,-8.14,466940
花蓮,23.975128,121.613275,1.63,28.2,-1.44,79.33,0.03,-5.85,466990
新屋,25.006725,121.047492,-0.29,27.1,1.25,86.0,3.86,-10.68,467050
宜蘭,24.763975,121.756528,0.92,27.07,1.08,83.33,3.67,-5.07,467080
金門,24.407306,118.289281,0.2,25.13,7.49,93.0,3.23,-1.09,467110
田中,23.873803,120.581286,-1.55,27.8,5.75,86.0,13.5,13.5,467270
澎湖,23.565503,119.563094,0.89,27.87,3.45,88.0,3.2,-0.56,467350
臺南,22.99328,120.20492,-0.17,28.07,8.32,85.33,46.17,35.77,467410
永康,23.038386,120.2367,-0.22,27.8,11.48,86.67,58.17,50.24,467420
嘉義,23.495925,120.432906,0.46,28.07,5.2,84.33,27.67,16.68,467480
臺中,24.145736,120.684075,0.53,28.03,5.41,81.67,8.86,-3.42,467490
阿里山,23.508208,120.813242,1.29,15.2,6.04,97.0,14.36,-14.32,467530
大武,22.35572,120.90374,2.11,29.8,-4.23,73.0,9.2,-0.22,467540
玉山,23.48718,120.95943,2.72,9.57,10.34,94.33,5.86,-8.7,467550
新竹,24.827853,121.014219,1.26,28.17,1.62,79.0,3.33,-4.47,467571
恆春,22.003897,120.746339,0.26,28.43,8.98,87.33,6.0,-2.31,467590
成功,23.097486,121.373428,1.0,27.67,4.53,86.33,9.03,2.36,467610
日月潭,23.881325,120.90805,0.57,22.47,10.86,96.67,6.33,-10.55,467650
臺東,22.752211,121.154586,1.4,29.03,1.69,79.67,2.86,-4.22,467660
馬祖,26.169467,119.923158,1.53,24.3,3.92,91.33,21.39,15.51,467990
山佳,24.974944,121.402008,1.84,28.57,-4.91,77.33,0.5,-8.27,C0A520
坪林,24.938183,121.70975,2.49,26.37,-5.12,88.0,12.33,1.01,C0A530
泰平,24.971197,121.823711,1.38,24.23,-3.43,92.67,16.5,3.01,C0A550
桶後,24.848222,121.597992,2.15,25.63,-5.12,88.0,15.83,6.74,C0A570
石碇,24.993969,121.662917,1.29,25.77,-7.2,85.0,7.5,-11.02,C0A640
大坪,25.165914,121.632969,2.42,26.1,-4.18,86.0,9.0,-10.65,C0A860
五指山,25.132153,121.608692,2.69,24.3,-2.91,92.0,5.0,-8.74,C0A870
雙溪,25.036003,121.864242,2.25,27.27,-4.96,86.0,8.0,-4.0,C0A890
三和,25.233153,121.595236,1.14,26.65,-5.91,88.0,0.0,-28.91,C0A931
金山,25.223628,121.643967,0.95,26.37,-5.04,83.33,17.0,-0.08,C0A940
鼻頭角,25.129036,121.923372,1.15,26.63,-4.42,86.33,2.83,-6.92,C0A950
三貂角,25.007606,122.002058,1.44,26.73,-3.77,84.33,19.67,10.65,C0A970
社子,25.109508,121.469681,1.97,28.97,-2.56,78.67,2.0,-9.4,C0A980
天母,25.117494,121.537169,1.42,28.4,-4.44,73.0,2.83,-8.56,C0A9C0
內湖,25.079422,121.57545,2.14,29.1,-4.45,75.67,2.0,-9.23,C0A9F0
大屯山,25.175675,121.522408,2.77,22.63,2.42,98.33,4.33,-12.43,C0AC40
三峽,24.939025,121.369728,1.98,29.13,-2.81,79.67,0.67,-8.72,C0AC60
信義,25.037822,121.564597,1.8,28.77,-7.43,75.33,4.17,-7.71,C0AC70
文山,25.00235,121.575728,0.6,27.13,-6.63,79.33,3.83,-7.29,C0AC80
新莊,25.051478,121.446756,0.82,28.57,-4.09,72.33,3.17,-7.82,C0ACA0
八里,25.150211,121.403947,1.86,28.77,5.0,86.0,5.33,-5.99,C0AD10
蘆洲,25.086594,121.472331,1.3,29.17,-1.58,76.0,3.17,-7.61,C0AD30
土城,24.973208,121.445169,0.73,27.53,-3.21,80.33,2.33,-7.4,C0AD40
鶯歌,24.951533,121.346294,1.97,29.03,-2.86,81.33,1.0,-7.65,C0AD50
汐止,25.066881,121.658778,0.03,27.2,-6.1,79.33,5.0,-10.48,C0AH00
永和,25.01125,121.508111,0.86,29.07,-0.48,76.0,3.67,-9.05,C0AH10
五分山,25.07125,121.780794,2.55,24.73,-5.39,90.33,8.5,-13.14,C0AH30
平等,25.129142,121.577086,0.36,25.47,0.07,83.0,2.33,-20.24,C0AH40
松山,25.04871,121.55042,0.51,28.43,4.4,76.0,2.17,-1.07,C0AH70
深坑,25.002703,121.628328,0.59,27.1,-1.47,84.0,6.17,-0.4,C0AH80
福山植物園,24.760717,121.58135,0.39,23.2,-0.27,92.67,2.5,0.77,C0AH90
五股,25.07445,121.42728,-0.1,27.37,-7.67,81.0,3.33,0.83,C0AI00
屈尺,24.92184,121.54475,1.43,28.27,-0.27,85.33,1.83,-6.7,C0AI10
白沙灣,25.283128,121.519058,-0.54,26.53,7.77,87.67,7.83,4.88,C0AI20
三重,25.057328,121.500629,-0.75,29.23,1.27,79.67,1.17,0.07,C0AI30
石牌,25.115597,121.513139,-0.04,29.3,6.17,76.67,3.67,1.47,C0AI40
七堵,25.094819,121.71713,0.31,27.93,-4.8,83.0,9.0,2.0,C0B010
基隆嶼,25.19141,121.78391,-0.74,26.0,3.9,95.0,2.17,0.07,C0B020
復興,24.820208,121.352281,1.23,24.83,-2.68,85.33,2.33,-12.86,C0C460
桃園,24.992425,121.323172,1.52,28.43,-3.05,73.0,2.17,-9.84,C0C480
八德,24.928708,121.283289,0.26,27.57,-4.0,75.67,2.17,-6.46,C0C490
觀音,25.027072,121.153317,0.71,26.47,6.43,90.0,4.83,-8.24,C0C590
蘆竹,25.084275,121.265767,0.62,27.73,-1.69,81.0,4.83,-7.12,C0C620
大溪,24.882853,121.265547,1.25,26.6,-0.83,79.33,1.5,-8.58,C0C630
平鎮,24.897503,121.214636,1.64,26.97,-2.96,79.67,1.0,-8.92,C0C650
楊梅,24.912375,121.143047,-0.08,27.17,2.63,81.0,4.67,-5.86,C0C660
龍潭,24.870056,121.221389,0.17,26.7,1.17,80.0,3.0,-6.7,C0C670
龜山,25.02846,121.38656,-0.4,25.57,-3.6,78.0,2.33,-15.87,C0C680
中壢,24.977661,121.256375,0.21,27.53,1.27,76.33,2.5,0.63,C0C700
大溪永福,24.892936,121.324975,0.31,27.03,-1.17,82.33,0.5,-1.85,C0C710
梅花,24.678347,121.208558,1.23,24.53,-0.02,88.33,3.33,-6.53,C0D360
峨眉,24.6905,121.017189,0.58,27.47,0.78,86.33,1.33,-6.52,C0D430
打鐵坑,24.849664,121.150789,0.82,25.6,-4.07,83.33,0.33,-9.84,C0D480
橫山,24.71116,121.11693,0.8,25.8,8.09,95.33,2.5,-8.61,C0D540
雪霸,24.526972,121.11605,0.97,18.47,5.36,88.33,3.5,-12.7,C0D550
竹東,24.767147,121.057881,2.3,28.13,-11.0,67.0,4.17,-5.8,C0D560
寶山,24.735006,121.025192,1.26,26.67,-0.96,84.67,3.33,-7.11,C0D580
新豐,24.87068,120.97721,0.86,26.4,5.7,90.67,3.33,-5.72,C0D590
湖口,24.904794,121.043628,-0.08,27.23,-2.62,79.67,5.33,-4.61,C0D650
新竹市東區,24.798681,120.986942,-0.14,27.57,1.9,78.33,2.83,-4.47,C0D660
竹南,24.708978,120.888897,2.81,29.47,3.33,83.33,3.17,-4.93,C0E420
南庄,24.601775,121.000214,1.32,26.37,0.17,84.0,4.83,-5.6,C0E430
明德,24.583486,120.885411,0.98,28.43,-2.35,77.33,3.0,-2.7,C0E550
通霄,24.471892,120.704622,-0.19,27.43,3.29,85.67,3.67,-3.33,C0E590
馬都安,24.451272,120.930192,1.14,23.57,7.22,89.33,5.83,-6.94,C0E610
頭份,24.688247,120.912206,2.23,29.53,-0.61,75.33,2.0,-7.72,C0E730
造橋,24.637056,120.864778,0.3,28.17,-1.73,79.33,2.5,-4.87,C0E740
苗栗,24.564569,120.824575,-0.14,28.17,-2.09,73.0,2.17,-4.42,C0E750
銅鑼,24.489681,120.790853,-0.15,27.4,-1.05,81.0,1.33,-8.18,C0E780
西湖,24.562947,120.7485,0.08,27.27,0.4,86.33,2.67,-2.69,C0E810
獅潭,24.539133,120.920042,0.17,26.93,-2.49,80.67,4.5,-5.5,C0E820
苑裡,24.439714,120.653053,-0.73,27.57,3.08,82.33,5.67,-1.78,C0E830
大河,24.618069,120.948578,-1.27,26.17,-0.75,79.33,2.17,-10.41,C0E850
高鐵苗栗,24.60725,120.826094,-0.05,28.03,13.13,86.33,3.17,1.23,C0E870
石岡,24.276061,120.777644,0.39,27.1,2.73,84.33,5.17,-11.93,C0F0B0
中坑,24.248517,120.903319,-0.36,21.93,-0.92,91.33,12.5,-17.38,C0F0C0
審馬陣,24.381675,121.4203,1.04,11.57,9.27,95.67,1.67,-2.87,C0F0D0
東勢,24.246428,120.833047,0.84,27.33,2.11,80.67,8.33,-3.91,C0F850
大坑,24.173142,120.722289,0.83,28.97,6.07,81.0,4.33,-6.32,C0F970
神岡,24.272481,120.658314,-0.43,26.9,0.77,83.67,4.5,0.19,C0F9I0
大安,24.345061,120.588025,-0.52,27.37,2.38,85.67,12.67,9.02,C0F9K0
后里,24.310436,120.729725,0.26,27.77,1.96,83.33,2.83,-4.74,C0F9L0
豐原,24.254322,120.720692,0.78,28.43,2.29,80.33,3.67,-4.28,C0F9M0
大里,24.092464,120.701378,-0.28,28.8,8.6,82.0,13.17,2.69,C0F9N0
潭子,24.213106,120.703933,0.27,28.83,8.04,83.67,6.17,-3.36,C0F9O0
清水,24.312297,120.562242,-0.56,27.77,1.29,84.33,14.5,10.84,C0F9P0
外埔,24.347817,120.705686,0.02,27.37,0.0,84.33,3.33,-2.01,C0F9Q0
龍井,24.184536,120.528972,-0.39,27.87,-3.4,84.33,16.33,11.92,C0F9R0
烏日,24.107058,120.624103,-0.51,28.03,4.84,80.67,17.33,8.67,C0F9S0
西屯,24.179494,120.641275,-0.66,27.9,4.13,80.33,8.67,0.84,C0F9T0
南屯,24.137006,120.637969,-0.76,28.1,5.47,80.67,16.5,8.03,C0F9U0
新社,24.200172,120.815806,0.32,25.67,0.16,85.33,9.67,-4.5,C0F9V0
大雅(中科園區),24.21528,120.62445,-0.75,26.83,6.91,86.67,4.17,-4.71,C0F9X0
桃山,24.432739,121.303808,1.57,11.73,5.8,90.0,1.83,-24.04,C0F9Y0
雪山東峰,24.388792,121.268675,1.37,12.3,7.24,90.0,1.83,-24.37,C0F9Z0
芬園,24.015678,120.6213,-0.92,26.67,13.51,95.33,24.5,14.87,C0G620
員林,23.946503,120.585597,2.17,29.77,2.49,84.33,29.0,17.92,C0G650
溪州,23.851589,120.499093,0.03,27.87,-0.45,82.67,30.67,10.41,C0G720
二林,23.903325,120.376081,-0.2,27.7,2.29,90.33,17.83,-0.43,C0G730
大城,23.852487,120.320935,-0.13,27.7,3.72,87.0,14.33,-0.83,C0G740
福興,24.041289,120.437669,-0.34,28.43,-0.71,82.67,8.67,2.66,C0G770
秀水,24.03405,120.503869,-0.19,28.3,4.53,87.67,29.5,22.72,C0G780
埔心,23.947633,120.525456,0.95,29.63,5.04,83.67,34.5,23.0,C0G810
田尾,23.901669,120.509389,-0.02,28.33,5.18,89.67,32.5,18.77,C0G820
埤頭,23.866003,120.452806,-0.27,27.87,6.17,94.67,29.0,15.02,C0G830
社頭,23.897647,120.5862,-0.29,28.67,12.22,87.67,16.17,2.94,C0G860
伸港,24.148933,120.484403,-0.44,27.97,-0.2,83.33,13.17,9.04,C0G890
線西,24.143358,120.443536,-1.67,27.83,4.27,84.67,11.17,4.92,C0G900
花壇,24.032076,120.549461,0.11,29.73,16.6,90.0,33.0,33.0,C0G910
埔里,23.972169,120.952425,0.08,26.13,5.53,88.33,7.33,-28.23,C0H890
草屯,23.973672,120.68085,-0.68,27.5,7.8,85.0,11.0,0.79,C0H960
昆陽,24.121322,121.273642,1.66,11.6,6.28,99.0,6.33,-7.99,C0H990
神木村,23.532742,120.843667,1.34,19.9,6.33,96.33,4.5,-18.34,C0H9A0
合歡山,24.143442,121.272547,1.92,10.63,11.53,100.0,13.5,-11.51,C0H9C0
廬山,24.033311,121.181808,0.81,19.8,5.28,92.0,7.5,-14.02,C0I010
信義,23.689694,120.851036,0.14,25.0,5.6,91.0,4.67,-29.57,C0I080
竹山,23.761225,120.688156,0.78,27.53,7.01,87.67,12.67,-1.2,C0I110
水里,23.812553,120.849792,0.27,26.67,3.03,84.67,8.0,-25.46,C0I360
魚池,23.895703,120.94135,0.02,24.7,2.21,87.33,8.83,-25.87,C0I370
集集,23.828206,120.801467,-0.26,26.9,6.8,89.0,4.17,-29.09,C0I380
仁愛,24.022122,121.132206,0.67,21.93,0.2,89.0,6.67,-39.95,C0I390
名間,23.837053,120.701447,-0.87,26.57,11.48,91.0,7.67,-17.17,C0I410
國姓,24.037803,120.855072,-0.08,26.6,3.01,87.33,5.67,-26.23,C0I420
南投,23.911469,120.687331,-0.65,27.9,14.13,90.33,3.17,-21.39,C0I460
梅峰,24.085272,121.173572,0.93,16.47,3.23,94.67,11.67,-34.05,C0I480
萬大林道,23.928228,121.091411,0.4,19.5,0.8,93.0,8.17,-24.81,C0I490
小奇萊,24.131764,121.295717,1.67,11.5,6.2,99.33,6.17,-7.07,C0I530
崙背,23.75555,120.318925,-0.09,27.87,2.07,87.67,20.83,-1.99,C0K250
四湖,23.630414,120.227125,0.8,28.03,1.35,86.67,13.33,2.6,C0K280
宜梧,23.536281,120.169329,-0.07,28.17,0.04,85.0,8.17,-2.53,C0K291
虎尾,23.719183,120.442036,0.19,27.8,13.27,91.67,32.67,20.77,C0K330
土庫,23.679029,120.395574,-0.96,27.57,2.73,86.33,35.33,13.37,C0K390
斗六,23.720583,120.541127,-0.45,27.83,2.05,82.33,12.67,-13.01,C0K400
北港,23.573957,120.292802,-0.4,27.8,1.26,85.0,10.83,2.78,C0K410
西螺,23.800407,120.467394,-0.48,27.8,4.34,86.0,28.0,8.65,C0K420
褒忠,23.690938,120.303634,-0.19,27.67,1.46,87.0,18.17,-0.02,C0K430
二崙,23.772797,120.408944,-0.53,27.5,12.57,96.33,28.83,4.33,C0K440
大埤,23.646074,120.431537,-0.5,27.73,5.05,86.33,18.83,-6.41,C0K450
斗南,23.678734,120.478359,-0.55,27.77,7.41,85.33,21.33,-3.37,C0K460
林內,23.748675,120.609642,-0.46,27.27,4.57,86.33,12.0,-12.72,C0K470
莿桐,23.761192,120.502372,-0.51,27.5,6.25,86.33,20.33,-4.03,C0K480
元長,23.64981,120.315024,-0.4,27.93,4.63,86.67,30.83,11.59,C0K500
水林,23.572924,120.24597,-0.38,28.0,5.23,86.67,18.17,8.89,C0K510
臺西,23.701547,120.197559,-0.29,27.87,3.65,86.33,8.0,-12.7,C0K530
蔦松,23.514319,120.229736,-0.34,28.17,4.49,87.33,8.83,0.19,C0K550
棋山,23.68645,120.603417,-0.14,27.73,7.64,88.0,5.67,-29.69,C0K560
高鐵雲林,23.737456,120.417944,-1.28,27.23,7.2,89.0,25.67,22.47,C0K580
東後寮,23.369908,120.248065,-0.79,27.43,6.56,91.0,20.83,13.69,C0M520
奮起湖,23.493903,120.699253,1.13,20.53,5.52,98.0,21.5,-5.83,C0M530
中埔,23.42538,120.5229,-0.51,27.5,2.65,80.33,14.83,0.69,C0M640
朴子,23.43463,120.23902,-1.3,27.0,7.95,90.67,14.17,8.03,C0M650
溪口,23.604131,120.403569,-0.42,27.6,2.67,85.67,10.17,-5.67,C0M660
大林,23.600616,120.45841,-0.52,28.1,5.92,84.0,10.67,-11.85,C0M670
太保,23.455062,120.331455,-1.08,27.43,6.67,89.67,21.67,11.57,C0M680
水上,23.419734,120.388909,-0.68,27.6,4.61,86.33,29.5,20.78,C0M690
竹崎,23.526178,120.555508,-0.28,27.27,7.58,86.33,10.33,-3.03,C0M700
東石,23.458927,120.15385,-0.49,28.2,-1.38,83.33,9.5,1.35,C0M710
番路,23.464657,120.554156,-0.15,27.27,5.47,83.67,11.33,-6.83,C0M720
嘉義市東區,23.457673,120.460531,-0.85,28.17,7.73,84.33,20.83,11.23,C0M730
六腳,23.492871,120.290625,-0.54,27.83,6.68,86.33,17.0,8.03,C0M740
布袋,23.380878,120.167789,-0.53,28.13,4.83,87.67,14.5,8.2,C0M750
民雄,23.551754,120.428457,-0.76,27.9,5.53,85.33,12.17,-4.67,C0M760
嘉義梅山,23.585398,120.555587,-0.53,27.47,6.56,85.67,13.33,-10.32,C0M770
鹿草,23.41134,120.30835,-0.92,27.6,8.85,90.33,37.83,26.07,C0M780
新港,23.553269,120.345728,-0.94,27.5,6.07,86.67,12.33,-1.43,C0M790
茶山,23.299075,120.664767,-0.48,25.17,8.29,92.33,19.33,-21.25,C0M800
里佳,23.389125,120.716647,-0.06,20.47,7.05,95.33,21.83,-29.97,C0M810
達邦,23.453994,120.749517,0.77,22.9,7.65,92.33,9.5,-36.46,C0M820
表湖,23.24186,120.64166,-1.63,23.03,8.93,92.67,29.5,20.07,C0M850
新美,23.338017,120.683169,-0.89,24.73,15.33,91.33,19.0,18.0,C0M860
北寮,23.079561,120.495008,-1.31,26.8,12.75,94.67,56.17,46.48,C0O830
王爺宮,23.222064,120.40085,0.84,28.67,0.2,83.0,34.83,26.69,C0O840
大內,23.11885,120.36083,-0.57,28.4,9.43,90.33,40.67,35.18,C0O860
善化,23.112883,120.297219,-0.27,27.27,11.83,95.33,4.5,-4.65,C0O900
崎頂,22.959547,120.369317,-0.34,27.6,8.18,92.0,38.17,33.25,C0O960
虎頭埤,23.021375,120.347878,-1.41,26.73,3.5,86.33,56.17,49.24,C0O970
新市,23.061614,120.298197,-0.92,27.87,4.33,87.67,49.33,44.29,C0O980
媽廟,22.99175,120.293525,-1.27,27.53,10.37,92.67,42.33,36.96,C0O990
尾寮山,22.833111,120.683889,1.18,22.43,5.6,98.67,44.67,23.89,C0R100
阿禮,22.742908,120.743678,-0.71,21.47,4.08,91.0,29.5,10.96,C0R130
瑪家,22.682903,120.686639,-1.25,22.97,14.11,98.67,49.33,21.38,C0R140
三地門,22.709889,120.639944,-0.08,27.33,8.77,86.33,38.83,22.76,C0R150
鹽埔,22.739558,120.530778,-1.01,27.4,4.5,90.67,38.5,29.2,C0R160
赤山,22.592333,120.614306,-1.16,27.53,13.73,96.0,38.5,26.36,C0R190
潮州,22.534361,120.54,-0.24,27.77,10.23,88.0,34.0,22.57,C0R220
來義,22.527306,120.625111,-1.8,26.27,14.9,96.0,45.17,36.52,C0R240
春日,22.370361,120.628306,-2.47,26.03,12.62,93.33,53.33,46.73,C0R260
琉球嶼,22.332244,120.362236,-0.12,27.67,3.73,90.33,9.67,0.91,C0R270
車城,22.0744,120.716247,-1.1,28.1,8.2,90.0,22.17,22.17,C0R320
牡丹,22.130036,120.792639,-1.37,25.87,18.47,98.67,24.67,24.67,C0R341
貓鼻頭,21.921774,120.7358,0.32,27.97,3.27,88.67,10.5,4.19,C0R350
大漢山,22.405264,120.753181,0.72,18.7,5.8,100.0,87.33,87.33,C0R440
高樹,22.826389,120.600806,-1.55,27.2,5.9,81.67,39.67,28.55,C0R470
長治,22.693128,120.542622,-0.86,28.07,13.03,92.67,47.17,38.61,C0R480
九如,22.7405,120.490503,-0.86,27.87,5.23,87.67,41.83,34.19,C0R490
崁頂,22.514781,120.506914,-1.41,27.6,8.87,91.67,32.5,24.94,C0R520
佳冬,22.419456,120.552375,-1.42,27.4,9.37,91.67,46.83,39.96,C0R540
新埤,22.467947,120.582894,-1.4,27.4,3.77,86.67,56.0,49.84,C0R550
新園,22.5434,120.461558,-0.4,28.53,4.87,86.67,42.33,34.72,C0R560
麟洛,22.65078,120.52719,-0.86,28.27,11.5,90.0,49.83,41.22,C0R570
南州,22.48591,120.50274,-1.31,27.5,13.73,94.33,36.67,29.24,C0R580
里港,22.77919,120.49459,-1.26,27.33,8.83,89.67,36.17,29.17,C0R590
舊泰武,22.588194,120.664944,-1.13,23.2,11.63,96.33,60.17,37.3,C0R600
墾雷,21.900836,120.855269,-0.93,27.73,12.08,96.33,9.0,8.5,C0R620
東港,22.46247,120.44074,-1.23,27.77,6.37,90.67,39.0,38.07,C0R640
竹田,22.58486,120.54344,-1.62,27.77,8.7,88.0,42.33,41.68,C0R650
枋寮,22.367722,120.590647,-1.08,27.5,12.87,94.67,45.0,45.0,C0R660
楓港,22.190131,120.692156,-1.95,27.13,9.47,89.67,44.0,44.0,C0R670
佳樂水,21.993578,120.861633,-1.47,28.03,12.27,89.67,4.5,4.5,C0R680
墾丁,21.966756,120.810269,-1.15,26.03,8.33,96.33,6.0,6.0,C0R690
枋山,22.246844,120.661086,-0.86,27.6,8.73,90.33,47.67,47.57,C0R700
龍磐,21.931672,120.838942,-1.33,27.17,8.07,93.67,7.0,7.0,C0R710
旭海,22.205403,120.887614,-1.64,26.5,11.93,87.33,5.33,5.33,C0R720
大坪頂,22.024633,120.69355,-1.03,27.03,11.2,98.0,5.83,5.73,C0R730
四林格山,22.076989,120.802439,-0.66,24.1,4.87,99.67,32.5,32.5,C0R750
南仁湖,22.084681,120.863353,-1.55,25.27,17.73,99.33,25.67,25.67,C0R760
保力,22.071122,120.764111,-0.94,26.9,10.07,94.67,23.5,23.5,C0R770
滿州,22.024403,120.839892,-1.35,27.57,11.07,88.67,6.5,6.4,C0R780
九棚,22.14195,120.889281,-1.94,27.5,16.27,85.67,9.17,9.17,C0R790
丹路,22.204481,120.750989,-1.26,26.8,12.33,93.33,70.83,70.83,C0R800
內獅,22.305064,120.642986,-0.97,27.53,19.33,99.33,66.33,66.23,C0R810
白鷺,22.454275,120.666219,-0.85,24.23,9.6,96.0,85.5,85.5,C0R820
高士,22.121825,120.836781,-1.77,24.87,17.13,97.33,20.33,20.33,C0R830
牡丹池山,22.168389,120.841225,-1.71,23.83,16.4,99.0,24.33,24.33,C0R840
下馬,23.150427,121.070312,1.42,25.03,6.17,86.67,11.5,11.12,C0S660
太麻里,22.60902,120.98533,2.54,26.15,2.4,87.0,0.0,-7.8,C0S690
知本,22.684866,121.005642,2.59,26.4,5.27,89.67,40.33,30.53,C0S700
鹿野,22.917711,121.122994,2.29,26.63,8.33,87.33,6.0,-1.34,C0S710
綠島,22.6672,121.47533,1.52,28.07,-0.2,86.0,11.0,6.69,C0S730
池上,23.119628,121.209469,1.99,27.03,5.27,87.67,8.17,2.57,C0S740
向陽,23.248397,120.986133,2.8,17.7,21.67,87.67,1.83,-16.48,C0S750
大溪山,22.478475,120.943325,2.7,27.03,-4.93,81.67,4.0,-4.54,C0S770
金崙,22.538122,120.966875,2.57,28.83,0.6,78.0,4.0,-3.36,C0S790
東河,22.972672,121.303986,0.67,28.13,5.73,88.33,7.33,0.65,C0S810
長濱,23.286817,121.411975,1.68,27.23,5.6,87.0,24.17,16.72,C0S830
南田,22.279725,120.889208,1.39,28.97,1.93,76.33,5.17,-6.83,C0S840
關山,23.0395,121.175017,0.75,27.57,7.87,86.67,15.17,2.64,C0S890
蘭嶼高中,22.04909,121.51214,-0.75,28.7,11.8,90.0,1.5,1.5,C0S900
蘭嶼燈塔,22.081197,121.503117,-0.92,26.83,13.17,95.67,1.33,1.33,C0S910
金峰嘉蘭,22.594789,120.960825,0.08,28.9,4.2,80.0,15.5,9.3,C0S920
延平,22.902581,121.084058,-0.35,27.57,9.93,83.33,15.67,14.77,C0S930
石寧山,23.223772,121.406639,-0.23,28.27,4.47,86.67,27.33,27.18,C0S940
七塊厝,22.954453,121.229922,0.41,27.27,-2.33,81.67,8.67,6.22,C0S950
香蘭,22.587569,120.993375,0.3,29.4,8.0,82.0,12.5,12.5,C0S960
加津林,22.416211,120.926942,0.58,29.2,1.27,77.67,2.83,2.78,C0S970
勝林山,22.430439,120.8938,-1.74,23.4,12.47,91.67,2.5,2.3,C0S980
山豬窟,22.318619,120.857372,-1.59,26.27,11.93,85.33,4.67,4.67,C0S990
歷坵,22.520969,120.89185,0.91,26.97,-0.53,82.67,10.67,10.32,C0SA00
檳榔四格山,22.810031,121.109308,-0.05,26.83,4.4,87.0,3.67,2.52,C0SA10
金崙山,22.567419,120.959667,1.45,25.97,-4.2,80.0,23.33,23.33,C0SA20
都歷,23.020333,121.323642,-0.5,27.9,3.73,82.33,9.33,5.03,C0SA30
瑞和,22.974361,121.156697,-0.65,27.67,6.33,83.33,11.83,9.03,C0SA40
知本（水試所）,22.702394,121.082761,-0.33,28.77,6.27,83.67,5.83,5.83,C0SA60
土坂,22.453108,120.887572,1.31,29.33,1.17,76.67,6.5,6.5,C0SA80
達仁林場,22.264347,120.823972,-1.55,24.83,16.93,93.33,29.33,29.33,C0SA90
大禹嶺,24.186117,121.316086,1.39,13.83,7.22,90.67,2.0,-8.93,C0T790
天祥,24.179597,121.495639,2.02,25.1,0.33,82.0,0.0,-3.84,C0T820
鯉魚潭,23.935639,121.508944,1.34,26.07,-1.07,89.67,1.67,-4.81,C0T870
西林,23.8119,121.441458,1.69,27.2,2.83,86.67,0.83,-6.1,C0T900
光復,23.660694,121.424964,2.16,27.7,-6.8,83.67,11.83,5.43,C0T960
月眉山,23.809928,121.539828,2.89,26.03,-7.18,87.67,1.17,-5.52,C0T9A0
水源,23.991861,121.537169,2.18,24.77,-4.93,90.0,1.5,-4.72,C0T9B0
和中,24.26676,121.74103,1.35,27.47,9.0,100.0,0.0,-8.4,C0T9D0
大坑,23.880628,121.581981,1.76,25.6,0.07,90.33,0.33,-7.7,C0T9E0
水璉,23.797131,121.542514,1.29,26.7,0.53,89.0,1.0,-5.0,C0T9F0
鳳林山,23.735269,121.420131,1.12,24.9,-4.07,92.0,3.67,-4.38,C0T9G0
加路蘭山,23.682947,121.5274,2.72,25.43,2.0,97.0,5.83,-2.12,C0T9H0
豐濱,23.583897,121.514806,1.89,27.03,-6.0,85.33,5.83,-1.71,C0T9I0
靜浦,23.455167,121.495028,1.84,27.57,6.73,91.33,8.5,2.74,C0T9M0
富里,23.171639,121.249378,-0.35,27.47,19.2,99.0,5.17,4.02,C0T9N0
雙連埤,24.753033,121.641303,0.58,23.63,-6.47,90.0,2.17,-10.84,C0U520
礁溪,24.817539,121.765608,1.23,27.07,-7.0,81.33,2.5,-6.73,C0U600
玉蘭,24.675286,121.587061,1.84,25.33,-8.07,81.67,3.67,-5.84,C0U650
太平山,24.505486,121.525656,2.44,18.93,-3.13,89.67,0.83,-7.59,C0U710
南山,24.43742,121.38167,1.11,22.47,-9.2,83.0,0.5,-6.2,C0U720
龜山島,24.841667,121.953133,0.54,24.43,-9.0,87.0,2.5,-2.48,C0U750
東澳,24.52196,121.83318,1.33,27.47,-9.2,81.33,0.17,-10.9,C0U760
南澳,24.44935,121.81022,1.17,27.57,-4.07,83.67,0.0,-8.16,C0U770
五結,24.68637,121.79794,-0.17,26.83,-4.2,83.0,2.67,-4.67,C0U780
頭城,24.85323,121.8308,-0.5,26.73,-2.4,86.67,7.0,-2.5,C0U860
大礁溪,24.791042,121.675047,0.83,25.0,-1.6,88.67,2.0,-2.3,C0U870
三星,24.66812,121.65302,0.31,26.6,-10.47,80.67,0.83,-7.97,C0U890
內城,24.71813,121.68766,0.75,27.17,-6.73,83.0,1.67,-4.6,C0U900
冬山,24.63373,121.7937,0.36,27.1,-2.87,81.0,7.33,3.3,C0U910
羅東,24.68184,121.74934,0.6,27.4,-2.0,83.0,0.5,-4.07,C0U940
鶯子嶺,24.89754,121.79244,1.19,22.07,-10.4,86.67,12.17,6.07,C0U950
翠峰湖,24.510856,121.608044,1.43,18.4,0.0,92.67,1.83,-4.93,C0U960
大福,24.80064,121.81389,-0.05,26.27,-1.33,83.67,3.67,-2.3,C0U970
坪林石牌,24.86478,121.77396,0.61,23.97,-3.4,91.33,8.0,4.57,C0U980
員山,24.74435,121.72247,0.2,27.13,-0.33,84.67,4.83,-0.83,C0U990
土場,24.576533,121.495333,0.31,25.47,-6.93,83.67,0.83,-4.03,C0UA00
鴛鴦湖,24.590269,121.412228,1.25,19.07,-0.2,95.0,4.5,-2.57,C0UA10
白嶺,24.527819,121.519031,1.67,21.63,-6.73,89.0,0.33,-6.93,C0UA30
西德山,24.560647,121.752608,1.47,22.3,-2.13,93.0,6.17,0.77,C0UA40
西帽山,24.555361,121.802628,1.47,24.0,-10.87,84.33,6.83,0.6,C0UA50
樟樹山,24.41393,121.78325,1.01,25.13,-5.27,83.33,0.0,-2.53,C0UA60
桃源谷,24.962606,121.888875,0.81,24.3,-6.0,91.33,20.5,12.4,C0UA70
復興,23.222403,120.806089,0.36,24.1,8.04,89.67,18.5,-9.64,C0V210
溪埔,22.738578,120.446797,-1.43,27.1,14.0,94.0,40.33,32.93,C0V350
內門,22.975481,120.466769,-0.05,27.53,7.07,89.67,69.17,59.87,C0V360
古亭坑,22.893178,120.401947,-0.17,26.8,7.56,91.0,47.0,36.3,C0V370
阿公店,22.804194,120.355528,-1.08,27.27,8.03,91.33,35.17,29.11,C0V400
鳳森,22.545064,120.392592,-1.49,27.23,7.44,90.33,42.83,36.18,C0V450
新興,22.627422,120.298803,-0.74,28.13,5.27,85.33,41.67,36.52,C0V490
阿蓮,22.883208,120.327508,-1.22,27.77,8.2,88.67,25.33,16.73,C0V530
梓官,22.760558,120.267211,-1.25,27.83,6.1,87.33,37.17,31.05,C0V610
永安,22.82315,120.236856,-1.05,27.87,3.1,87.0,23.0,14.41,C0V620
茄萣,22.906642,120.182608,-0.58,28.47,8.33,87.33,48.83,41.19,C0V630
湖內,22.887139,120.2445,-1.42,27.5,5.53,86.67,37.0,28.99,C0V640
彌陀,22.783806,120.246361,-0.6,28.33,5.33,90.33,28.5,21.27,C0V650
岡山,22.797078,120.294958,-1.0,28.43,8.9,88.0,40.83,34.43,C0V660
仁武,22.701083,120.347722,-0.92,28.6,8.87,88.67,42.67,35.04,C0V680
鼓山,22.623325,120.275575,-1.12,27.97,5.73,87.67,41.0,35.64,C0V690
三民,22.645017,120.311233,-1.48,28.23,10.6,84.0,43.5,37.23,C0V700
苓雅,22.622742,120.330669,-0.92,28.53,15.63,88.33,45.67,39.75,C0V710
林園,22.507747,120.394511,-1.16,28.5,13.58,89.67,39.67,34.08,C0V720
大寮,22.605614,120.395717,-2.03,27.4,17.87,94.67,42.17,34.65,C0V730
旗山,22.888614,120.483597,-0.28,28.1,5.6,84.67,77.67,67.71,C0V740
路竹,22.854997,120.259439,-0.46,28.73,6.27,86.0,29.5,18.11,C0V750
橋頭,22.757806,120.30575,-0.82,28.53,4.3,84.33,41.17,35.65,C0V760
大社,22.730306,120.346639,-1.22,28.2,13.53,90.67,45.33,40.1,C0V770
六龜,22.997889,120.633583,-0.59,26.7,10.0,89.0,58.0,38.07,C0V800
左營,22.67491,120.28491,-1.49,27.53,5.92,87.67,43.33,35.41,C0V810
小林,23.148408,120.63325,-0.96,25.23,15.6,94.0,39.5,38.3,C0V820
花嶼,23.40007,119.32276,0.57,26.83,3.15,93.0,1.67,-2.71,C0W130
金沙,24.488292,118.408778,0.06,25.83,-0.6,88.0,2.83,0.23,C0W140
金寧,24.457703,118.328989,-0.9,25.63,-2.1,88.0,1.83,-1.12,C0W150
東河,23.296598,120.385608,-1.38,27.3,5.23,85.67,24.17,15.43,C0X050
下營,23.22695,120.256261,-1.19,27.43,4.55,86.67,19.17,14.07,C0X060
佳里,23.173039,120.145086,0.51,28.37,8.51,91.67,19.33,12.27,C0X080
臺南市北區,23.010394,120.194228,-1.25,28.4,12.5,87.33,34.17,30.05,C0X100
臺南市南區,22.961189,120.188378,-0.81,28.57,7.01,87.67,40.83,35.53,C0X110
麻豆,23.183289,120.248611,-0.97,28.2,9.02,90.33,19.17,14.08,C0X120
官田,23.193217,120.315422,-1.46,27.6,15.26,94.0,26.17,20.62,C0X130
西港,23.125608,120.203108,-1.69,27.67,7.8,87.0,38.83,32.93,C0X140
安定,23.102614,120.227839,-1.2,27.93,10.33,91.33,51.33,46.71,C0X150
仁德,22.968258,120.257689,-0.89,28.23,10.01,88.67,42.67,38.13,C0X160
關廟,22.963017,120.327797,-1.62,27.67,16.27,91.67,35.0,29.77,C0X170
山上,23.0757,120.363253,-1.36,27.2,9.23,89.0,44.83,38.25,C0X180
安平,22.993161,120.152181,-0.95,28.3,2.18,84.67,34.67,29.9,C0X190
左鎮,23.056758,120.408522,-0.24,27.73,5.25,88.33,55.5,47.98,C0X200
白河,23.347466,120.414427,-0.95,27.5,7.64,87.0,21.5,12.7,C0X210
學甲,23.230367,120.182187,-0.84,27.67,8.41,88.0,12.5,8.4,C0X220
鹽水,23.272621,120.247641,-1.16,27.33,8.21,89.33,18.5,13.06,C0X230
關子嶺,23.331169,120.508025,-0.21,25.97,8.2,92.0,22.5,5.58,C0X240
新營,23.310689,120.316681,-1.37,27.67,10.11,88.0,28.83,20.28,C0X250
後壁,23.366358,120.362326,-0.83,27.63,6.12,87.0,25.83,19.27,C0X260
將軍,23.214999,120.13577,-0.59,27.93,5.81,87.33,9.83,4.67,C0X280
北門,23.267772,120.125481,-0.62,28.03,0.15,85.67,13.83,10.29,C0X290
鹿寮,23.386047,120.477331,-0.38,27.47,2.25,85.33,21.33,10.27,C0X300
柳營,23.253328,120.375253,-1.8,27.2,14.13,89.33,27.67,27.67,C0X320
明里,23.208717,121.262342,1.05,27.0,-0.53,89.33,9.17,0.98,C0Z020
佳心,23.34567,121.21316,2.2,23.83,10.67,97.33,25.17,19.97,C0Z050
玉里,23.3215,121.339656,2.22,28.1,3.2,93.0,32.17,22.01,C0Z061
舞鶴,23.46811,121.37407,2.42,27.03,6.27,99.33,23.67,18.21,C0Z070
富源,23.587642,121.378225,1.43,27.07,-3.13,87.67,20.33,11.58,C0Z080
東華,23.89525,121.549833,0.82,27.8,0.6,87.67,0.17,-4.77,C0Z100
吉安光華,23.930925,121.595153,0.71,27.43,-4.4,84.0,0.0,-2.83,C0Z150
鳳林,23.746114,121.453411,0.83,27.17,-3.93,81.33,6.33,-7.07,C0Z160
卓溪,23.3443,121.3029,0.46,27.7,-3.0,79.67,30.5,18.4,C0Z170
新城,24.040486,121.604878,0.56,27.47,14.27,98.33,0.0,-3.57,C0Z180
富世,24.14743,121.6297,0.67,27.7,-5.33,83.33,0.67,-0.53,C0Z190
萬榮,23.709219,121.420106,1.21,27.17,-6.87,82.67,2.0,-6.3,C0Z200
瑞穗,23.5239,121.39021,1.49,27.73,-1.73,85.33,13.5,6.47,C0Z210
和平林道,24.343922,121.656317,0.85,24.77,-8.8,85.33,0.33,-2.37,C0Z220
和平,24.30717,121.77007,-0.15,26.87,-5.2,80.33,0.0,-2.5,C0Z230
瑞穗林道,23.49284,121.30688,1.3,22.67,1.13,96.67,18.5,4.93,C0Z250
蕃薯寮,23.73835,121.540108,1.06,25.9,-7.47,87.0,3.67,-3.13,C0Z270
德武,23.47426,121.41071,1.25,27.4,-2.53,85.33,22.0,18.97,C0Z280
赤柯山,23.36893,121.38293,1.41,23.77,-1.67,90.0,27.0,22.17,C0Z290
東里,23.26853,121.30547,1.09,27.77,-4.87,83.33,39.33,34.3,C0Z300
清水斷崖,24.218294,121.689142,0.05,26.93,-5.4,85.0,0.17,-3.23,C0Z310
清水林道,23.27125,121.188272,1.09,25.13,-0.47,85.0,24.33,15.37,C0Z320
安通山,23.290728,121.348528,0.87,25.97,2.13,89.0,35.0,33.71,C0Z330
口湖工作站,23.589978,120.180394,-0.3,27.93,4.23,80.33,8.0,5.3,12J990
東港工作站,22.479997,120.466058,-1.52,27.67,10.0,79.0,33.17,32.09,12Q970
萬大發電廠,23.978875,121.139639,0.63,22.2,-4.22,87.67,7.67,2.59,42HA10
桃改樹林分場,24.944503,121.386972,-1.11,27.47,-1.73,75.67,1.0,0.3,72AI40
桃園農改場,24.950944,121.030583,1.33,27.23,1.28,85.33,4.33,-1.91,72C440
桃改五峰分場,24.612194,121.157167,2.06,23.03,-0.19,88.67,0.0,-10.06,72D080
臺中農改場,24.003028,120.534389,0.36,27.47,7.67,91.0,40.17,31.85,72G600
中改埔里分場,23.903208,120.963364,0.5,24.4,4.1,93.0,9.67,-6.88,72HA00
南改斗南分場,23.634556,120.477333,0.74,28.0,3.57,87.33,9.0,-3.16,72K220
南改義竹分場,23.360694,120.279361,-0.19,27.3,1.43,86.67,24.67,16.26,72M360
南改鹿草分場,23.416869,120.283061,-0.83,27.57,10.83,91.33,21.5,11.25,72M700
臺南農改場,23.0605,120.342194,-0.66,26.9,11.42,94.0,39.33,31.05,72N100
七股研究中心,23.081672,120.062894,-0.3,28.53,4.87,86.67,24.83,18.73,72N240
高雄農改場,22.709333,120.525889,-0.98,27.1,13.81,94.67,45.33,34.16,72Q010
東改班鳩分場,22.829528,121.077694,1.7,27.07,-1.95,82.67,0.0,-9.0,72S200
花蓮農改場,23.975222,121.563889,1.89,27.63,-4.2,81.0,0.0,-5.24,72T250
花改蘭陽分場,24.686306,121.716583,1.27,27.03,-2.94,83.0,1.17,-4.97,72U480
高改旗南分場,22.857861,120.516667,-1.63,26.87,16.25,92.0,12.0,2.8,72V140
茶改北部分場,24.955778,121.631222,1.86,25.13,-1.28,85.33,5.83,-7.12,82A750
茶改場,24.908472,121.185333,1.45,26.9,-3.88,80.0,2.83,-5.53,82C160
茶改中部分場,23.875611,120.913583,-0.12,22.77,4.42,93.67,6.83,-10.11,82H320
茶改南部分場,23.762528,120.7405,0.09,25.37,3.58,91.0,0.0,-16.32,82H840
茶改東部分場,22.907694,121.130139,1.41,27.73,-2.14,82.67,5.17,-1.37,82S580
農工中心,24.985917,121.239833,1.87,27.5,1.85,78.33,3.83,-2.58,A2C560
水試臺西試驗場,23.717231,120.190522,0.07,28.23,7.52,89.67,0.0,-3.47,A2K360
臺大雲林校區,23.730628,120.423903,-1.18,27.4,9.13,88.33,28.67,28.67,A2K630
臺南蘭花園區,23.340258,120.379661,-1.17,27.33,10.53,90.33,21.33,21.33,A2N290
畜產試驗所,23.058972,120.336406,-0.75,26.63,9.37,93.67,41.67,29.87,B2N890
畜試南區分所,21.945583,120.802167,-0.35,27.53,4.06,85.67,5.33,-1.32,B2Q810
畜試東區分所,24.669039,121.832561,-0.73,26.73,4.2,91.0,2.67,-5.63,B2U990
蓮華池,23.918333,120.885278,-0.38,23.97,8.13,92.0,6.33,-7.22,E2H360
林試畢祿溪站,24.226944,121.308522,-0.23,15.97,16.67,92.67,2.83,2.83,E2HA20
四湖植物園,23.676986,120.163433,-0.02,28.27,11.2,96.0,6.17,1.77,E2K600
林試六龜中心,22.991703,120.645722,-1.68,25.8,17.33,93.33,49.83,49.83,E2P980
林試太麻里2,22.598,120.99775,0.49,29.13,0.2,76.0,1.5,1.5,E2S960
林試太麻里1,22.598922,120.980044,0.57,28.83,2.27,78.67,14.67,14.67,E2S980
農試所(霧峰),24.031261,120.688133,1.23,28.4,-7.62,75.67,17.0,6.78,G2F820
農試嘉義分所,23.485028,120.473806,0.33,27.5,7.55,88.67,20.0,11.12,G2L020
農試溪口農場,23.58565,120.408111,-0.13,27.63,6.23,87.33,11.17,8.42,G2M350
農試鳳山分所,22.646611,120.356083,-1.37,27.03,14.6,91.33,37.0,25.59,G2P820
苗栗農改場,24.495722,120.829111,0.93,27.6,-0.96,78.67,1.33,-9.03,K2E360
苗改生物防治研究中心,24.422861,120.871833,-0.08,26.23,2.8,82.67,4.17,2.53,K2E710
種苗改良場,24.225972,120.800917,0.91,25.73,11.1,92.67,8.5,-4.0,K2F750
臺大和社,23.590856,120.888864,1.58,24.07,6.13,93.33,2.17,-2.73,U2HA30
臺大內茅埔,23.689722,120.851117,0.62,24.93,5.21,90.33,4.33,1.83,U2HA40
臺大竹山,23.756972,120.681556,-0.31,27.37,7.47,85.33,10.5,0.33,U2HA50
