站名,緯度,經度,平均溫距平,本年度平均溫,平均溼度距平,本年度日均相對溼度,本年度日均降水量,日均降水量距平,站號
淡水,25.164889,121.448906,0.88,24.8,-7.06,70.67,0.0,-5.3,466900
鞍部,25.182586,121.529731,-0.04,18.7,-4.85,80.67,0.06,-7.56,466910
臺北,25.037658,121.514853,0.75,25.63,-8.54,64.0,0.0,-5.94,466920
竹子湖,25.162078,121.544547,0.34,20.67,-5.49,77.0,0.0,-6.19,466930
基隆,25.133314,121.740475,0.55,24.6,-3.89,71.0,0.0,-7.49,466940
花蓮,23.975128,121.613275,0.03,24.3,-5.2,74.33,0.33,-4.2,466990
新屋,25.006725,121.047492,0.82,24.97,-1.12,79.0,0.0,-4.34,467050
宜蘭,24.763975,121.756528,-0.09,23.67,-1.44,79.33,0.03,-6.23,467080
金門,24.407306,118.289281,1.46,23.6,3.43,84.0,0.0,-1.71,467110
田中,23.873803,120.581286,-2.6,25.0,-3.25,69.0,0.0,0.0,467270
澎湖,23.565503,119.563094,-0.26,24.93,1.96,83.0,0.0,-1.32,467350
臺南,22.99328,120.20492,0.24,27.23,-8.14,65.33,0.0,-1.89,467410
永康,23.038386,120.2367,0.49,27.13,-5.33,66.67,0.0,-2.18,467420
嘉義,23.495925,120.432906,-0.19,25.53,-5.75,73.0,0.0,-2.61,467480
臺中,24.145736,120.684075,-0.45,25.33,-5.37,68.33,0.0,-4.4,467490
阿里山,23.508208,120.813242,-0.67,11.83,-3.38,83.67,0.0,-11.16,467530
大武,22.35572,120.90374,-0.32,25.8,0.31,75.0,0.03,-2.63,467540
玉山,23.48718,120.95943,0.87,5.7,-4.17,78.0,0.0,-8.91,467550
新竹,24.827853,121.014219,0.48,24.9,-3.0,73.0,0.0,-5.82,467571
恆春,22.003897,120.746339,-0.03,26.83,-1.77,71.33,0.03,-2.88,467590
成功,23.097486,121.373428,-0.09,24.53,-2.27,78.33,2.23,-2.3,467610
日月潭,23.881325,120.90805,-0.7,19.7,3.65,87.0,0.0,-7.89,467650
臺東,22.752211,121.154586,-0.12,25.53,-1.61,75.0,0.03,-2.03,467660
馬祖,26.169467,119.923158,1.07,21.03,4.42,90.0,0.06,-4.2,467990
山佳,24.974944,121.402008,0.69,25.2,-5.63,70.67,0.0,-5.47,C0A520
坪林,24.938183,121.70975,0.92,22.43,-5.86,83.67,0.0,-7.92,C0A530
泰平,24.971197,121.823711,0.07,20.5,-4.12,89.33,0.0,-9.19,C0A550
桶後,24.848222,121.597992,-0.24,20.8,-4.62,86.0,0.0,-8.98,C0A570
石碇,24.993969,121.662917,0.91,22.63,-9.82,77.0,0.0,-6.94,C0A640
大坪,25.165914,121.632969,0.98,22.43,-9.97,78.67,0.0,-7.93,C0A860
五指山,25.132153,121.608692,1.4,20.77,-9.42,82.33,0.0,-6.21,C0A870
雙溪,25.036003,121.864242,1.2,23.83,-6.67,81.67,0.33,-7.26,C0A890
三和,25.233153,121.595236,0.21,22.37,-8.6,80.33,0.0,-6.77,C0A931
金山,25.223628,121.643967,0.78,23.97,-12.48,70.33,0.0,-8.06,C0A940
鼻頭角,25.129036,121.923372,1.83,25.0,-9.23,77.33,0.0,-2.89,C0A950
三貂角,25.007606,122.002058,1.64,24.63,-4.97,78.67,0.0,-7.46,C0A970
社子,25.109508,121.469681,1.47,26.07,-3.88,71.67,0.0,-5.52,C0A980
天母,25.117494,121.537169,0.59,25.17,-9.1,64.0,0.0,-5.04,C0A9C0
內湖,25.079422,121.57545,1.62,26.37,-10.58,63.67,0.0,-4.29,C0A9F0
大屯山,25.175675,121.522408,1.55,18.73,-3.33,90.33,0.0,-6.12,C0AC40
三峽,24.939025,121.369728,2.06,26.2,-4.02,72.67,0.0,-6.03,C0AC60
文山,25.00235,121.575728,0.21,23.9,-7.14,73.0,0.0,-6.55,C0AC80
新莊,25.051478,121.446756,0.97,25.7,-9.02,62.67,0.0,-5.78,C0ACA0
八里,25.150211,121.403947,2.23,26.43,-2.56,73.67,0.0,-7.17,C0AD10
蘆洲,25.086594,121.472331,1.73,26.6,-6.07,67.0,0.0,-5.43,C0AD30
土城,24.973208,121.445169,0.45,24.27,-1.57,76.0,0.0,-6.24,C0AD40
鶯歌,24.951533,121.346294,1.95,25.9,-7.98,72.33,0.0,-6.05,C0AD50
汐止,25.066881,121.658778,1.15,24.83,-14.64,67.0,0.0,-6.96,C0AH00
永和,25.01125,121.508111,1.1,25.93,-4.0,69.0,0.0,-4.45,C0AH10
五分山,25.07125,121.780794,1.11,20.5,-6.52,86.33,0.0,-5.25,C0AH30
平等,25.129142,121.577086,0.24,22.33,-12.42,71.33,0.0,-3.75,C0AH40
松山,25.04871,121.55042,0.55,25.73,-2.75,63.0,0.0,-4.96,C0AH70
深坑,25.002703,121.628328,1.31,24.33,-4.5,76.67,0.0,-5.88,C0AH80
福山植物園,24.760717,121.58135,-0.72,17.93,1.33,94.33,0.5,-8.79,C0AH90
五股,25.07445,121.42728,1.07,23.67,-11.62,73.0,0.0,-6.75,C0AI00
屈尺,24.92184,121.54475,0.62,24.27,-0.25,79.33,0.0,-8.46,C0AI10
白沙灣,25.283128,121.519058,1.39,24.3,1.71,77.33,0.0,-9.5,C0AI20
三重,25.057328,121.500629,-1.4,26.0,-5.42,71.33,0.0,0.0,C0AI30
石牌,25.115597,121.513139,2.31,27.0,-5.21,63.67,0.0,-6.5,C0AI40
七堵,25.094819,121.71713,2.41,25.6,-10.79,73.33,0.0,-7.94,C0B010
基隆嶼,25.19141,121.78391,1.02,24.13,2.0,86.0,0.0,-11.75,C0B020
復興,24.820208,121.352281,0.27,21.53,-5.35,76.67,0.0,-7.2,C0C460
桃園,24.992425,121.323172,1.27,25.47,-5.97,64.67,0.0,-5.56,C0C480
八德,24.928708,121.283289,1.3,24.97,-11.08,65.67,0.0,-7.61,C0C490
觀音,25.027072,121.153317,0.66,23.97,2.76,81.33,0.0,-4.73,C0C590
蘆竹,25.084275,121.265767,1.08,24.83,-5.39,73.33,0.0,-6.38,C0C620
大溪,24.882853,121.265547,0.96,23.8,-2.88,71.67,0.0,-4.75,C0C630
平鎮,24.897503,121.214636,1.43,24.1,-7.22,70.67,0.0,-5.26,C0C650
楊梅,24.912375,121.143047,0.7,24.53,-5.13,70.33,0.0,-6.02,C0C660
龍潭,24.870056,121.221389,0.83,23.8,-4.88,72.33,0.0,-5.64,C0C670
龜山,25.02846,121.38656,0.12,23.07,-7.06,69.0,0.0,-3.91,C0C680
中壢,24.977661,121.256375,1.23,24.8,-7.0,66.0,0.0,-5.96,C0C700
大溪永福,24.892936,121.324975,1.25,23.4,-3.08,78.67,0.0,-13.12,C0C710
梅花,24.678347,121.208558,-0.04,21.1,-3.34,84.0,0.33,-8.12,C0D360
峨眉,24.6905,121.017189,-0.06,23.17,0.71,86.33,0.0,-6.48,C0D430
打鐵坑,24.849664,121.150789,0.32,22.37,-5.12,79.0,0.0,-5.12,C0D480
橫山,24.71116,121.11693,0.17,22.7,7.84,91.67,0.0,-6.13,C0D540
雪霸,24.526972,121.11605,0.29,15.27,-17.85,68.67,0.0,-7.72,C0D550
竹東,24.767147,121.057881,1.81,25.1,-22.04,52.0,0.0,-4.54,C0D560
寶山,24.735006,121.025192,0.16,22.77,-0.85,83.0,0.0,-5.52,C0D580
新豐,24.87068,120.97721,0.94,24.0,4.27,84.0,0.0,-4.42,C0D590
湖口,24.904794,121.043628,1.0,25.07,-8.71,71.0,0.0,-4.55,C0D650
新竹市東區,24.798681,120.986942,-0.07,24.6,-2.54,72.0,0.0,-6.58,C0D660
竹南,24.708978,120.888897,1.32,25.47,-1.88,77.0,0.0,-4.55,C0E420
南庄,24.601775,121.000214,-0.39,22.3,-2.98,82.0,0.0,-7.31,C0E430
明德,24.583486,120.885411,0.44,24.17,-9.37,75.33,0.0,-7.48,C0E550
通霄,24.471892,120.704622,-0.07,24.07,-3.39,79.67,0.0,-4.68,C0E590
馬都安,24.451272,120.930192,0.01,20.77,-3.29,78.33,0.0,-5.68,C0E610
頭份,24.688247,120.912206,1.51,26.03,-3.6,71.0,0.0,-4.33,C0E730
造橋,24.637056,120.864778,-0.31,24.03,-5.39,77.0,0.0,-6.54,C0E740
苗栗,24.564569,120.824575,0.25,24.93,-10.06,66.67,0.0,-7.75,C0E750
銅鑼,24.489681,120.790853,-0.47,23.6,-7.24,74.33,0.0,-6.29,C0E780
獅潭,24.539133,120.920042,-0.54,22.83,-8.44,78.33,0.0,-9.21,C0E820
苑裡,24.439714,120.653053,-0.44,24.6,-4.24,75.33,0.0,-4.32,C0E830
大河,24.618069,120.948578,-2.09,21.67,-5.18,78.67,0.0,-6.38,C0E850
石岡,24.276061,120.777644,-0.08,23.73,1.73,82.67,0.0,-8.72,C0F0B0
中坑,24.248517,120.903319,-1.14,18.8,-8.0,84.0,0.0,-14.38,C0F0C0
審馬陣,24.381675,121.4203,-0.09,8.83,-19.17,61.0,0.0,-8.42,C0F0D0
東勢,24.246428,120.833047,0.78,24.47,-8.64,73.0,0.0,-6.76,C0F850
大坑,24.173142,120.722289,0.32,25.83,-6.64,70.0,0.0,-5.74,C0F970
神岡,24.272481,120.658314,-0.23,24.1,-13.59,70.33,0.0,-6.46,C0F9I0
大安,24.345061,120.588025,-0.4,24.37,-3.01,79.67,0.0,-4.43,C0F9K0
后里,24.310436,120.729725,0.24,24.6,-14.53,68.33,0.0,-7.21,C0F9L0
豐原,24.254322,120.720692,1.12,25.83,-11.75,67.67,0.0,-6.72,C0F9M0
大里,24.092464,120.701378,-0.71,25.57,-0.03,75.0,0.0,-6.29,C0F9N0
潭子,24.213106,120.703933,1.79,27.47,-4.53,72.67,0.0,-5.54,C0F9O0
清水,24.312297,120.562242,-0.11,24.97,-5.19,77.33,0.0,-4.81,C0F9P0
外埔,24.347817,120.705686,-0.24,24.07,-6.81,78.33,0.0,-6.44,C0F9Q0
龍井,24.184536,120.528972,-0.15,25.2,-9.61,75.67,0.0,-5.83,C0F9R0
烏日,24.107058,120.624103,-0.34,25.4,-7.22,69.0,0.0,-6.03,C0F9S0
西屯,24.179494,120.641275,0.0,25.57,-11.78,65.33,0.0,-5.49,C0F9T0
南屯,24.137006,120.637969,-0.56,25.53,-7.14,68.0,0.0,-6.0,C0F9U0
新社,24.200172,120.815806,-0.33,22.53,-9.74,75.0,0.0,-6.92,C0F9V0
大雅(中科園區),24.21528,120.62445,-0.62,24.43,-4.4,72.0,0.0,-7.22,C0F9X0
桃山,24.432739,121.303808,0.03,8.03,-15.83,64.67,0.0,-13.22,C0F9Y0
雪山東峰,24.388792,121.268675,-0.16,8.63,-16.27,62.67,0.0,-11.29,C0F9Z0
芬園,24.015678,120.6213,-1.3,23.7,0.61,82.0,0.0,-3.89,C0G620
員林,23.946503,120.585597,1.4,27.2,-12.22,70.0,0.0,-2.56,C0G650
溪湖,23.94835,120.479122,1.46,26.83,7.42,93.33,0.0,-4.49,C0G660
溪州,23.851589,120.499093,-0.25,25.1,-8.1,71.0,0.0,-4.18,C0G720
二林,23.903325,120.376081,-0.18,24.9,-1.55,84.0,0.0,-3.75,C0G730
福興,24.041289,120.437669,-0.05,25.7,-5.33,75.67,0.0,-4.59,C0G770
秀水,24.03405,120.503869,0.26,25.87,-4.89,77.33,0.0,-3.92,C0G780
田尾,23.901669,120.509389,-0.16,25.43,-1.69,81.67,0.0,-3.99,C0G820
埤頭,23.866003,120.452806,0.13,25.2,-6.38,82.0,0.0,-3.39,C0G830
社頭,23.897647,120.5862,0.26,26.43,-1.42,75.33,0.0,-4.54,C0G860
伸港,24.148933,120.484403,-0.39,25.0,-4.83,76.33,0.0,-4.15,C0G890
線西,24.143358,120.443536,-2.08,25.07,1.0,78.0,0.0,0.0,C0G900
花壇,24.032076,120.549461,-0.5,26.8,12.0,81.0,0.0,0.0,C0G910
埔里,23.972169,120.952425,-0.23,23.6,-5.13,75.67,0.0,-6.65,C0H890
草屯,23.973672,120.68085,-0.54,24.97,-6.81,70.33,0.0,-4.32,C0H960
昆陽,24.121322,121.273642,-0.2,7.97,-18.08,68.67,0.0,-9.5,C0H990
神木村,23.532742,120.843667,0.03,17.03,-3.07,85.33,0.0,-7.36,C0H9A0
合歡山,24.143442,121.272547,0.97,7.43,-19.13,72.33,0.0,-16.14,C0H9C0
廬山,24.033311,121.181808,-0.08,17.33,-9.05,73.0,0.0,-11.29,C0I010
信義,23.689694,120.851036,0.03,22.93,-10.58,73.67,0.0,-6.78,C0I080
竹山,23.761225,120.688156,0.06,24.97,-10.23,75.67,0.0,-3.4,C0I110
水里,23.812553,120.849792,0.17,24.47,-8.28,70.67,0.0,-4.8,C0I360
魚池,23.895703,120.94135,-0.02,22.43,-9.6,75.0,0.0,-6.4,C0I370
集集,23.828206,120.801467,-0.24,24.7,-6.47,73.33,0.0,-6.65,C0I380
仁愛,24.022122,121.132206,-0.33,18.93,-13.23,73.67,0.0,-11.2,C0I390
名間,23.837053,120.701447,-0.61,24.43,-4.65,73.0,0.0,-4.53,C0I410
國姓,24.037803,120.855072,-0.74,23.73,-6.6,76.0,0.0,-6.45,C0I420
南投,23.911469,120.687331,-0.51,25.43,-1.47,73.33,0.0,-5.4,C0I460
梅峰,24.085272,121.173572,-0.84,12.83,-5.6,82.0,0.33,-12.49,C0I480
萬大林道,23.928228,121.091411,0.3,17.53,-14.97,72.33,0.0,-7.3,C0I490
小奇萊,24.131764,121.295717,-0.3,7.9,-14.5,70.67,0.0,-34.75,C0I530
崙背,23.75555,120.318925,-0.84,24.13,-2.95,81.0,0.0,-3.08,C0K250
四湖,23.630414,120.227125,0.03,25.53,-5.4,76.0,0.0,-1.6,C0K280
宜梧,23.536281,120.169329,0.41,25.63,-3.03,77.67,0.0,-3.15,C0K291
虎尾,23.719183,120.442036,-0.12,25.77,-3.87,74.33,0.0,-2.79,C0K330
土庫,23.679029,120.395574,-0.05,25.37,-10.55,70.0,0.0,-2.78,C0K390
斗六,23.720583,120.541127,-0.32,25.33,-11.17,67.33,0.0,-4.5,C0K400
北港,23.573957,120.292802,-0.07,25.73,-10.0,70.0,0.0,-1.54,C0K410
西螺,23.800407,120.467394,-0.26,25.33,-7.37,72.33,0.0,-3.92,C0K420
褒忠,23.690938,120.303634,0.02,25.2,-8.23,73.67,0.0,-2.38,C0K430
二崙,23.772797,120.408944,-0.23,25.07,-4.72,76.33,0.0,-2.85,C0K440
大埤,23.646074,120.431537,-0.01,25.6,-9.2,71.0,0.0,-2.25,C0K450
斗南,23.678734,120.478359,-0.01,25.57,-6.88,69.67,0.0,-3.3,C0K460
林內,23.748675,120.609642,-0.68,24.5,-7.92,73.33,0.0,-5.58,C0K470
莿桐,23.761192,120.502372,-0.37,25.0,-9.9,71.0,0.0,-4.55,C0K480
元長,23.64981,120.315024,0.01,25.53,-4.18,73.67,0.0,-1.52,C0K500
水林,23.572924,120.24597,0.14,25.8,-6.45,73.0,0.0,-1.85,C0K510
臺西,23.701547,120.197559,-0.35,24.9,-0.9,79.0,0.0,-1.68,C0K530
蔦松,23.514319,120.229736,-0.39,25.73,-3.5,75.0,0.0,-0.92,C0K550
棋山,23.68645,120.603417,-0.38,25.03,-4.75,74.0,0.0,-3.98,C0K560
高鐵雲林,23.737456,120.417944,-0.55,24.9,-5.25,77.0,0.0,-5.38,C0K580
東後寮,23.369908,120.248065,-0.01,25.53,-5.9,75.0,0.0,-1.48,C0M520
奮起湖,23.493903,120.699253,-0.36,17.7,-1.48,88.67,0.33,-8.83,C0M530
中埔,23.42538,120.5229,-0.13,25.37,-11.43,65.67,0.0,-2.05,C0M640
朴子,23.43463,120.23902,-0.43,25.17,-5.53,74.67,0.0,-1.08,C0M650
溪口,23.604131,120.403569,-0.19,25.4,-10.0,71.0,0.0,-1.56,C0M660
大林,23.600616,120.45841,-0.16,25.8,-9.72,66.33,0.0,-4.53,C0M670
太保,23.455062,120.331455,-0.3,25.83,-11.12,68.67,0.0,-1.06,C0M680
水上,23.419734,120.388909,0.07,25.73,-9.23,69.67,0.0,-1.52,C0M690
竹崎,23.526178,120.555508,-0.42,25.03,-8.68,71.67,0.0,-2.71,C0M700
東石,23.458927,120.15385,-0.33,25.67,-6.19,74.0,0.0,-0.31,C0M710
番路,23.464657,120.554156,-0.1,24.9,-8.25,69.0,0.0,-3.7,C0M720
嘉義市東區,23.457673,120.460531,0.24,26.87,-7.08,65.67,0.0,-2.9,C0M730
六腳,23.492871,120.290625,0.63,26.17,-9.25,69.0,0.0,-0.54,C0M740
布袋,23.380878,120.167789,0.17,26.03,-6.9,73.0,0.0,-0.9,C0M750
民雄,23.551754,120.428457,-0.17,25.83,-10.25,67.0,0.0,-2.33,C0M760
嘉義梅山,23.585398,120.555587,-0.37,25.23,-10.62,67.67,0.0,-4.02,C0M770
鹿草,23.41134,120.30835,0.5,26.37,-9.97,68.33,0.0,-1.27,C0M780
新港,23.553269,120.345728,0.14,26.03,-8.68,68.67,0.0,-1.12,C0M790
茶山,23.299075,120.664767,0.1,23.87,-8.57,73.33,0.0,-5.6,C0M800
里佳,23.389125,120.716647,-0.4,18.2,-6.73,79.67,0.0,-6.82,C0M810
達邦,23.453994,120.749517,0.23,20.73,-5.67,75.33,0.0,-6.98,C0M820
表湖,23.24186,120.64166,-0.38,22.2,-12.58,73.0,0.0,-7.83,C0M850
新美,23.338017,120.683169,-1.17,23.53,1.83,72.33,0.0,0.0,C0M860
北寮,23.079561,120.495008,0.03,25.7,-0.52,79.33,0.0,-3.59,C0O830
王爺宮,23.222064,120.40085,2.29,27.83,-11.77,67.67,0.0,-1.98,C0O840
大內,23.11885,120.36083,0.93,27.53,-2.71,76.67,0.0,-2.86,C0O860
善化,23.112883,120.297219,0.42,26.47,-2.67,79.67,0.0,-1.43,C0O900
崎頂,22.959547,120.369317,1.13,26.67,-7.81,72.33,0.0,-1.64,C0O960
虎頭埤,23.021375,120.347878,-0.09,25.87,-6.04,73.33,0.0,-3.25,C0O970
新市,23.061614,120.298197,0.88,27.33,-9.08,72.33,0.0,-2.41,C0O980
阿禮,22.742908,120.743678,0.05,20.57,-11.62,75.0,0.0,-5.5,C0R130
瑪家,22.682903,120.686639,0.01,22.2,-0.3,84.33,0.0,-5.16,C0R140
鹽埔,22.739558,120.530778,-1.45,25.1,-1.46,83.67,0.0,-3.73,C0R160
赤山,22.592333,120.614306,0.48,27.17,-8.38,72.67,0.0,-2.68,C0R190
潮州,22.534361,120.54,1.19,27.8,-12.75,66.67,0.0,-5.58,C0R220
來義,22.527306,120.625111,-0.26,25.9,-4.46,74.33,0.0,-3.34,C0R240
春日,22.370361,120.628306,-1.1,25.6,-6.04,70.67,0.0,-2.2,C0R260
琉球嶼,22.332244,120.362236,0.75,27.37,-13.17,68.33,0.0,-1.51,C0R270
車城,22.0744,120.716247,-0.83,26.67,-3.58,73.67,0.0,0.0,C0R320
牡丹,22.130036,120.792639,-1.25,24.4,5.08,86.33,0.0,0.0,C0R341
貓鼻頭,21.921774,120.7358,0.06,26.4,-8.67,73.33,0.0,-3.1,C0R350
大漢山,22.405264,120.753181,-1.87,15.43,10.08,94.33,0.83,0.71,C0R440
高樹,22.826389,120.600806,0.39,27.2,-8.15,66.67,0.0,-2.14,C0R470
長治,22.693128,120.542622,1.11,28.1,-15.42,64.33,0.0,-3.36,C0R480
九如,22.7405,120.490503,0.61,27.53,-11.21,69.0,0.0,-3.39,C0R490
崁頂,22.514781,120.506914,0.31,27.13,-12.54,69.0,0.0,-3.02,C0R520
佳冬,22.419456,120.552375,-0.01,26.73,-6.01,72.33,0.0,-3.38,C0R540
新埤,22.467947,120.582894,0.2,26.87,-13.62,66.33,0.0,-3.12,C0R550
新園,22.5434,120.461558,1.27,28.23,-15.46,65.0,0.0,-1.96,C0R560
麟洛,22.65078,120.52719,1.73,28.8,-7.54,69.33,0.0,-2.48,C0R570
南州,22.48591,120.50274,0.2,26.83,-3.96,75.67,0.0,-3.04,C0R580
里港,22.77919,120.49459,-0.05,26.73,-7.62,70.33,0.0,-1.7,C0R590
舊泰武,22.588194,120.664944,0.57,22.67,-10.83,76.33,0.0,-3.75,C0R600
墾雷,21.900836,120.855269,0.18,26.37,0.04,80.67,0.0,-1.66,C0R620
東港,22.46247,120.44074,1.11,27.2,-19.21,64.67,0.0,-16.88,C0R640
竹田,22.58486,120.54344,1.22,27.33,-19.08,67.67,0.0,-8.81,C0R650
枋寮,22.367722,120.590647,-0.32,26.63,-1.58,77.67,0.0,0.0,C0R660
楓港,22.190131,120.692156,-1.37,25.93,-6.08,70.67,0.0,0.0,C0R670
佳樂水,21.993578,120.861633,-1.12,26.13,-4.58,75.67,0.17,0.17,C0R680
墾丁,21.966756,120.810269,-0.44,24.93,-7.08,79.67,0.17,0.17,C0R690
枋山,22.246844,120.661086,-0.67,26.3,-4.92,72.33,0.0,0.0,C0R700
龍磐,21.931672,120.838942,-0.33,26.17,-9.58,75.67,0.0,-0.75,C0R710
旭海,22.205403,120.887614,-0.94,24.93,-5.17,77.33,0.0,0.0,C0R720
大坪頂,22.024633,120.69355,-0.58,25.87,0.25,81.0,0.0,-0.12,C0R730
四林格山,22.076989,120.802439,-0.67,22.63,-8.83,84.67,0.33,0.21,C0R750
南仁湖,22.084681,120.863353,-0.84,23.63,3.0,90.0,1.17,0.67,C0R760
保力,22.071122,120.764111,-0.9,25.1,-2.08,79.67,0.0,0.0,C0R770
滿州,22.024403,120.839892,-1.09,25.43,-2.92,77.33,0.83,0.83,C0R780
九棚,22.14195,120.889281,-0.9,26.2,-3.42,74.33,0.17,0.04,C0R790
丹路,22.204481,120.750989,-0.86,25.77,-3.83,74.67,0.0,0.0,C0R800
內獅,22.305064,120.642986,-0.73,26.37,16.25,92.0,0.0,0.0,C0R810
白鷺,22.454275,120.666219,-0.97,23.73,-0.92,76.33,0.0,0.0,C0R820
高士,22.121825,120.836781,-0.62,23.73,-4.33,81.67,0.5,0.5,C0R830
牡丹池山,22.168389,120.841225,-1.17,22.43,-2.25,87.0,0.0,0.0,C0R840
太麻里,22.60902,120.98533,-0.06,21.83,1.33,90.33,0.5,-3.48,C0S690
知本,22.684866,121.005642,-0.3,21.7,2.33,91.33,1.0,-3.51,C0S700
鹿野,22.917711,121.122994,0.26,22.5,0.83,87.33,0.0,-2.41,C0S710
綠島,22.6672,121.47533,0.61,25.3,-8.42,80.33,2.0,-3.47,C0S730
池上,23.119628,121.209469,0.22,23.17,-1.42,84.33,0.0,-1.44,C0S740
大溪山,22.478475,120.943325,-0.57,22.07,3.83,91.33,2.0,-1.83,C0S770
金崙,22.538122,120.966875,-0.17,24.57,4.0,82.0,2.0,-1.62,C0S790
東河,22.972672,121.303986,-0.8,24.63,-0.83,82.67,0.83,-2.3,C0S810
長濱,23.286817,121.411975,0.56,24.17,-6.42,77.33,2.33,-0.56,C0S830
南田,22.279725,120.889208,0.32,26.3,-7.17,73.33,0.0,-2.73,C0S840
關山,23.0395,121.175017,-0.33,24.0,-2.92,82.33,1.0,0.94,C0S890
蘭嶼高中,22.04909,121.51214,0.93,26.73,3.04,82.67,3.33,-4.73,C0S900
蘭嶼燈塔,22.081197,121.503117,1.51,25.63,2.5,87.0,0.5,-2.88,C0S910
金峰嘉蘭,22.594789,120.960825,-2.29,24.53,5.17,82.67,0.67,0.67,C0S920
延平,22.902581,121.084058,-1.7,23.3,3.83,83.33,0.0,-1.25,C0S930
石寧山,23.223772,121.406639,-1.57,24.6,-4.42,80.33,2.5,-1.62,C0S940
香蘭,22.587569,120.993375,-1.59,25.63,5.67,81.67,1.0,1.0,C0S960
加津林,22.416211,120.926942,-1.64,25.43,3.42,78.67,0.33,0.33,C0S970
勝林山,22.430439,120.8938,-2.35,20.2,6.17,90.67,2.5,2.38,C0S980
山豬窟,22.318619,120.857372,-1.33,23.77,0.67,81.67,0.5,0.5,C0S990
歷坵,22.520969,120.89185,-1.99,22.23,4.17,90.67,0.17,0.17,C0SA00
檳榔四格山,22.810031,121.109308,-2.5,22.3,6.5,90.0,0.5,0.5,C0SA10
金崙山,22.567419,120.959667,-1.84,19.93,1.67,93.67,4.0,4.0,C0SA20
都歷,23.020333,121.323642,-1.07,24.9,-8.83,72.67,1.5,1.25,C0SA30
知本（水試所）,22.702394,121.082761,-2.08,24.97,3.17,80.67,0.0,0.0,C0SA60
土坂,22.453108,120.887572,-1.74,24.43,9.83,85.33,0.83,0.83,C0SA80
達仁林場,22.264347,120.823972,-1.03,23.1,0.42,83.67,0.0,-0.12,C0SA90
大禹嶺,24.186117,121.316086,-0.77,10.07,-10.97,73.67,0.0,-6.28,C0T790
天祥,24.179597,121.495639,-0.21,20.47,-2.42,79.67,0.0,-3.25,C0T820
鯉魚潭,23.935639,121.508944,-1.17,21.2,-0.75,90.0,0.33,-4.29,C0T870
西林,23.8119,121.441458,0.83,23.27,-1.92,80.0,1.5,-3.8,C0T900
光復,23.660694,121.424964,0.31,23.5,-6.72,82.67,1.67,-2.86,C0T960
月眉山,23.809928,121.539828,0.23,21.23,-6.92,89.0,0.17,-4.01,C0T9A0
水源,23.991861,121.537169,0.29,20.8,-10.92,81.67,0.67,-5.5,C0T9B0
和中,24.26676,121.74103,-0.31,23.37,11.58,100.0,0.5,-4.53,C0T9D0
大坑,23.880628,121.581981,0.34,21.6,-2.17,88.67,0.83,-5.66,C0T9E0
水璉,23.797131,121.542514,0.04,23.0,-4.75,83.33,0.17,-5.33,C0T9F0
鳳林山,23.735269,121.420131,-0.52,20.8,-7.92,87.0,0.5,-5.15,C0T9G0
加路蘭山,23.682947,121.5274,0.59,20.7,2.83,98.0,3.17,-5.14,C0T9H0
豐濱,23.583897,121.514806,0.67,23.33,-9.75,81.0,3.83,-3.12,C0T9I0
靜浦,23.455167,121.495028,0.53,24.27,-3.92,83.33,2.67,-2.0,C0T9M0
雙連埤,24.753033,121.641303,-0.19,19.3,-6.5,89.67,0.17,-8.4,C0U520
礁溪,24.817539,121.765608,0.45,23.9,-9.5,77.0,0.0,-8.82,C0U600
玉蘭,24.675286,121.587061,0.27,21.33,-6.75,79.67,0.17,-5.99,C0U650
太平山,24.505486,121.525656,-0.24,14.07,-3.17,89.67,0.0,-4.72,C0U710
南山,24.43742,121.38167,0.51,17.67,-14.25,84.33,0.0,-8.29,C0U720
龜山島,24.841667,121.953133,-0.13,21.53,-9.5,82.67,0.0,-2.79,C0U750
東澳,24.52196,121.83318,-0.25,23.43,-9.83,79.67,1.5,-4.04,C0U760
南澳,24.44935,121.81022,-0.33,23.47,-4.0,80.0,0.33,-3.38,C0U770
頭城,24.85323,121.8308,0.6,23.97,-3.83,82.67,0.0,-4.94,C0U860
大礁溪,24.791042,121.675047,0.38,20.93,-0.42,87.33,0.17,-7.08,C0U870
三星,24.66812,121.65302,0.07,22.8,-10.5,79.0,0.0,-7.12,C0U890
內城,24.71813,121.68766,0.5,23.43,-5.33,82.33,0.17,-5.17,C0U900
冬山,24.63373,121.7937,0.35,23.87,-5.42,76.0,0.67,-6.25,C0U910
羅東,24.68184,121.74934,0.46,23.63,-4.79,81.33,0.33,-6.08,C0U940
鶯子嶺,24.89754,121.79244,0.78,17.7,-15.83,81.67,0.17,-9.79,C0U950
翠峰湖,24.510856,121.608044,-0.26,12.5,-0.58,94.0,0.5,-5.79,C0U960
大福,24.80064,121.81389,0.08,23.43,-2.25,80.0,0.0,-4.67,C0U970
坪林石牌,24.86478,121.77396,0.34,19.87,2.5,91.0,0.0,-8.25,C0U980
員山,24.74435,121.72247,0.08,23.43,-1.0,82.67,0.0,-5.42,C0U990
土場,24.576533,121.495333,0.21,21.53,-5.92,82.0,0.0,-8.92,C0UA00
鴛鴦湖,24.590269,121.412228,0.43,14.4,-2.0,94.0,0.0,-10.17,C0UA10
白嶺,24.527819,121.519031,0.68,16.6,-5.67,90.33,0.5,-9.25,C0UA30
西德山,24.560647,121.752608,0.97,17.9,-13.5,82.67,0.33,-8.0,C0UA40
西帽山,24.555361,121.802628,0.78,19.43,-14.25,79.33,1.67,-10.5,C0UA50
桃源谷,24.962606,121.888875,0.99,20.9,-5.08,90.0,0.0,-6.33,C0UA70
復興,23.222403,120.806089,0.63,22.57,-7.26,73.67,0.0,-10.7,C0V210
溪埔,22.738578,120.446797,0.22,26.87,-4.3,70.0,0.0,-3.54,C0V350
內門,22.975481,120.466769,0.55,26.23,-6.54,72.0,0.0,-1.02,C0V360
古亭坑,22.893178,120.401947,0.25,26.2,-10.24,71.67,0.0,-1.68,C0V370
阿公店,22.804194,120.355528,-0.18,26.07,-11.12,69.0,0.0,-1.32,C0V400
鳳山,22.646653,120.356122,-0.35,26.87,0.54,73.0,0.0,-3.43,C0V440
鳳森,22.545064,120.392592,0.53,27.07,-12.42,67.67,0.0,-2.29,C0V450
新興,22.627422,120.298803,0.69,27.5,-9.21,66.0,0.0,-4.34,C0V490
梓官,22.760558,120.267211,-0.07,26.8,-7.08,69.67,0.0,-1.18,C0V610
永安,22.82315,120.236856,-0.33,26.27,-7.83,71.33,0.0,-1.48,C0V620
茄萣,22.906642,120.182608,0.08,26.77,-2.08,73.0,0.0,-1.32,C0V630
湖內,22.887139,120.2445,-0.4,26.2,-7.79,69.33,0.0,-0.93,C0V640
彌陀,22.783806,120.246361,0.34,27.03,-6.35,72.33,0.0,-0.79,C0V650
岡山,22.797078,120.294958,0.62,27.83,-10.21,64.67,0.0,-0.8,C0V660
仁武,22.701083,120.347722,0.67,27.97,-8.46,67.67,0.0,-2.14,C0V680
鼓山,22.623325,120.275575,-0.22,26.77,-11.58,67.33,0.0,-3.12,C0V690
三民,22.645017,120.311233,-0.05,27.5,-3.62,67.67,0.0,-3.38,C0V700
苓雅,22.622742,120.330669,0.51,27.83,0.46,71.33,0.0,-2.73,C0V710
林園,22.507747,120.394511,0.7,28.37,-7.75,66.0,0.0,-3.25,C0V720
大寮,22.605614,120.395717,0.01,27.33,-6.08,68.33,0.0,-2.89,C0V730
旗山,22.888614,120.483597,1.07,27.63,-8.42,66.67,0.0,-0.96,C0V740
路竹,22.854997,120.259439,0.72,27.63,-9.09,66.0,0.0,-0.98,C0V750
橋頭,22.757806,120.30575,0.39,27.67,-10.2,66.33,0.0,-1.21,C0V760
萬山,22.905944,120.688056,0.83,25.23,-9.75,67.67,0.0,-4.59,C0V790
六龜,22.997889,120.633583,0.21,25.9,-4.62,70.67,0.0,-2.89,C0V800
左營,22.67491,120.28491,-0.34,26.5,-5.5,71.0,0.0,-3.3,C0V810
小林,23.148408,120.63325,0.52,24.37,-6.17,75.33,0.0,-11.38,C0V820
花嶼,23.40007,119.32276,0.07,24.47,1.25,84.0,0.0,-0.41,C0W130
金寧,24.457703,118.328989,0.93,24.8,-5.96,71.67,0.0,-0.59,C0W150
東河,23.296598,120.385608,0.13,26.17,-13.27,66.33,0.0,-2.72,C0X050
下營,23.22695,120.256261,-0.1,25.97,-5.23,72.67,0.0,-1.27,C0X060
佳里,23.173039,120.145086,0.3,26.63,-3.48,74.67,0.0,-1.27,C0X080
臺南市南區,22.961189,120.188378,0.88,27.57,-6.95,70.33,0.0,-1.67,C0X110
麻豆,23.183289,120.248611,0.92,27.17,-3.8,74.67,0.0,-1.84,C0X120
官田,23.193217,120.315422,0.79,27.0,-4.55,73.67,0.0,-2.02,C0X130
西港,23.125608,120.203108,0.47,26.8,-9.5,71.0,0.0,-2.09,C0X140
安定,23.102614,120.227839,0.81,26.87,-5.21,75.0,0.0,-1.89,C0X150
仁德,22.968258,120.257689,1.1,27.6,-5.92,71.33,0.0,-1.5,C0X160
關廟,22.963017,120.327797,-1.1,25.93,0.46,73.67,0.0,-1.18,C0X170
山上,23.0757,120.363253,0.72,26.6,-5.6,74.33,0.0,-2.91,C0X180
安平,22.993161,120.152181,0.67,27.1,-18.31,61.33,0.0,-1.86,C0X190
左鎮,23.056758,120.408522,1.14,26.47,-7.21,75.0,0.0,-2.67,C0X200
白河,23.347466,120.414427,0.01,25.9,-9.12,68.33,0.0,-1.62,C0X210
學甲,23.230367,120.182187,0.35,26.27,-4.2,72.0,0.0,-2.68,C0X220
鹽水,23.272621,120.247641,-0.11,25.73,-3.55,74.0,0.0,-1.58,C0X230
關子嶺,23.331169,120.508025,-0.27,23.5,-5.02,78.33,0.0,-3.65,C0X240
新營,23.310689,120.316681,0.14,26.47,-7.4,68.0,0.0,-1.0,C0X250
後壁,23.366358,120.362326,0.03,25.93,-10.2,68.67,0.0,-0.83,C0X260
將軍,23.214999,120.13577,-0.14,25.83,-4.53,72.67,0.0,-2.75,C0X280
北門,23.267772,120.125481,-0.05,25.97,-4.77,74.33,0.0,-0.98,C0X290
鹿寮,23.386047,120.477331,-0.34,24.9,-8.32,73.33,0.0,-2.72,C0X300
柳營,23.253328,120.375253,-1.09,26.23,-3.75,69.0,0.0,0.0,C0X320
明里,23.208717,121.262342,0.54,23.03,-2.25,88.67,0.0,-2.55,C0Z020
佳心,23.34567,121.21316,0.01,19.6,6.42,94.0,0.0,-2.38,C0Z050
玉里,23.3215,121.339656,1.26,24.2,2.92,88.67,0.33,-2.3,C0Z061
舞鶴,23.46811,121.37407,0.68,23.03,7.67,98.0,1.33,-0.91,C0Z070
富源,23.587642,121.378225,1.09,23.1,-6.25,84.67,2.0,-2.85,C0Z080
東華,23.89525,121.549833,-0.36,23.2,-1.25,88.33,0.0,-5.73,C0Z100
吉安光華,23.930925,121.595153,0.17,23.77,-9.0,77.67,0.17,-4.54,C0Z150
鳳林,23.746114,121.453411,0.26,23.33,-7.67,78.33,0.5,-4.12,C0Z160
卓溪,23.3443,121.3029,-0.02,23.77,-5.42,75.67,0.0,-1.54,C0Z170
新城,24.040486,121.604878,-0.09,23.63,16.08,97.67,2.67,-3.25,C0Z180
富世,24.14743,121.6297,0.36,24.13,-10.17,75.0,1.17,-4.12,C0Z190
萬榮,23.709219,121.420106,0.33,23.17,-8.67,79.33,0.5,-4.33,C0Z200
瑞穗,23.5239,121.39021,0.66,23.7,-3.5,83.0,1.33,-1.83,C0Z210
和平林道,24.343922,121.656317,-0.48,19.97,-9.67,83.33,0.67,-5.58,C0Z220
和平,24.30717,121.77007,-0.46,23.47,-7.25,72.0,0.0,-3.54,C0Z230
瑞穗林道,23.49284,121.30688,0.09,17.83,0.25,96.67,1.5,-4.58,C0Z250
蕃薯寮,23.73835,121.540108,0.64,22.17,-9.17,83.33,2.83,-0.67,C0Z270
德武,23.47426,121.41071,0.38,23.17,-4.5,83.67,0.17,-2.25,C0Z280
赤柯山,23.36893,121.38293,0.53,19.23,-5.5,86.0,1.33,-0.92,C0Z290
東里,23.26853,121.30547,0.59,23.8,-6.83,81.67,1.0,-1.0,C0Z300
清水斷崖,24.218294,121.689142,0.21,23.7,-12.92,75.33,0.0,-5.08,C0Z310
清水林道,23.27125,121.188272,0.53,20.67,-2.58,85.0,0.0,-3.92,C0Z320
安通山,23.290728,121.348528,0.23,21.77,-0.25,87.33,1.83,-0.58,C0Z330
口湖工作站,23.589978,120.180394,0.89,25.35,-1.5,71.5,0.0,-0.36,12J990
東港工作站,22.479997,120.466058,1.29,27.3,-13.25,59.0,0.0,-7.52,12Q970
恆春工作站,22.079678,120.714425,1.85,26.4,2.5,69.5,0.0,-8.02,12Q980
萬大發電廠,23.978875,121.139639,2.15,21.45,-19.25,68.0,0.0,-9.94,42HA10
桃改樹林分場,24.944503,121.386972,-2.05,24.15,-2.0,70.0,0.0,0.0,72AI40
桃園農改場,24.950944,121.030583,1.71,25.45,-5.51,76.5,0.0,-5.19,72C440
桃改五峰分場,24.612194,121.157167,0.89,19.85,-8.75,80.0,0.0,-7.45,72D080
臺中農改場,24.003028,120.534389,-0.56,24.65,-0.15,82.0,0.0,-2.18,72G600
中改埔里分場,23.903208,120.963364,0.44,21.9,-7.88,81.5,0.0,-14.56,72HA00
南改斗南分場,23.634556,120.477333,-0.04,25.4,-7.3,75.5,0.0,-2.65,72K220
南改義竹分場,23.360694,120.279361,-0.09,25.5,-10.23,74.0,0.0,-2.07,72M360
南改鹿草分場,23.416869,120.283061,0.99,25.5,-6.25,76.0,0.0,-2.44,72M700
臺南農改場,23.0605,120.342194,0.37,26.2,-6.03,74.0,0.0,-1.81,72N100
七股研究中心,23.081672,120.062894,1.35,26.75,-7.0,72.5,0.0,-5.75,72N240
高雄農改場,22.709333,120.525889,0.56,27.55,-9.26,67.5,0.0,-2.52,72Q010
東改班鳩分場,22.829528,121.077694,-0.42,22.9,-0.31,83.5,1.0,-1.39,72S200
東改賓朗果園,22.813889,121.071278,-29.52,-6.5,-1.33,89.0,2.25,0.38,72S590
花蓮農改場,23.975222,121.563889,-0.27,23.2,-5.03,78.5,0.25,-3.49,72T250
花改蘭陽分場,24.686306,121.716583,-0.2,23.15,-3.86,81.5,1.0,-2.7,72U480
高改旗南分場,22.857861,120.516667,-1.34,26.15,-2.65,69.0,0.0,-1.17,72V140
茶改北部分場,24.955778,121.631222,0.12,21.85,-7.32,75.5,0.0,-7.12,82A750
茶改場,24.908472,121.185333,1.07,24.15,-10.91,71.0,0.0,-6.35,82C160
茶改中部分場,23.875611,120.913583,-0.6,20.75,-7.93,79.5,0.0,-8.04,82H320
茶改南部分場,23.762528,120.7405,-0.81,22.95,-7.08,78.0,0.0,-3.12,82H840
茶改東部分場,22.907694,121.130139,-0.67,23.55,-2.0,82.0,0.0,-2.24,82S580
農工中心,24.985917,121.239833,1.4,25.15,-6.71,65.5,0.0,-6.24,A2C560
水試臺西試驗場,23.717231,120.190522,-1.02,25.45,0.78,82.5,0.0,-1.88,A2K360
臺大雲林校區,23.730628,120.423903,-2.25,24.55,6.0,79.0,0.0,0.0,A2K630
臺南蘭花園區,23.340258,120.379661,-0.78,25.8,-0.25,74.0,0.0,0.0,A2N290
畜產試驗所,23.058972,120.336406,-0.03,25.95,-5.76,74.0,0.0,-2.16,B2N890
畜試南區分所,21.945583,120.802167,-0.27,26.25,-6.6,70.5,0.0,-3.82,B2Q810
畜試東區分所,24.669039,121.832561,-1.5,23.55,-2.0,84.0,0.0,0.0,B2U990
蓮華池,23.918333,120.885278,-0.96,21.8,-4.54,78.5,0.0,-9.41,E2H360
林試畢祿溪站,24.226944,121.308522,-1.95,12.15,7.75,78.0,0.0,0.0,E2HA20
四湖植物園,23.676986,120.163433,0.4,24.9,9.12,91.0,0.0,-2.0,E2K600
林試六龜中心,22.991703,120.645722,-1.55,25.05,5.5,74.0,0.0,0.0,E2P980
林試太麻里2,22.598,120.99775,-2.15,25.0,2.5,78.0,1.0,1.0,E2S960
林試太麻里1,22.598922,120.980044,-1.98,24.6,4.75,81.0,1.5,1.5,E2S980
農試所(霧峰),24.031261,120.688133,-0.57,24.8,0.02,82.0,0.0,-3.01,G2F820
農試嘉義分所,23.485028,120.473806,-0.15,24.95,-7.02,73.0,0.0,-3.23,G2L020
農試溪口農場,23.58565,120.408111,2.41,25.65,-12.83,73.5,0.0,-5.31,G2M350
農試鳳山分所,22.646611,120.356083,-0.15,27.15,-5.47,66.0,0.0,-2.23,G2P820
苗栗農改場,24.495722,120.829111,-0.12,23.8,-7.34,74.5,0.0,-4.18,K2E360
苗改生物防治研究中心,24.422861,120.871833,-0.5,22.4,-5.83,78.0,0.0,-9.25,K2E710
種苗改良場,24.225972,120.800917,-0.58,22.5,-0.86,81.0,0.0,-7.29,K2F750
臺大和社,23.590856,120.888864,0.79,21.75,-5.43,78.0,0.0,-8.5,U2HA30
臺大內茅埔,23.689722,120.851117,0.76,23.2,-11.12,73.5,0.0,-14.38,U2HA40
臺大竹山,23.756972,120.681556,-0.14,24.95,-7.08,71.0,0.0,-8.46,U2HA50
