站名,緯度,經度,平均溫距平,本年度平均溫,平均溼度距平,本年度日均相對溼度,本年度日均降水量,日均降水量距平,站號
淡水,25.164889,121.448906,0.92,27.76,1.96,82.68,3.65,-7.36,466900
鞍部,25.182586,121.529731,0.73,22.44,4.8,93.42,4.69,-9.81,466910
臺北,25.037658,121.514853,1.06,28.81,1.23,77.21,5.04,-7.72,466920
竹子湖,25.162078,121.544547,0.91,24.15,2.92,88.74,4.42,-8.47,466930
基隆,25.133314,121.740475,1.07,28.01,1.34,79.74,3.96,-8.75,466940
花蓮,23.975128,121.613275,0.5,27.56,3.87,84.89,13.67,7.42,466990
新屋,25.006725,121.047492,0.1,27.75,0.18,84.0,1.75,-9.59,467050
宜蘭,24.763975,121.756528,0.76,27.56,4.1,86.26,5.27,-3.9,467080
金門,24.407306,118.289281,0.79,26.75,2.21,88.95,2.51,-3.13,467110
田中,23.873803,120.581286,-0.73,28.34,1.32,82.42,8.9,7.06,467270
澎湖,23.565503,119.563094,0.63,28.13,2.22,87.68,5.9,-0.43,467350
臺南,22.99328,120.20492,0.42,29.05,1.38,78.63,16.74,1.34,467410
永康,23.038386,120.2367,0.61,28.95,4.32,79.26,18.46,2.85,467420
嘉義,23.495925,120.432906,0.4,28.45,4.08,81.84,17.98,4.67,467480
臺中,24.145736,120.684075,0.94,28.7,0.98,77.58,6.48,-7.89,467490
阿里山,23.508208,120.813242,0.61,14.84,2.45,93.16,22.0,-8.11,467530
大武,22.35572,120.90374,0.74,28.71,1.01,78.84,15.85,0.95,467540
玉山,23.48718,120.95943,1.44,8.63,4.65,87.16,14.85,-5.5,467550
新竹,24.827853,121.014219,0.89,28.47,1.28,78.53,2.35,-8.28,467571
恆春,22.003897,120.746339,0.42,28.78,3.32,83.16,14.58,2.03,467590
成功,23.097486,121.373428,0.49,27.47,4.43,86.84,16.81,10.21,467610
日月潭,23.881325,120.90805,0.75,22.81,6.51,92.11,22.29,3.71,467650
臺東,22.752211,121.154586,0.55,28.5,3.9,82.11,11.0,2.25,467660
馬祖,26.169467,119.923158,1.34,25.56,2.42,90.58,6.15,-0.55,467990
山佳,24.974944,121.402008,1.61,28.91,-0.35,80.58,2.84,-8.31,C0A520
坪林,24.938183,121.70975,2.71,27.15,-2.64,89.58,6.55,-6.18,C0A530
泰平,24.971197,121.823711,1.21,24.73,0.37,94.95,8.26,-5.69,C0A550
桶後,24.848222,121.597992,2.08,26.04,-4.99,87.57,11.53,-1.48,C0A570
石碇,24.993969,121.662917,1.12,26.24,-4.14,87.16,3.5,-11.79,C0A640
大坪,25.165914,121.632969,2.31,26.86,-3.55,85.12,6.56,-8.01,C0A860
五指山,25.132153,121.608692,2.57,25.04,-2.47,91.05,4.66,-7.47,C0A870
雙溪,25.036003,121.864242,2.23,27.96,-2.37,86.74,5.87,-6.45,C0A890
三和,25.233153,121.595236,0.46,26.27,-2.81,89.37,8.37,-9.6,C0A931
金山,25.223628,121.643967,0.87,27.13,-2.18,83.74,6.42,-5.94,C0A940
鼻頭角,25.129036,121.923372,1.39,27.61,-2.24,87.74,3.71,-4.22,C0A950
三貂角,25.007606,122.002058,1.06,26.98,3.0,89.74,6.82,-1.21,C0A970
社子,25.109508,121.469681,1.8,29.45,0.51,79.79,2.92,-7.07,C0A980
天母,25.117494,121.537169,1.04,28.63,-3.44,73.53,2.84,-7.64,C0A9C0
內湖,25.079422,121.57545,1.71,29.44,0.0,78.47,4.58,-7.21,C0A9F0
大屯山,25.175675,121.522408,2.35,22.99,2.61,97.84,4.76,-8.01,C0AC40
三峽,24.939025,121.369728,1.57,29.27,0.12,81.53,4.79,-7.26,C0AC60
信義,25.037822,121.564597,1.35,29.08,-1.52,78.84,5.24,-7.99,C0AC70
文山,25.00235,121.575728,0.5,27.64,-3.3,81.58,5.53,-8.04,C0AC80
新莊,25.051478,121.446756,-0.08,28.37,1.57,76.42,2.95,-7.99,C0ACA0
八里,25.150211,121.403947,1.57,29.34,8.59,87.53,3.42,-5.33,C0AD10
蘆洲,25.086594,121.472331,0.96,29.57,0.87,76.95,2.92,-6.82,C0AD30
土城,24.973208,121.445169,0.34,27.69,0.01,82.79,10.42,-3.02,C0AD40
鶯歌,24.951533,121.346294,1.29,28.95,1.29,83.79,2.68,-7.73,C0AD50
汐止,25.066881,121.658778,0.58,28.15,-3.55,80.11,3.18,-9.42,C0AH00
永和,25.01125,121.508111,1.2,29.45,2.25,77.89,7.26,-5.5,C0AH10
五分山,25.07125,121.780794,2.35,24.76,-1.44,93.0,6.34,-9.39,C0AH30
平等,25.129142,121.577086,0.49,25.98,-0.19,82.74,3.71,-10.15,C0AH40
林口,25.072181,121.38084,1.51,27.92,0.85,86.4,3.37,-7.76,C0AH50
松山,25.04871,121.55042,0.34,28.69,9.46,79.42,5.63,-0.46,C0AH70
深坑,25.002703,121.628328,1.01,27.79,-0.03,84.16,3.34,-5.61,C0AH80
福山植物園,24.760717,121.58135,0.58,23.44,2.1,94.37,9.66,2.45,C0AH90
五股,25.07445,121.42728,0.87,28.27,0.22,83.26,3.37,-3.74,C0AI00
屈尺,24.92184,121.54475,1.88,28.95,1.58,85.58,7.05,-3.69,C0AI10
白沙灣,25.283128,121.519058,0.19,27.39,8.09,86.21,3.58,-2.73,C0AI20
三重,25.057328,121.500629,-0.91,29.18,8.47,85.47,2.18,-1.01,C0AI30
石牌,25.115597,121.513139,0.38,29.79,8.29,77.53,2.74,-3.99,C0AI40
七堵,25.094819,121.71713,1.25,28.84,-0.95,83.0,4.24,-5.08,C0B010
基隆嶼,25.19141,121.78391,-0.22,26.88,6.78,95.68,1.47,-6.48,C0B020
復興,24.820208,121.352281,0.16,24.34,-8.88,77.63,9.11,-6.61,C0C460
桃園,24.992425,121.323172,0.62,28.43,2.57,76.79,3.76,-6.98,C0C480
八德,24.928708,121.283289,0.11,27.67,-1.69,77.68,3.95,-6.14,C0C490
觀音,25.027072,121.153317,0.29,27.03,7.16,89.21,5.03,-5.06,C0C590
蘆竹,25.084275,121.265767,0.55,28.12,-0.17,81.53,2.39,-7.12,C0C620
大溪,24.882853,121.265547,0.48,26.66,3.1,81.37,5.26,-5.03,C0C630
平鎮,24.897503,121.214636,0.71,26.92,1.24,81.89,4.61,-5.18,C0C650
楊梅,24.912375,121.143047,-0.06,27.46,4.57,80.63,2.89,-7.11,C0C660
龍潭,24.870056,121.221389,0.06,26.62,2.81,81.11,6.95,-2.8,C0C670
龜山,25.02846,121.38656,-0.43,25.92,-0.44,79.79,3.5,-8.76,C0C680
中壢,24.977661,121.256375,0.25,27.77,2.27,76.84,2.79,-3.83,C0C700
大溪永福,24.892936,121.324975,0.54,27.12,1.04,84.95,4.71,-4.46,C0C710
梅花,24.678347,121.208558,0.63,24.38,2.35,90.26,8.05,-2.59,C0D360
峨眉,24.6905,121.017189,0.23,27.19,2.93,89.26,5.03,-4.08,C0D430
打鐵坑,24.849664,121.150789,0.16,25.64,-0.96,85.32,1.37,-8.9,C0D480
橫山,24.71116,121.11693,0.11,25.78,10.48,96.53,4.18,-6.17,C0D540
雪霸,24.526972,121.11605,0.59,18.31,0.72,85.32,6.28,-7.45,C0D550
竹東,24.767147,121.057881,1.44,28.11,-0.36,75.84,5.84,-3.0,C0D560
寶山,24.735006,121.025192,0.53,26.59,1.89,86.74,4.37,-4.96,C0D580
新豐,24.87068,120.97721,0.46,26.9,6.55,90.16,2.66,-8.12,C0D590
湖口,24.904794,121.043628,0.27,27.81,-1.72,77.95,2.05,-7.89,C0D650
新竹市東區,24.798681,120.986942,-0.03,27.84,2.69,77.95,2.84,-6.53,C0D660
竹南,24.708978,120.888897,1.94,29.24,4.79,83.63,3.47,-6.71,C0E420
南庄,24.601775,121.000214,0.54,26.03,3.16,86.63,6.55,-5.67,C0E430
明德,24.583486,120.885411,0.6,28.33,-0.16,79.53,4.03,-4.28,C0E550
通霄,24.471892,120.704622,0.16,27.89,0.46,83.58,4.5,-4.2,C0E590
馬都安,24.451272,120.930192,0.76,23.47,6.07,87.74,8.97,-3.95,C0E610
頭份,24.688247,120.912206,1.43,29.53,2.18,76.74,5.08,-4.3,C0E730
造橋,24.637056,120.864778,0.19,28.28,-0.87,80.63,3.76,-5.49,C0E740
苗栗,24.564569,120.824575,-0.11,28.38,-2.4,72.47,3.32,-6.01,C0E750
銅鑼,24.489681,120.790853,0.18,27.79,-2.59,79.37,4.29,-5.68,C0E780
西湖,24.562947,120.7485,0.38,27.66,-1.64,85.32,4.0,-5.28,C0E810
獅潭,24.539133,120.920042,-0.02,26.77,-2.25,81.68,4.61,-6.06,C0E820
苑裡,24.439714,120.653053,-0.17,28.12,0.48,79.58,3.08,-5.85,C0E830
大河,24.618069,120.948578,-1.35,25.95,1.98,82.26,4.74,-7.56,C0E850
高鐵苗栗,24.60725,120.826094,0.05,28.25,11.69,85.37,4.05,-2.9,C0E870
石岡,24.276061,120.777644,0.64,27.31,0.74,82.05,9.97,-8.47,C0F0B0
中坑,24.248517,120.903319,-0.32,21.93,-0.96,89.95,14.74,-9.4,C0F0C0
審馬陣,24.381675,121.4203,0.42,11.52,7.01,88.32,10.84,3.49,C0F0D0
東勢,24.246428,120.833047,1.2,27.56,-1.34,78.89,9.42,-6.35,C0F850
大坑,24.173142,120.722289,1.3,29.41,1.44,77.58,5.87,-7.21,C0F970
神岡,24.272481,120.658314,-0.1,27.45,-3.19,80.32,5.24,-3.67,C0F9I0
大安,24.345061,120.588025,-0.19,27.85,-0.75,82.79,4.29,-3.14,C0F9K0
后里,24.310436,120.729725,0.62,28.19,-1.66,80.0,7.29,-4.16,C0F9L0
豐原,24.254322,120.720692,1.47,29.15,-2.48,75.74,6.29,-6.63,C0F9M0
大里,24.092464,120.701378,0.97,29.95,3.46,78.32,6.71,-5.61,C0F9N0
潭子,24.213106,120.703933,0.2,28.76,3.1,79.79,6.08,-6.92,C0F9O0
清水,24.312297,120.562242,-0.11,28.37,-2.17,81.0,3.87,-3.23,C0F9P0
外埔,24.347817,120.705686,0.12,27.56,-1.58,83.26,6.55,-2.94,C0F9Q0
龍井,24.184536,120.528972,0.21,28.61,-7.37,79.89,6.11,-2.29,C0F9R0
烏日,24.107058,120.624103,0.18,28.75,-0.19,76.58,7.37,-2.99,C0F9S0
西屯,24.179494,120.641275,0.1,28.68,-1.6,75.63,6.39,-4.24,C0F9T0
南屯,24.137006,120.637969,-0.02,28.87,0.18,76.32,6.97,-3.18,C0F9U0
新社,24.200172,120.815806,0.52,25.84,-3.39,82.26,11.68,-5.13,C0F9V0
大雅(中科園區),24.21528,120.62445,0.15,27.57,2.0,82.16,4.68,-8.41,C0F9X0
桃山,24.432739,121.303808,0.56,10.86,5.95,89.79,12.79,-4.76,C0F9Y0
雪山東峰,24.388792,121.268675,0.72,11.79,4.25,86.37,11.21,-8.13,C0F9Z0
芬園,24.015678,120.6213,-0.55,27.13,9.07,91.84,9.97,-2.1,C0G620
員林,23.946503,120.585597,2.63,30.48,-2.75,80.21,10.63,-1.74,C0G650
溪湖,23.94835,120.479122,0.92,29.03,-5.44,82.06,9.97,-1.36,C0G660
溪州,23.851589,120.499093,0.87,28.64,-5.9,77.16,11.97,-3.05,C0G720
二林,23.903325,120.376081,0.32,28.14,0.17,88.53,12.68,-1.86,C0G730
大城,23.852487,120.320935,0.27,27.99,0.9,84.37,7.26,-5.89,C0G740
福興,24.041289,120.437669,0.05,29.07,-5.08,78.89,7.08,-2.36,C0G770
秀水,24.03405,120.503869,0.44,29.06,-0.7,82.84,10.11,0.26,C0G780
埔鹽,24.000394,120.431683,0.79,28.87,-7.0,80.06,8.13,-1.55,C0G800
埔心,23.947633,120.525456,1.45,30.21,-1.07,79.47,9.95,-1.68,C0G810
田尾,23.901669,120.509389,0.48,28.91,1.68,86.74,11.58,-0.86,C0G820
埤頭,23.866003,120.452806,0.13,28.44,3.36,91.63,10.21,-1.19,C0G830
社頭,23.897647,120.5862,0.33,29.34,8.59,84.16,8.89,-3.86,C0G860
伸港,24.148933,120.484403,-0.03,28.46,-4.2,79.79,6.37,-1.68,C0G890
線西,24.143358,120.443536,-0.81,28.45,0.57,81.47,5.89,-2.62,C0G900
花壇,24.032076,120.549461,1.22,30.42,11.2,86.63,10.24,7.5,C0G910
埔里,23.972169,120.952425,0.4,25.96,1.91,87.16,18.92,-4.44,C0H890
草屯,23.973672,120.68085,0.04,28.13,1.73,80.37,9.29,-3.48,C0H960
昆陽,24.121322,121.273642,1.19,11.58,1.52,91.16,11.29,-3.25,C0H990
神木村,23.532742,120.843667,0.85,19.73,0.55,91.37,15.03,-8.92,C0H9A0
合歡山,24.143442,121.272547,1.18,10.56,8.43,95.32,17.05,-11.19,C0H9C0
廬山,24.033311,121.181808,1.06,20.25,-1.97,84.95,12.11,-8.4,C0I010
信義,23.689694,120.851036,0.5,24.98,1.32,88.21,9.5,-9.47,C0I080
竹山,23.761225,120.688156,0.94,27.64,1.49,85.32,14.24,-1.45,C0I110
水里,23.812553,120.849792,0.51,26.6,-0.51,82.26,17.29,-5.46,C0I360
魚池,23.895703,120.94135,0.41,24.61,-1.48,85.42,18.24,-5.17,C0I370
集集,23.828206,120.801467,0.11,26.82,1.72,85.95,14.97,-9.94,C0I380
仁愛,24.022122,121.132206,0.89,22.07,-4.12,84.95,11.58,-17.94,C0I390
名間,23.837053,120.701447,-0.06,27.03,5.92,86.47,12.37,-5.76,C0I410
國姓,24.037803,120.855072,0.34,26.46,-0.42,86.26,14.92,-12.46,C0I420
南投,23.911469,120.687331,0.22,28.36,7.27,85.42,9.34,-11.14,C0I460
梅峰,24.085272,121.173572,1.13,16.77,-3.01,88.42,14.84,-18.1,C0I480
萬大林道,23.928228,121.091411,0.8,19.87,-5.92,85.58,12.13,-9.55,C0I490
小奇萊,24.131764,121.295717,1.02,11.48,2.52,91.0,6.17,-15.04,C0I530
崙背,23.75555,120.318925,0.17,27.92,-0.41,86.05,12.66,-3.64,C0K250
四湖,23.630414,120.227125,0.81,28.39,-1.96,83.84,14.68,2.6,C0K280
宜梧,23.536281,120.169329,-0.01,28.39,-1.19,83.32,14.18,2.41,C0K291
虎尾,23.719183,120.442036,0.65,28.57,6.4,85.89,12.61,-0.15,C0K330
土庫,23.679029,120.395574,0.13,28.25,-2.02,80.68,12.5,-3.08,C0K390
斗六,23.720583,120.541127,0.2,28.27,-2.75,78.42,8.82,-7.92,C0K400
北港,23.573957,120.292802,0.12,28.34,-2.13,80.95,12.53,2.04,C0K410
西螺,23.800407,120.467394,0.18,28.45,-1.06,80.74,10.97,-3.17,C0K420
褒忠,23.690938,120.303634,0.18,28.11,-0.3,84.0,12.58,-0.5,C0K430
二崙,23.772797,120.408944,0.29,28.26,8.93,92.58,10.92,-5.93,C0K440
大埤,23.646074,120.431537,0.27,28.35,-0.45,81.26,10.82,-5.92,C0K450
斗南,23.678734,120.478359,0.22,28.35,2.66,80.95,10.58,-6.81,C0K460
林內,23.748675,120.609642,0.2,27.59,-0.21,82.89,13.37,-4.06,C0K470
莿桐,23.761192,120.502372,0.22,28.1,0.87,81.26,8.68,-8.46,C0K480
元長,23.64981,120.315024,0.27,28.46,0.65,82.53,14.47,-1.37,C0K500
水林,23.572924,120.24597,0.35,28.56,2.25,83.89,14.74,1.09,C0K510
臺西,23.701547,120.197559,-0.01,28.02,1.38,84.42,15.29,0.12,C0K530
蔦松,23.514319,120.229736,0.23,28.46,0.58,84.26,14.47,3.14,C0K550
棋山,23.68645,120.603417,0.18,27.7,4.46,86.58,14.08,-7.29,C0K560
高鐵雲林,23.737456,120.417944,-0.41,27.89,0.4,84.74,12.76,3.51,C0K580
東後寮,23.369908,120.248065,0.19,28.09,0.88,86.05,14.18,1.09,C0M520
奮起湖,23.493903,120.699253,0.89,20.53,1.79,94.0,22.74,-4.96,C0M530
中埔,23.42538,120.5229,-0.03,27.72,-0.73,77.53,15.13,-2.6,C0M640
朴子,23.43463,120.23902,-0.5,27.57,3.14,86.32,13.82,2.08,C0M650
溪口,23.604131,120.403569,0.08,28.13,-0.96,81.53,8.66,-4.55,C0M660
大林,23.600616,120.45841,0.19,28.56,1.23,80.16,11.47,-5.81,C0M670
太保,23.455062,120.331455,-0.02,28.2,-1.6,82.26,13.79,-0.28,C0M680
水上,23.419734,120.388909,0.18,28.2,-0.29,81.58,18.74,3.92,C0M690
竹崎,23.526178,120.555508,-0.08,27.31,2.76,83.84,18.45,1.39,C0M700
東石,23.458927,120.15385,-0.2,28.44,-1.84,81.21,15.32,4.11,C0M710
番路,23.464657,120.554156,0.22,27.37,2.04,80.58,19.68,-0.55,C0M720
嘉義市東區,23.457673,120.460531,-0.01,28.61,3.27,81.16,17.47,2.3,C0M730
六腳,23.492871,120.290625,0.09,28.41,2.31,82.16,14.53,3.83,C0M740
布袋,23.380878,120.167789,0.18,28.64,-1.66,81.47,13.42,-0.04,C0M750
民雄,23.551754,120.428457,0.05,28.49,0.19,80.68,11.55,-3.97,C0M760
嘉義梅山,23.585398,120.555587,-0.2,27.68,3.48,82.37,19.82,1.79,C0M770
鹿草,23.41134,120.30835,0.24,28.54,1.56,82.95,16.16,0.42,C0M780
新港,23.553269,120.345728,-0.09,28.21,0.03,81.26,10.87,-1.91,C0M790
茶山,23.299075,120.664767,0.06,25.26,1.99,88.16,19.29,-6.48,C0M800
里佳,23.389125,120.716647,0.58,20.93,-1.0,87.53,24.18,-10.52,C0M810
達邦,23.453994,120.749517,0.72,22.71,2.76,88.37,15.71,-13.69,C0M820
表湖,23.24186,120.64166,-0.7,23.61,1.9,88.47,17.26,-0.65,C0M850
新美,23.338017,120.683169,-0.37,24.92,10.56,87.89,19.63,16.08,C0M860
北寮,23.079561,120.495008,-0.24,27.53,7.61,90.42,25.61,12.74,C0O830
王爺宮,23.222064,120.40085,1.99,29.61,-3.68,79.47,17.87,3.61,C0O840
大內,23.11885,120.36083,0.66,29.38,4.39,86.47,18.5,5.78,C0O860
善化,23.112883,120.297219,0.59,28.42,8.48,92.21,18.24,2.44,C0O900
崎頂,22.959547,120.369317,0.69,28.42,1.78,87.37,17.37,5.24,C0O960
虎頭埤,23.021375,120.347878,-0.18,27.76,-1.05,82.79,20.21,6.75,C0O970
新市,23.061614,120.298197,0.52,29.08,-1.59,82.21,17.55,6.01,C0O980
媽廟,22.99175,120.293525,0.21,28.77,1.64,84.53,16.0,3.04,C0O990
尾寮山,22.833111,120.683889,1.24,22.76,1.65,93.84,31.58,-0.48,C0R100
阿禮,22.742908,120.743678,0.17,22.49,-2.08,84.32,19.55,1.59,C0R130
瑪家,22.682903,120.686639,-0.52,23.72,10.82,95.21,27.66,2.05,C0R140
三地門,22.709889,120.639944,0.7,28.28,1.72,79.47,22.5,-0.93,C0R150
鹽埔,22.739558,120.530778,0.26,28.54,-0.04,86.42,19.63,4.72,C0R160
赤山,22.592333,120.614306,-0.08,28.43,7.75,90.21,20.76,2.35,C0R190
潮州,22.534361,120.54,0.84,28.95,2.08,80.16,22.21,3.62,C0R220
來義,22.527306,120.625111,-0.83,27.15,9.77,91.05,21.87,4.17,C0R240
春日,22.370361,120.628306,-1.28,27.11,6.29,86.84,21.74,8.3,C0R260
琉球嶼,22.332244,120.362236,0.79,28.73,-3.34,82.74,10.05,-1.2,C0R270
車城,22.0744,120.716247,-0.48,28.61,4.1,86.0,16.13,13.37,C0R320
牡丹,22.130036,120.792639,-0.38,26.53,10.29,94.58,19.42,13.11,C0R341
貓鼻頭,21.921774,120.7358,0.61,28.51,1.16,85.16,15.29,4.77,C0R350
大漢山,22.405264,120.753181,0.27,18.24,4.4,98.16,43.11,29.58,C0R440
高樹,22.826389,120.600806,-0.32,28.26,0.87,77.89,23.13,6.43,C0R470
長治,22.693128,120.542622,0.57,29.32,0.39,80.26,21.08,5.41,C0R480
九如,22.7405,120.490503,0.59,29.24,-1.5,80.58,22.63,7.64,C0R490
崁頂,22.514781,120.506914,-0.22,28.73,1.29,83.32,13.47,-0.8,C0R520
佳冬,22.419456,120.552375,-0.1,28.75,1.22,82.16,19.79,5.81,C0R540
新埤,22.467947,120.582894,-0.16,28.45,-3.54,79.21,21.68,8.49,C0R550
新園,22.5434,120.461558,0.89,29.71,-5.79,77.05,19.42,4.82,C0R560
麟洛,22.65078,120.52719,0.7,29.64,3.67,83.26,23.74,10.02,C0R570
南州,22.48591,120.50274,-0.22,28.5,5.89,85.84,18.39,5.14,C0R580
里港,22.77919,120.49459,0.08,28.51,2.59,84.37,21.47,8.15,C0R590
舊泰武,22.588194,120.664944,-0.14,24.27,2.9,87.16,13.78,-11.17,C0R600
墾雷,21.900836,120.855269,-0.41,28.17,9.12,93.53,16.53,7.08,C0R620
東港,22.46247,120.44074,-0.21,28.93,0.32,83.58,14.89,11.71,C0R640
竹田,22.58486,120.54344,-0.52,28.83,1.41,81.58,21.39,15.54,C0R650
枋寮,22.367722,120.590647,-0.08,28.77,7.79,85.79,15.63,14.08,C0R660
楓港,22.190131,120.692156,-0.77,28.23,1.52,80.42,21.03,18.72,C0R670
佳樂水,21.993578,120.861633,-0.91,28.38,7.78,87.16,16.0,14.24,C0R680
墾丁,21.966756,120.810269,-0.44,26.66,3.91,92.11,17.39,15.35,C0R690
枋山,22.246844,120.661086,0.37,28.87,0.78,80.68,46.5,44.88,C0R700
龍磐,21.931672,120.838942,-0.88,27.65,5.72,90.53,14.63,13.37,C0R710
旭海,22.205403,120.887614,-0.98,26.81,6.53,86.11,14.21,9.95,C0R720
大坪頂,22.024633,120.69355,-0.59,27.49,8.84,94.84,10.21,9.04,C0R730
四林格山,22.076989,120.802439,-0.28,24.45,1.93,97.26,20.63,11.68,C0R750
南仁湖,22.084681,120.863353,-0.96,25.59,12.59,97.21,25.76,16.19,C0R760
保力,22.071122,120.764111,-0.21,27.35,4.12,89.79,17.05,9.48,C0R770
滿州,22.024403,120.839892,-0.77,27.85,5.8,85.89,17.76,14.17,C0R780
九棚,22.14195,120.889281,-1.3,27.64,10.86,85.86,8.26,1.41,C0R790
丹路,22.204481,120.750989,-0.2,27.67,3.64,85.74,29.76,22.67,C0R800
內獅,22.305064,120.642986,0.03,28.85,17.6,94.26,24.53,22.0,C0R810
白鷺,22.454275,120.666219,0.04,25.19,4.89,88.37,29.66,27.63,C0R820
高士,22.121825,120.836781,-0.91,25.39,9.6,93.32,21.87,12.77,C0R830
牡丹池山,22.168389,120.841225,-0.8,24.5,9.24,95.47,18.97,11.38,C0R840
下馬,23.150427,121.070312,0.25,23.87,5.94,86.74,11.26,9.63,C0S660
太麻里,22.60902,120.98533,1.01,25.28,4.25,88.56,9.28,-0.74,C0S690
知本,22.684866,121.005642,1.07,25.51,4.85,90.26,18.47,8.13,C0S700
鹿野,22.917711,121.122994,1.24,25.95,5.57,89.21,14.82,6.3,C0S710
綠島,22.6672,121.47533,1.04,27.96,-0.17,86.11,17.42,10.67,C0S730
池上,23.119628,121.209469,0.79,26.25,5.6,89.21,14.58,7.97,C0S740
向陽,23.248397,120.986133,1.2,16.33,13.0,89.95,14.42,-4.07,C0S750
大溪山,22.478475,120.943325,0.97,25.86,6.87,87.79,13.76,0.96,C0S770
金崙,22.538122,120.966875,1.12,27.74,1.14,82.05,11.79,1.38,C0S790
東河,22.972672,121.303986,0.13,27.89,3.72,88.58,17.58,10.4,C0S810
長濱,23.286817,121.411975,0.84,26.92,3.38,87.63,16.18,9.85,C0S830
南田,22.279725,120.889208,0.65,28.37,1.47,80.53,16.11,2.52,C0S840
關山,23.0395,121.175017,0.27,26.84,6.05,89.53,13.79,7.68,C0S890
蘭嶼高中,22.04909,121.51214,-0.51,28.75,8.49,87.95,22.74,20.93,C0S900
蘭嶼燈塔,22.081197,121.503117,-0.44,27.18,9.69,93.53,21.16,19.67,C0S910
金峰嘉蘭,22.594789,120.960825,-0.55,27.79,3.97,81.16,14.53,9.34,C0S920
延平,22.902581,121.084058,-1.03,26.63,11.32,85.89,14.89,12.28,C0S930
石寧山,23.223772,121.406639,-0.8,27.77,6.67,88.0,17.55,15.83,C0S940
七塊厝,22.954453,121.229922,-0.21,26.22,-0.11,85.94,18.06,11.61,C0S950
香蘭,22.587569,120.993375,-0.36,28.56,11.13,84.94,13.66,10.42,C0S960
加津林,22.416211,120.926942,-0.01,28.38,4.43,81.05,15.0,11.31,C0S970
勝林山,22.430439,120.8938,-1.79,22.81,11.32,91.84,15.84,11.04,C0S980
山豬窟,22.318619,120.857372,-1.48,25.99,11.9,86.67,19.0,14.33,C0S990
歷坵,22.520969,120.89185,0.13,25.7,1.39,87.11,14.53,9.82,C0SA00
檳榔四格山,22.810031,121.109308,-0.92,25.75,7.46,90.32,11.63,9.66,C0SA10
金崙山,22.567419,120.959667,0.0,24.16,1.1,86.53,16.53,12.92,C0SA20
都歷,23.020333,121.323642,-0.36,27.91,1.95,81.0,16.05,11.68,C0SA30
瑞和,22.974361,121.156697,-0.99,26.88,6.37,85.89,14.16,10.61,C0SA40
知本（水試所）,22.702394,121.082761,-0.79,28.07,8.01,86.11,12.76,10.74,C0SA60
土坂,22.453108,120.887572,0.13,27.88,7.4,84.0,16.66,10.82,C0SA80
達仁林場,22.264347,120.823972,-0.84,25.15,11.56,90.84,26.26,16.72,C0SA90
大禹嶺,24.186117,121.316086,0.69,13.48,2.99,87.63,11.47,-0.37,C0T790
天祥,24.179597,121.495639,0.89,24.3,6.01,87.95,11.61,6.17,C0T820
鯉魚潭,23.935639,121.508944,0.51,25.85,1.85,91.47,13.74,6.33,C0T870
西林,23.8119,121.441458,0.67,26.74,7.54,88.68,10.39,3.52,C0T900
光復,23.660694,121.424964,1.24,27.36,-1.27,86.58,12.55,4.62,C0T960
月眉山,23.809928,121.539828,1.35,25.16,-1.23,92.58,9.37,2.96,C0T9A0
水源,23.991861,121.537169,1.06,24.45,-0.26,91.95,16.03,8.45,C0T9B0
和中,24.26676,121.74103,0.7,27.37,10.35,100.0,12.5,4.38,C0T9D0
大坑,23.880628,121.581981,0.96,25.41,4.0,92.95,15.0,7.85,C0T9E0
水璉,23.797131,121.542514,0.55,26.45,4.16,91.53,9.13,2.67,C0T9F0
鳳林山,23.735269,121.420131,0.14,24.53,0.78,93.95,15.32,6.57,C0T9G0
加路蘭山,23.682947,121.5274,1.33,24.6,5.79,98.68,11.16,2.56,C0T9H0
豐濱,23.583897,121.514806,1.28,26.89,-3.31,86.42,10.21,2.61,C0T9I0
靜浦,23.455167,121.495028,0.94,27.18,6.68,93.32,15.42,9.06,C0T9M0
富里,23.171639,121.249378,-0.97,26.66,19.06,99.16,12.34,10.43,C0T9N0
雙連埤,24.753033,121.641303,0.02,23.6,-1.8,93.79,8.82,-1.73,C0U520
礁溪,24.817539,121.765608,1.05,27.47,-1.77,84.79,4.68,-4.83,C0U600
玉蘭,24.675286,121.587061,1.17,25.42,-1.31,84.42,9.66,-0.91,C0U650
太平山,24.505486,121.525656,1.32,18.2,-0.96,91.79,12.58,0.33,C0U710
南山,24.43742,121.38167,0.5,22.08,-5.87,84.74,5.37,-1.13,C0U720
龜山島,24.841667,121.953133,-0.08,24.46,-1.16,93.32,3.71,-0.98,C0U750
東澳,24.52196,121.83318,0.79,27.61,-2.71,84.68,6.47,-3.5,C0U760
南澳,24.44935,121.81022,0.29,27.24,2.62,89.05,3.55,-3.44,C0U770
五結,24.68637,121.79794,-0.11,27.38,-0.25,84.37,6.05,-0.48,C0U780
頭城,24.85323,121.8308,-0.11,27.38,0.18,89.37,5.39,-2.51,C0U860
大礁溪,24.791042,121.675047,0.25,24.79,6.57,93.68,8.79,1.37,C0U870
三星,24.66812,121.65302,0.13,26.76,-5.33,83.21,7.24,0.92,C0U890
內城,24.71813,121.68766,0.63,27.38,-1.32,85.79,5.97,-1.17,C0U900
冬山,24.63373,121.7937,0.62,27.85,0.8,81.42,7.45,-0.49,C0U910
羅東,24.68184,121.74934,0.67,27.79,1.84,84.53,4.79,-1.84,C0U940
鶯子嶺,24.89754,121.79244,0.64,21.77,-2.9,92.53,10.37,0.79,C0U950
翠峰湖,24.510856,121.608044,1.05,17.96,1.49,93.95,14.55,6.05,C0U960
大福,24.80064,121.81389,-0.22,26.91,2.8,86.42,4.45,-2.38,C0U970
坪林石牌,24.86478,121.77396,0.4,23.98,2.46,95.84,7.32,-1.01,C0U980
員山,24.74435,121.72247,0.16,27.41,4.28,87.32,5.13,-1.92,C0U990
土場,24.576533,121.495333,-0.08,25.32,-2.62,86.84,6.05,-1.1,C0UA00
鴛鴦湖,24.590269,121.412228,0.75,18.59,2.46,96.37,15.87,4.1,C0UA10
白嶺,24.527819,121.519031,0.69,20.84,-2.6,92.0,12.58,2.53,C0UA30
西德山,24.560647,121.752608,0.71,21.85,1.47,94.26,11.5,2.93,C0UA40
西帽山,24.555361,121.802628,0.43,23.27,-4.51,88.47,12.13,1.24,C0UA50
樟樹山,24.41393,121.78325,0.36,24.71,2.85,89.17,5.64,-2.19,C0UA60
桃源谷,24.962606,121.888875,0.4,24.18,-0.3,95.89,9.55,-0.74,C0UA70
復興,23.222403,120.806089,0.53,24.39,3.63,85.47,18.71,-0.12,C0V210
溪埔,22.738578,120.446797,-0.05,28.35,5.24,87.05,23.26,9.05,C0V350
內門,22.975481,120.466769,0.89,28.35,2.64,86.53,27.89,11.76,C0V360
古亭坑,22.893178,120.401947,0.11,27.27,3.52,88.15,27.0,8.65,C0V370
阿公店,22.804194,120.355528,-0.19,28.11,2.31,84.89,17.08,4.34,C0V400
鳳山,22.646653,120.356122,-0.58,28.43,8.51,86.63,15.06,2.81,C0V440
鳳森,22.545064,120.392592,-0.24,28.28,0.42,83.68,17.89,4.26,C0V450
新興,22.627422,120.298803,0.41,29.44,-2.02,77.47,18.47,5.99,C0V490
阿蓮,22.883208,120.327508,-0.05,28.81,1.84,83.11,19.85,4.59,C0V530
梓官,22.760558,120.267211,-0.18,28.88,-0.45,81.11,18.95,5.88,C0V610
永安,22.82315,120.236856,-0.23,28.62,-2.11,82.16,15.5,2.64,C0V620
茄萣,22.906642,120.182608,0.17,29.2,4.32,82.89,21.0,8.84,C0V630
湖內,22.887139,120.2445,-0.54,28.35,-0.0,81.42,16.16,4.09,C0V640
彌陀,22.783806,120.246361,0.03,28.83,-2.16,82.95,16.71,4.2,C0V650
岡山,22.797078,120.294958,0.29,29.61,0.98,79.89,22.18,7.85,C0V660
仁武,22.701083,120.347722,0.11,29.63,1.37,80.0,18.16,5.02,C0V680
鼓山,22.623325,120.275575,-0.16,28.94,0.5,81.79,15.79,4.65,C0V690
三民,22.645017,120.311233,-0.06,29.51,3.37,76.95,19.34,6.31,C0V700
苓雅,22.622742,120.330669,0.44,29.72,7.17,81.06,19.91,7.65,C0V710
林園,22.507747,120.394511,0.37,29.93,4.11,81.05,15.74,2.74,C0V720
大寮,22.605614,120.395717,-0.36,28.89,7.28,84.53,22.76,10.18,C0V730
旗山,22.888614,120.483597,0.93,29.17,-0.38,79.63,26.58,11.44,C0V740
路竹,22.854997,120.259439,0.43,29.52,-0.28,79.47,16.71,2.3,C0V750
橋頭,22.757806,120.30575,0.35,29.65,-3.4,76.47,19.08,6.49,C0V760
大社,22.730306,120.346639,0.18,29.46,4.53,81.58,20.29,6.69,C0V770
萬山,22.905944,120.688056,0.42,26.19,4.7,86.26,21.47,4.19,C0V790
六龜,22.997889,120.633583,0.17,27.27,4.77,84.16,28.34,7.86,C0V800
左營,22.67491,120.28491,-0.16,28.75,-0.58,80.53,18.82,4.23,C0V810
小林,23.148408,120.63325,-0.28,25.79,8.52,88.16,17.16,5.1,C0V820
東莒,25.9652,119.98069,1.0,25.52,-0.62,87.77,2.29,-5.17,C0W110
西嶼,23.5626,119.468436,0.58,26.79,-0.67,92.53,11.76,5.76,C0W120
花嶼,23.40007,119.32276,0.5,27.1,0.63,90.53,3.92,-3.43,C0W130
金沙,24.488292,118.408778,0.82,27.16,-2.62,84.11,2.03,-3.3,C0W140
金寧,24.457703,118.328989,-0.07,27.04,-4.55,83.37,1.66,-3.04,C0W150
東河,23.296598,120.385608,-0.26,28.05,-1.46,80.58,17.08,2.15,C0X050
下營,23.22695,120.256261,0.37,28.54,-3.06,80.79,17.47,2.94,C0X060
佳里,23.173039,120.145086,0.76,28.81,3.13,88.11,21.05,8.06,C0X080
臺南市北區,23.010394,120.194228,-0.12,29.38,5.79,80.95,14.32,3.94,C0X100
臺南市南區,22.961189,120.188378,-0.07,29.18,1.46,82.58,15.84,5.76,C0X110
麻豆,23.183289,120.248611,0.51,29.52,1.65,83.63,18.24,7.22,C0X120
官田,23.193217,120.315422,-0.03,28.84,8.77,88.42,15.5,4.59,C0X130
西港,23.125608,120.203108,-0.35,28.84,0.17,79.89,21.66,11.53,C0X140
安定,23.102614,120.227839,0.16,29.15,3.51,84.42,19.84,10.39,C0X150
仁德,22.968258,120.257689,0.19,29.17,3.02,82.47,17.18,5.78,C0X160
關廟,22.963017,120.327797,-0.2,28.92,7.78,83.84,15.84,2.34,C0X170
山上,23.0757,120.363253,-0.01,28.32,2.44,83.68,19.61,7.33,C0X180
安平,22.993161,120.152181,-0.13,29.03,-3.39,79.05,15.89,6.55,C0X190
左鎮,23.056758,120.408522,0.84,28.62,-0.46,83.95,19.39,6.72,C0X200
白河,23.347466,120.414427,-0.02,28.12,2.33,82.84,16.0,1.33,C0X210
學甲,23.230367,120.182187,0.13,28.53,2.56,82.37,16.16,6.15,C0X220
鹽水,23.272621,120.247641,0.1,28.23,0.92,83.95,16.21,4.02,C0X230
關子嶺,23.331169,120.508025,0.08,26.03,3.81,87.95,27.03,4.81,C0X240
新營,23.310689,120.316681,-0.22,28.63,2.87,81.05,19.08,6.71,C0X250
後壁,23.366358,120.362326,-0.09,28.31,0.79,81.42,16.87,4.93,C0X260
將軍,23.214999,120.13577,0.14,28.43,0.48,82.79,15.68,4.13,C0X280
北門,23.267772,120.125481,0.09,28.52,-1.78,82.89,14.29,2.48,C0X290
鹿寮,23.386047,120.477331,0.01,27.49,-0.38,84.32,20.0,4.13,C0X300
柳營,23.253328,120.375253,-0.65,28.04,7.41,83.84,15.05,13.34,C0X320
明里,23.208717,121.262342,0.19,26.25,2.35,91.32,13.97,6.57,C0Z020
佳心,23.34567,121.21316,0.96,23.09,9.65,95.0,16.34,8.93,C0Z050
玉里,23.3215,121.339656,0.82,27.27,7.23,96.21,18.13,9.82,C0Z061
舞鶴,23.46811,121.37407,1.24,26.41,8.93,99.63,20.21,14.45,C0Z070
富源,23.587642,121.378225,0.66,26.45,0.33,89.84,13.87,5.32,C0Z080
東華,23.89525,121.549833,0.53,27.67,3.59,89.79,4.76,0.56,C0Z100
吉安光華,23.930925,121.595153,0.43,27.22,-3.13,84.68,15.37,10.87,C0Z150
鳳林,23.746114,121.453411,0.28,26.83,0.03,84.05,10.11,2.58,C0Z160
卓溪,23.3443,121.3029,-0.27,26.95,0.24,82.32,18.47,11.42,C0Z170
新城,24.040486,121.604878,0.26,27.4,15.46,98.63,10.74,5.85,C0Z180
富世,24.14743,121.6297,0.23,27.4,-2.03,86.0,14.13,7.67,C0Z190
萬榮,23.709219,121.420106,0.54,26.73,-1.51,85.32,13.5,6.63,C0Z200
瑞穗,23.5239,121.39021,0.75,27.22,2.23,87.89,15.16,9.83,C0Z210
和平林道,24.343922,121.656317,0.15,24.35,-2.73,89.0,11.47,8.2,C0Z220
和平,24.30717,121.77007,-0.8,26.59,-0.97,83.84,12.29,5.42,C0Z230
瑞穗林道,23.49284,121.30688,0.56,22.03,2.43,96.53,17.03,7.96,C0Z250
蕃薯寮,23.73835,121.540108,0.65,25.67,-2.95,89.53,9.26,2.49,C0Z270
德武,23.47426,121.41071,0.54,26.76,0.9,88.26,21.03,16.6,C0Z280
赤柯山,23.36893,121.38293,0.7,23.06,-0.55,90.26,20.05,14.93,C0Z290
東里,23.26853,121.30547,0.29,27.01,-2.26,85.79,21.21,17.07,C0Z300
清水斷崖,24.218294,121.689142,-0.23,26.73,-2.04,88.05,9.13,1.61,C0Z310
清水林道,23.27125,121.188272,0.05,24.19,1.25,86.32,15.18,9.19,C0Z320
安通山,23.290728,121.348528,0.07,25.26,4.75,90.37,20.74,16.44,C0Z330
口湖工作站,23.589978,120.180394,-0.01,28.16,1.28,77.79,13.24,10.7,12J990
東港工作站,22.479997,120.466058,-0.35,28.94,2.41,71.05,15.24,11.79,12Q970
恆春工作站,22.079678,120.714425,-0.2,28.66,3.97,79.68,14.66,6.62,12Q980
萬大發電廠,23.978875,121.139639,0.54,22.52,-6.67,83.47,11.13,0.03,42HA10
桃改樹林分場,24.944503,121.386972,-1.05,27.34,1.5,79.74,5.82,0.53,72AI40
桃園農改場,24.950944,121.030583,1.11,27.83,-0.1,83.53,1.74,-7.68,72C440
桃改五峰分場,24.612194,121.157167,1.23,22.66,0.93,89.32,3.78,-6.79,72D080
臺中農改場,24.003028,120.534389,0.58,28.06,4.52,87.89,11.45,0.69,72G600
中改埔里分場,23.903208,120.963364,0.38,24.19,2.05,91.47,16.56,-2.48,72HA00
南改斗南分場,23.634556,120.477333,0.79,28.36,0.87,84.11,8.05,-4.33,72K220
南改義竹分場,23.360694,120.279361,0.22,28.06,-3.77,82.32,16.0,3.2,72M360
南改鹿草分場,23.416869,120.283061,-0.15,28.21,5.02,85.95,12.18,5.04,72M700
臺南農改場,23.0605,120.342194,0.17,28.06,4.54,87.63,18.74,6.99,72N100
七股研究中心,23.081672,120.062894,0.01,28.92,2.81,84.26,21.0,15.71,72N240
高雄農改場,22.709333,120.525889,0.32,28.48,4.66,85.79,19.55,0.82,72Q010
東改班鳩分場,22.829528,121.077694,0.52,26.33,1.1,85.33,10.58,1.73,72S200
東改賓朗果園,22.813889,121.071278,-7.72,17.67,2.81,93.25,13.11,5.18,72S590
花蓮農改場,23.975222,121.563889,1.05,27.37,-0.8,83.74,15.06,9.32,72T250
花改蘭陽分場,24.686306,121.716583,1.02,27.35,-1.41,85.11,4.87,-3.02,72U480
高改旗南分場,22.857861,120.516667,-0.72,27.93,8.01,84.79,2.96,-16.13,72V140
茶改北部分場,24.955778,121.631222,1.63,25.53,0.97,87.16,4.0,-10.22,82A750
茶改場,24.908472,121.185333,0.81,26.95,-3.11,80.89,3.66,-6.44,82C160
茶改中部分場,23.875611,120.913583,0.24,23.26,1.63,90.93,19.54,1.4,82H320
茶改南部分場,23.762528,120.7405,-0.12,25.34,-0.0,89.21,13.62,-3.13,82H840
茶改東部分場,22.907694,121.130139,0.22,26.82,3.72,86.26,14.97,6.42,82S580
農工中心,24.985917,121.239833,1.18,27.85,2.23,78.11,2.53,-5.91,A2C560
水試臺西試驗場,23.717231,120.190522,0.17,28.37,3.85,88.26,14.7,7.2,A2K360
臺大雲林校區,23.730628,120.423903,-0.26,27.92,3.53,84.53,11.84,8.77,A2K630
臺南蘭花園區,23.340258,120.379661,-0.21,27.97,5.4,86.68,14.76,12.0,A2N290
畜試北區分所,24.527806,120.770972,2.72,29.73,-5.63,76.27,3.47,-4.55,B2E890
畜產試驗所,23.058972,120.336406,0.02,27.67,2.5,87.16,19.66,2.94,B2N890
畜試南區分所,21.945583,120.802167,-0.07,27.96,-1.23,82.79,16.76,5.79,B2Q810
畜試東區分所,24.669039,121.832561,-0.41,27.39,7.36,91.74,7.74,4.17,B2U990
蓮華池,23.918333,120.885278,-0.64,23.99,6.15,90.21,19.63,1.47,E2H360
林試畢祿溪站,24.226944,121.308522,-0.33,15.66,13.89,91.47,11.45,11.21,E2HA20
四湖植物園,23.676986,120.163433,-0.03,28.19,10.13,95.42,16.53,10.44,E2K600
林試六龜中心,22.991703,120.645722,-0.95,26.26,12.87,88.68,24.71,23.59,E2P980
林試太麻里2,22.598,120.99775,-0.37,28.03,4.04,80.89,0.7,-2.35,E2S960
林試太麻里1,22.598922,120.980044,-0.25,27.69,5.37,82.89,13.71,10.02,E2S980
農試所(霧峰),24.031261,120.688133,1.21,28.62,-0.18,83.11,10.37,-2.04,G2F820
農試嘉義分所,23.485028,120.473806,0.03,27.64,2.42,83.58,19.89,9.23,G2L020
農試溪口農場,23.58565,120.408111,0.92,28.34,0.67,82.84,9.26,4.07,G2M350
農試鳳山分所,22.646611,120.356083,-0.0,28.55,3.15,81.68,18.39,3.05,G2P820
苗栗農改場,24.495722,120.829111,0.49,27.61,-0.26,79.37,3.87,-6.83,K2E360
苗改生物防治研究中心,24.422861,120.871833,-0.12,26.03,1.5,82.95,7.84,-0.54,K2E710
種苗改良場,24.225972,120.800917,0.8,25.98,6.29,88.42,9.63,-6.71,K2F750
臺大和社,23.590856,120.888864,1.12,23.81,3.52,90.11,9.24,-2.62,U2HA30
臺大內茅埔,23.689722,120.851117,0.33,24.94,2.69,87.53,8.42,-3.69,U2HA40
臺大竹山,23.756972,120.681556,0.11,27.36,2.33,83.21,14.0,-1.41,U2HA50
