站名,緯度,經度,平均溫距平,本年度平均溫,平均溼度距平,本年度日均相對溼度,本年度日均降水量,日均降水量距平,站號
淡水,25.164889,121.448906,0.9,27.89,1.8,82.33,3.3,-7.19,466900
鞍部,25.182586,121.529731,0.67,22.51,4.94,93.29,4.25,-9.4,466910
臺北,25.037658,121.514853,1.0,28.9,1.27,77.0,5.08,-7.55,466920
竹子湖,25.162078,121.544547,0.87,24.23,2.72,88.33,4.0,-8.22,466930
基隆,25.133314,121.740475,0.91,28.01,1.6,79.74,3.96,-8.52,466940
花蓮,23.975128,121.613275,0.46,27.62,3.86,84.76,12.73,6.35,466990
新屋,25.006725,121.047492,0.13,27.86,-0.03,83.76,1.58,-9.96,467050
宜蘭,24.763975,121.756528,0.69,27.63,4.05,86.0,5.01,-3.57,467080
金門,24.407306,118.289281,0.71,26.82,2.16,89.1,2.39,-3.33,467110
田中,23.873803,120.581286,-0.86,28.34,1.97,82.42,8.9,7.24,467270
澎湖,23.565503,119.563094,0.59,28.19,1.96,87.4,5.61,-0.64,467350
臺南,22.99328,120.20492,0.39,29.11,1.08,78.14,15.15,0.61,467410
永康,23.038386,120.2367,0.61,29.04,3.82,78.57,16.7,1.8,467420
嘉義,23.495925,120.432906,0.3,28.46,4.19,81.65,17.08,4.44,467480
臺中,24.145736,120.684075,0.88,28.74,0.79,77.2,6.16,-7.49,467490
阿里山,23.508208,120.813242,0.5,14.8,2.41,93.0,19.94,-8.48,467530
大武,22.35572,120.90374,0.63,28.7,1.37,78.95,15.05,0.72,467540
玉山,23.48718,120.95943,1.49,8.75,4.38,86.57,13.7,-5.53,467550
新竹,24.827853,121.014219,0.75,28.47,1.44,78.53,2.35,-7.71,467571
恆春,22.003897,120.746339,0.4,28.83,2.87,82.76,13.2,1.23,467590
成功,23.097486,121.373428,0.42,27.51,4.43,86.75,15.97,9.61,467610
日月潭,23.881325,120.90805,0.68,22.81,6.56,92.11,22.29,4.46,467650
臺東,22.752211,121.154586,0.48,28.53,3.79,81.8,10.45,2.05,467660
馬祖,26.169467,119.923158,1.38,25.78,1.95,90.1,5.56,-1.55,467990
山佳,24.974944,121.402008,1.62,29.06,-0.66,80.14,2.57,-8.13,C0A520
坪林,24.938183,121.70975,2.66,27.21,-2.68,89.43,6.36,-6.58,C0A530
泰平,24.971197,121.823711,1.19,24.83,0.06,94.57,7.48,-6.38,C0A550
桶後,24.848222,121.597992,1.98,26.07,-5.18,87.31,10.62,-2.42,C0A570
石碇,24.993969,121.662917,1.11,26.31,-4.17,87.05,3.4,-12.69,C0A640
大坪,25.165914,121.632969,2.21,26.92,-3.43,85.0,5.87,-8.3,C0A860
五指山,25.132153,121.608692,2.54,25.15,-2.61,90.76,4.21,-7.88,C0A870
雙溪,25.036003,121.864242,2.23,28.1,-2.66,86.29,5.31,-6.84,C0A890
三和,25.233153,121.595236,0.47,26.4,-2.33,89.38,7.57,-10.01,C0A931
金山,25.223628,121.643967,0.85,27.27,-2.39,83.14,5.81,-6.14,C0A940
鼻頭角,25.129036,121.923372,1.39,27.75,-2.41,87.38,3.36,-4.28,C0A950
三貂角,25.007606,122.002058,1.03,27.08,2.53,89.62,6.71,-1.05,C0A970
社子,25.109508,121.469681,1.78,29.58,0.28,79.43,2.67,-6.92,C0A980
天母,25.117494,121.537169,1.02,28.75,-3.75,73.19,2.57,-7.54,C0A9C0
內湖,25.079422,121.57545,1.7,29.58,-0.28,78.0,4.38,-7.19,C0A9F0
大屯山,25.175675,121.522408,2.32,23.06,2.53,97.76,4.31,-7.81,C0AC40
三峽,24.939025,121.369728,1.58,29.38,-0.25,81.1,4.45,-7.48,C0AC60
信義,25.037822,121.564597,1.35,29.18,-1.7,78.57,5.02,-8.09,C0AC70
文山,25.00235,121.575728,0.47,27.7,-3.23,81.57,5.17,-8.98,C0AC80
新莊,25.051478,121.446756,-0.08,28.47,1.2,75.86,2.67,-8.16,C0ACA0
八里,25.150211,121.403947,1.56,29.44,8.43,87.19,3.1,-5.38,C0AD10
蘆洲,25.086594,121.472331,0.97,29.69,0.79,76.71,2.64,-6.96,C0AD30
土城,24.973208,121.445169,0.38,27.8,-0.28,82.48,9.55,-3.78,C0AD40
鶯歌,24.951533,121.346294,1.32,29.08,1.15,83.52,2.43,-7.77,C0AD50
汐止,25.066881,121.658778,0.61,28.27,-3.8,79.76,3.0,-10.34,C0AH00
永和,25.01125,121.508111,1.21,29.54,1.97,77.62,9.02,-3.87,C0AH10
五分山,25.07125,121.780794,2.33,24.83,-1.5,92.62,5.81,-10.22,C0AH30
平等,25.129142,121.577086,0.48,26.08,-0.5,82.29,3.36,-9.99,C0AH40
林口,25.072181,121.38084,1.53,28.06,0.77,85.94,3.05,-8.1,C0AH50
松山,25.04871,121.55042,0.31,28.77,9.56,79.24,5.88,-0.42,C0AH70
深坑,25.002703,121.628328,1.05,27.86,-0.31,84.1,3.07,-6.67,C0AH80
福山植物園,24.760717,121.58135,0.59,23.5,1.87,94.14,9.38,1.84,C0AH90
五股,25.07445,121.42728,0.98,28.42,0.62,82.81,3.05,-5.13,C0AI00
屈尺,24.92184,121.54475,1.89,29.0,1.36,85.52,7.95,-2.77,C0AI10
白沙灣,25.283128,121.519058,0.24,27.5,7.89,85.95,3.24,-4.01,C0AI20
三重,25.057328,121.500629,-0.96,29.31,8.64,84.81,2.26,-0.65,C0AI30
石牌,25.115597,121.513139,0.37,29.86,8.04,77.24,2.48,-5.28,C0AI40
七堵,25.094819,121.71713,1.29,28.95,-1.12,82.71,3.83,-7.42,C0B010
基隆嶼,25.19141,121.78391,-0.17,27.01,7.21,95.62,1.33,-7.56,C0B020
復興,24.820208,121.352281,0.21,24.49,-8.14,78.24,8.26,-7.06,C0C460
桃園,24.992425,121.323172,0.67,28.6,1.96,75.9,3.4,-7.02,C0C480
八德,24.928708,121.283289,0.14,27.8,-2.13,77.14,3.57,-6.52,C0C490
觀音,25.027072,121.153317,0.31,27.17,6.99,88.86,4.55,-5.25,C0C590
蘆竹,25.084275,121.265767,0.6,28.25,-0.53,81.05,2.17,-7.29,C0C620
大溪,24.882853,121.265547,0.47,26.76,3.1,81.1,5.1,-4.93,C0C630
平鎮,24.897503,121.214636,0.74,27.06,1.01,81.43,4.21,-5.28,C0C650
楊梅,24.912375,121.143047,-0.02,27.59,4.16,80.1,2.62,-7.61,C0C660
龍潭,24.870056,121.221389,0.09,26.74,2.51,80.67,6.67,-2.68,C0C670
龜山,25.02846,121.38656,-0.55,25.92,-0.72,79.24,3.17,-8.85,C0C680
中壢,24.977661,121.256375,0.3,27.92,1.99,76.38,2.57,-3.68,C0C700
大溪永福,24.892936,121.324975,0.58,27.22,1.0,84.71,4.48,-4.98,C0C710
梅花,24.678347,121.208558,0.56,24.41,2.44,90.24,8.21,-1.95,C0D360
峨眉,24.6905,121.017189,0.26,27.28,2.53,88.95,4.55,-4.79,C0D430
打鐵坑,24.849664,121.150789,0.18,25.76,-1.33,84.81,1.24,-8.62,C0D480
橫山,24.71116,121.11693,0.07,25.83,10.89,96.48,5.48,-4.43,C0D540
雪霸,24.526972,121.11605,0.49,18.29,1.33,85.81,5.85,-7.04,C0D550
竹東,24.767147,121.057881,1.47,28.25,-0.43,75.57,5.29,-3.21,C0D560
寶山,24.735006,121.025192,0.53,26.67,1.64,86.43,3.95,-5.38,C0D580
新豐,24.87068,120.97721,0.47,27.01,6.42,89.9,2.4,-7.96,C0D590
湖口,24.904794,121.043628,0.29,27.92,-1.96,77.62,2.17,-7.9,C0D650
新竹市東區,24.798681,120.986942,-0.0,27.94,2.35,77.57,2.6,-7.49,C0D660
竹南,24.708978,120.888897,1.88,29.31,4.54,83.14,3.14,-6.59,C0E420
南庄,24.601775,121.000214,0.45,26.04,3.26,86.57,5.93,-5.74,C0E430
明德,24.583486,120.885411,0.6,28.39,-0.31,79.24,3.64,-4.75,C0E550
通霄,24.471892,120.704622,0.17,27.99,0.44,83.29,4.07,-4.36,C0E590
馬都安,24.451272,120.930192,0.69,23.48,5.66,87.62,8.14,-4.52,C0E610
頭份,24.688247,120.912206,1.43,29.64,1.89,76.19,4.6,-4.58,C0E730
造橋,24.637056,120.864778,0.2,28.38,-1.0,80.29,3.4,-5.66,C0E740
苗栗,24.564569,120.824575,-0.12,28.46,-2.45,72.19,3.0,-5.97,C0E750
銅鑼,24.489681,120.790853,0.19,27.89,-2.79,78.86,3.88,-5.66,C0E780
西湖,24.562947,120.7485,0.38,27.75,-1.8,85.0,3.62,-5.61,C0E810
獅潭,24.539133,120.920042,-0.02,26.84,-2.47,81.29,4.17,-6.53,C0E820
苑裡,24.439714,120.653053,-0.15,28.23,0.1,79.1,2.79,-6.13,C0E830
大河,24.618069,120.948578,-1.31,26.09,1.96,81.95,4.29,-7.38,C0E850
高鐵苗栗,24.60725,120.826094,0.04,28.33,11.49,84.95,3.67,-3.54,C0E870
石岡,24.276061,120.777644,0.58,27.33,0.78,81.81,9.33,-8.05,C0F0B0
中坑,24.248517,120.903319,-0.36,21.93,-0.88,89.86,13.83,-9.47,C0F0C0
審馬陣,24.381675,121.4203,0.46,11.55,5.95,87.62,10.26,3.43,C0F0D0
東勢,24.246428,120.833047,1.19,27.6,-1.47,78.62,8.93,-6.73,C0F850
大坑,24.173142,120.722289,1.27,29.45,1.25,77.19,5.31,-7.23,C0F970
神岡,24.272481,120.658314,-0.07,27.55,-3.75,79.62,4.74,-3.67,C0F9I0
大安,24.345061,120.588025,-0.17,27.96,-0.99,82.33,3.88,-3.34,C0F9K0
后里,24.310436,120.729725,0.63,28.29,-2.21,79.19,6.6,-4.15,C0F9L0
豐原,24.254322,120.720692,1.54,29.3,-2.95,75.0,5.69,-6.5,C0F9M0
大里,24.092464,120.701378,0.95,30.0,3.31,77.9,6.07,-5.73,C0F9N0
潭子,24.213106,120.703933,0.35,28.98,2.65,79.1,5.5,-6.81,C0F9O0
清水,24.312297,120.562242,-0.08,28.5,-2.52,80.38,3.5,-3.34,C0F9P0
外埔,24.347817,120.705686,0.09,27.62,-1.7,82.81,5.93,-3.05,C0F9Q0
龍井,24.184536,120.528972,0.21,28.7,-7.72,79.38,5.52,-2.54,C0F9R0
烏日,24.107058,120.624103,0.16,28.8,-0.44,76.14,6.67,-3.36,C0F9S0
西屯,24.179494,120.641275,0.11,28.79,-1.93,75.0,5.79,-4.44,C0F9T0
南屯,24.137006,120.637969,-0.01,28.94,-0.18,75.81,6.31,-3.57,C0F9U0
新社,24.200172,120.815806,0.46,25.83,-3.31,82.24,11.86,-4.67,C0F9V0
大雅(中科園區),24.21528,120.62445,0.16,27.66,1.57,81.52,4.24,-8.01,C0F9X0
桃山,24.432739,121.303808,0.54,10.91,5.4,88.86,11.62,-4.57,C0F9Y0
雪山東峰,24.388792,121.268675,0.67,11.8,3.81,85.67,10.31,-7.57,C0F9Z0
芬園,24.015678,120.6213,-0.56,27.18,8.65,91.29,9.02,-2.48,C0G620
員林,23.946503,120.585597,2.61,30.59,-3.09,79.57,9.62,-2.16,C0G650
溪湖,23.94835,120.479122,0.91,29.1,-5.62,81.53,9.02,-1.58,C0G660
溪州,23.851589,120.499093,0.89,28.75,-6.41,76.29,11.38,-2.53,C0G720
二林,23.903325,120.376081,0.31,28.24,-0.13,88.0,11.48,-1.95,C0G730
大城,23.852487,120.320935,0.26,28.09,0.44,83.81,6.57,-5.6,C0G740
福興,24.041289,120.437669,0.08,29.18,-5.44,78.33,6.4,-2.44,C0G770
秀水,24.03405,120.503869,0.45,29.15,-1.11,82.19,9.14,-0.05,C0G780
埔鹽,24.000394,120.431683,0.82,28.98,-7.28,79.5,7.36,-1.7,C0G800
埔心,23.947633,120.525456,1.47,30.31,-1.38,78.86,9.0,-1.92,C0G810
田尾,23.901669,120.509389,0.49,29.0,1.39,86.19,10.48,-1.27,C0G820
埤頭,23.866003,120.452806,0.13,28.53,2.85,90.86,9.24,-1.36,C0G830
社頭,23.897647,120.5862,0.33,29.42,8.39,83.57,8.05,-3.82,C0G860
二水,23.810742,120.6173,1.06,29.44,0.81,82.21,8.24,-4.03,C0G880
伸港,24.148933,120.484403,-0.02,28.56,-4.54,79.19,5.76,-1.87,C0G890
線西,24.143358,120.443536,-0.8,28.55,0.34,80.95,5.33,-2.69,C0G900
花壇,24.032076,120.549461,1.27,30.58,11.46,86.33,9.29,6.79,C0G910
埔里,23.972169,120.952425,0.41,26.03,1.36,86.43,17.98,-3.92,C0H890
草屯,23.973672,120.68085,-0.03,28.14,1.69,80.1,8.69,-3.66,C0H960
昆陽,24.121322,121.273642,1.11,11.59,1.07,90.52,11.38,-2.46,C0H990
神木村,23.532742,120.843667,0.74,19.7,0.62,91.48,15.29,-7.37,C0H9A0
合歡山,24.143442,121.272547,1.22,10.66,7.34,94.33,16.12,-10.42,C0H9C0
廬山,24.033311,121.181808,0.96,20.24,-1.96,84.81,11.36,-8.0,C0I010
信義,23.689694,120.851036,0.4,24.95,1.39,88.1,9.31,-8.41,C0I080
竹山,23.761225,120.688156,0.8,27.59,1.73,85.19,16.48,1.25,C0I110
水里,23.812553,120.849792,0.45,26.6,-0.63,81.9,15.81,-5.59,C0I360
魚池,23.895703,120.94135,0.4,24.65,-1.78,85.0,16.86,-5.56,C0I370
集集,23.828206,120.801467,-0.01,26.79,1.79,85.76,15.21,-8.75,C0I380
仁愛,24.022122,121.132206,0.83,22.04,-4.21,84.71,10.62,-16.87,C0I390
名間,23.837053,120.701447,-0.18,27.0,6.09,86.38,12.33,-4.44,C0I410
國姓,24.037803,120.855072,0.34,26.5,-0.66,85.86,13.76,-12.23,C0I420
南投,23.911469,120.687331,0.1,28.33,7.44,85.29,9.1,-9.91,C0I460
梅峰,24.085272,121.173572,1.06,16.75,-2.83,88.48,14.19,-16.22,C0I480
萬大林道,23.928228,121.091411,0.74,19.84,-5.81,85.57,11.98,-8.63,C0I490
小奇萊,24.131764,121.295717,1.12,11.56,0.99,89.86,6.17,-13.64,C0I530
崙背,23.75555,120.318925,0.14,27.98,-0.77,85.48,11.45,-3.63,C0K250
四湖,23.630414,120.227125,0.81,28.49,-2.41,83.24,13.29,1.85,C0K280
宜梧,23.536281,120.169329,0.03,28.5,-1.49,82.71,12.83,1.86,C0K291
虎尾,23.719183,120.442036,0.64,28.68,5.93,85.1,11.4,-0.9,C0K330
土庫,23.679029,120.395574,0.14,28.34,-2.44,80.0,11.31,-3.2,C0K390
斗六,23.720583,120.541127,0.14,28.31,-2.82,78.0,8.02,-7.46,C0K400
北港,23.573957,120.292802,0.13,28.42,-2.48,80.48,11.33,1.62,C0K410
西螺,23.800407,120.467394,0.17,28.53,-1.51,80.1,9.93,-3.37,C0K420
褒忠,23.690938,120.303634,0.19,28.2,-0.98,83.1,11.38,-0.88,C0K430
二崙,23.772797,120.408944,0.39,28.47,7.21,90.57,9.88,-5.87,C0K440
大埤,23.646074,120.431537,0.26,28.43,-0.76,80.57,9.79,-5.57,C0K450
斗南,23.678734,120.478359,0.2,28.42,2.44,80.33,9.57,-6.42,C0K460
林內,23.748675,120.609642,0.15,27.64,-0.38,82.38,12.24,-3.93,C0K470
莿桐,23.761192,120.502372,0.17,28.16,0.6,80.62,7.86,-8.09,C0K480
元長,23.64981,120.315024,0.29,28.58,0.28,81.81,13.1,-1.48,C0K500
水林,23.572924,120.24597,0.37,28.67,1.68,83.1,13.33,0.67,C0K510
臺西,23.701547,120.197559,0.01,28.11,0.9,83.81,13.83,-0.07,C0K530
蔦松,23.514319,120.229736,0.26,28.58,0.04,83.57,13.1,2.64,C0K550
棋山,23.68645,120.603417,0.1,27.7,4.58,86.38,13.83,-5.91,C0K560
高鐵雲林,23.737456,120.417944,-0.39,27.97,-0.1,84.14,11.55,2.62,C0K580
東後寮,23.369908,120.248065,0.2,28.18,0.51,85.57,12.83,0.38,C0M520
奮起湖,23.493903,120.699253,0.78,20.49,1.99,94.14,21.93,-4.09,C0M530
中埔,23.42538,120.5229,-0.05,27.77,-0.77,77.14,14.05,-2.76,C0M640
朴子,23.43463,120.23902,-0.47,27.67,2.77,85.81,12.5,1.52,C0M650
溪口,23.604131,120.403569,0.1,28.22,-1.3,80.95,7.83,-4.39,C0M660
大林,23.600616,120.45841,0.2,28.66,0.74,79.29,10.38,-5.56,C0M670
太保,23.455062,120.331455,-0.01,28.3,-2.21,81.38,12.48,-0.66,C0M680
水上,23.419734,120.388909,0.19,28.28,-0.67,81.0,16.95,3.2,C0M690
竹崎,23.526178,120.555508,-0.1,27.34,2.38,83.43,16.86,0.72,C0M700
東石,23.458927,120.15385,-0.17,28.55,-2.32,80.57,13.86,3.34,C0M710
番路,23.464657,120.554156,0.19,27.42,2.13,80.29,17.95,-1.27,C0M720
嘉義市東區,23.457673,120.460531,0.01,28.7,2.81,80.43,15.81,1.8,C0M730
六腳,23.492871,120.290625,0.06,28.45,2.07,81.81,13.14,3.19,C0M740
布袋,23.380878,120.167789,0.2,28.73,-2.18,80.86,12.14,-0.75,C0M750
民雄,23.551754,120.428457,0.07,28.6,-0.24,80.0,10.45,-3.93,C0M760
嘉義梅山,23.585398,120.555587,-0.24,27.71,3.3,81.95,19.31,2.56,C0M770
鹿草,23.41134,120.30835,0.26,28.63,1.04,82.19,14.62,-0.21,C0M780
新港,23.553269,120.345728,-0.07,28.31,-0.42,80.62,9.83,-2.15,C0M790
茶山,23.299075,120.664767,0.09,25.34,1.55,87.57,17.62,-6.28,C0M800
里佳,23.389125,120.716647,0.53,20.91,-0.73,87.67,23.24,-9.25,C0M810
達邦,23.453994,120.749517,0.68,22.71,2.83,88.19,14.38,-12.88,C0M820
表湖,23.24186,120.64166,-0.64,23.68,1.41,88.0,15.64,-0.97,C0M850
新美,23.338017,120.683169,-0.33,25.0,10.39,87.52,17.93,14.69,C0M860
北寮,23.079561,120.495008,-0.22,27.6,7.49,90.05,23.57,11.53,C0O830
王爺宮,23.222064,120.40085,2.02,29.7,-4.25,78.9,16.17,2.73,C0O840
大內,23.11885,120.36083,0.69,29.47,4.11,86.05,16.74,4.68,C0O860
善化,23.112883,120.297219,0.59,28.5,8.25,91.76,16.5,1.46,C0O900
崎頂,22.959547,120.369317,0.8,28.56,0.61,86.29,15.71,4.34,C0O960
虎頭埤,23.021375,120.347878,-0.16,27.85,-1.39,82.38,18.29,5.67,C0O970
新市,23.061614,120.298197,0.54,29.18,-1.86,81.67,15.88,5.19,C0O980
媽廟,22.99175,120.293525,0.24,28.86,1.13,83.81,14.48,2.53,C0O990
尾寮山,22.833111,120.683889,1.17,22.76,1.62,93.71,29.83,-1.03,C0R100
阿禮,22.742908,120.743678,0.19,22.54,-2.3,84.29,17.79,0.95,C0R130
瑪家,22.682903,120.686639,-0.55,23.73,10.9,95.29,25.88,2.18,C0R140
三地門,22.709889,120.639944,0.68,28.35,1.63,79.05,22.5,0.42,C0R150
鹽埔,22.739558,120.530778,0.29,28.63,-0.28,86.0,17.76,3.88,C0R160
赤山,22.592333,120.614306,-0.07,28.5,7.32,89.48,18.79,1.86,C0R190
潮州,22.534361,120.54,0.84,29.04,1.64,79.52,20.1,2.55,C0R220
來義,22.527306,120.625111,-0.83,27.2,9.63,90.67,19.79,3.53,C0R240
春日,22.370361,120.628306,-1.3,27.15,6.07,86.38,19.67,7.29,C0R260
琉球嶼,22.332244,120.362236,0.75,28.76,-3.86,82.19,9.1,-1.48,C0R270
車城,22.0744,120.716247,-0.52,28.67,3.88,85.57,14.6,12.07,C0R320
牡丹,22.130036,120.792639,-0.45,26.59,10.49,94.19,17.57,11.81,C0R341
貓鼻頭,21.921774,120.7358,0.59,28.56,0.9,84.81,13.83,3.75,C0R350
大漢山,22.405264,120.753181,0.27,18.25,3.9,97.86,39.0,26.04,C0R440
高樹,22.826389,120.600806,-0.33,28.3,0.79,77.62,21.0,5.32,C0R470
長治,22.693128,120.542622,0.59,29.4,-0.23,79.38,19.07,4.5,C0R480
九如,22.7405,120.490503,0.63,29.35,-1.76,80.0,20.48,6.4,C0R490
崁頂,22.514781,120.506914,-0.21,28.8,0.97,82.71,12.19,-1.01,C0R520
佳冬,22.419456,120.552375,-0.09,28.82,0.86,81.48,17.9,5.04,C0R540
新埤,22.467947,120.582894,-0.17,28.5,-3.78,78.57,19.79,7.69,C0R550
新園,22.5434,120.461558,0.9,29.78,-5.92,76.43,17.57,3.96,C0R560
麟洛,22.65078,120.52719,0.72,29.73,3.4,82.71,21.48,8.77,C0R570
南州,22.48591,120.50274,-0.23,28.55,5.66,85.24,16.64,4.43,C0R580
里港,22.77919,120.49459,0.13,28.61,2.19,83.81,19.43,6.92,C0R590
舊泰武,22.588194,120.664944,-0.15,24.3,2.83,86.9,12.4,-10.55,C0R600
墾雷,21.900836,120.855269,-0.43,28.24,8.82,93.1,14.95,6.46,C0R620
東港,22.46247,120.44074,-0.19,29.0,-0.02,83.0,13.48,10.45,C0R640
竹田,22.58486,120.54344,-0.46,28.9,1.07,81.1,19.36,13.82,C0R650
枋寮,22.367722,120.590647,-0.1,28.8,7.2,85.29,14.14,12.73,C0R660
楓港,22.190131,120.692156,-0.8,28.3,0.88,79.67,19.02,16.92,C0R670
佳樂水,21.993578,120.861633,-0.99,28.42,7.95,86.9,14.5,12.89,C0R680
墾丁,21.966756,120.810269,-0.46,26.71,3.72,91.81,15.76,13.89,C0R690
枋山,22.246844,120.661086,0.32,28.93,0.35,80.05,46.5,45.02,C0R700
龍磐,21.931672,120.838942,-0.89,27.71,5.49,90.14,13.26,12.11,C0R710
旭海,22.205403,120.887614,-0.99,26.9,6.67,85.71,12.86,8.97,C0R720
大坪頂,22.024633,120.69355,-0.66,27.53,8.88,94.57,9.24,8.17,C0R730
四林格山,22.076989,120.802439,-0.26,24.52,1.41,96.76,18.71,10.54,C0R750
南仁湖,22.084681,120.863353,-1.02,25.64,12.82,96.9,23.31,14.57,C0R760
保力,22.071122,120.764111,-0.3,27.38,4.08,89.43,15.43,8.52,C0R770
滿州,22.024403,120.839892,-0.86,27.87,5.92,85.62,16.07,12.79,C0R780
九棚,22.14195,120.889281,-1.3,27.74,11.03,85.38,7.39,1.13,C0R790
丹路,22.204481,120.750989,-0.25,27.73,3.26,84.95,26.93,20.45,C0R800
內獅,22.305064,120.642986,0.01,28.91,15.82,92.43,22.19,19.89,C0R810
白鷺,22.454275,120.666219,0.07,25.24,4.14,87.67,26.83,24.99,C0R820
高士,22.121825,120.836781,-0.95,25.43,9.65,92.95,19.81,11.51,C0R830
牡丹池山,22.168389,120.841225,-0.77,24.58,9.1,95.1,17.17,10.23,C0R840
下馬,23.150427,121.070312,0.16,23.92,6.01,86.29,10.19,8.7,C0S660
太麻里,22.60902,120.98533,0.92,25.32,4.8,88.7,9.15,-0.46,C0S690
知本,22.684866,121.005642,0.96,25.53,4.77,90.1,17.19,7.06,C0S700
鹿野,22.917711,121.122994,1.22,26.03,5.59,88.76,13.4,5.21,C0S710
綠島,22.6672,121.47533,1.03,28.04,-0.86,85.62,15.76,9.14,C0S730
池上,23.119628,121.209469,0.76,26.36,5.36,88.33,13.19,6.75,C0S740
向陽,23.248397,120.986133,1.1,16.32,13.43,89.86,13.05,-4.43,C0S750
大溪山,22.478475,120.943325,0.88,25.88,6.6,87.9,12.45,0.11,C0S770
金崙,22.538122,120.966875,1.07,27.81,1.18,81.86,10.67,0.65,C0S790
東河,22.972672,121.303986,0.1,27.98,3.37,88.05,15.93,9.26,C0S810
長濱,23.286817,121.411975,0.78,27.0,3.46,87.33,14.64,8.83,C0S830
南田,22.279725,120.889208,0.59,28.4,1.75,80.43,14.57,1.39,C0S840
關山,23.0395,121.175017,0.2,26.93,6.15,88.95,12.48,6.93,C0S890
蘭嶼高中,22.04909,121.51214,-0.57,28.76,8.23,87.62,20.57,18.92,C0S900
蘭嶼燈塔,22.081197,121.503117,-0.38,27.28,9.11,92.81,19.14,17.78,C0S910
金峰嘉蘭,22.594789,120.960825,-0.61,27.78,3.9,80.9,13.6,8.86,C0S920
延平,22.902581,121.084058,-1.11,26.68,11.29,85.29,13.52,11.13,C0S930
石寧山,23.223772,121.406639,-0.78,27.9,6.65,87.48,15.88,14.3,C0S940
七塊厝,22.954453,121.229922,-0.22,26.31,-1.07,84.58,16.18,10.29,C0S950
香蘭,22.587569,120.993375,-0.42,28.56,11.21,84.94,12.5,9.54,C0S960
加津林,22.416211,120.926942,0.0,28.41,4.21,80.95,13.57,10.2,C0S970
勝林山,22.430439,120.8938,-1.84,22.86,11.89,91.76,14.33,9.95,C0S980
山豬窟,22.318619,120.857372,-1.56,25.99,12.32,86.67,17.19,12.93,C0S990
歷坵,22.520969,120.89185,0.09,25.71,1.49,87.1,13.14,8.85,C0SA00
檳榔四格山,22.810031,121.109308,-0.97,25.8,7.74,90.05,10.52,8.72,C0SA10
金崙山,22.567419,120.959667,-0.11,24.16,1.79,86.57,14.98,11.82,C0SA20
都歷,23.020333,121.323642,-0.3,28.0,1.37,80.29,14.52,10.53,C0SA30
瑞和,22.974361,121.156697,-1.03,26.95,6.34,85.43,12.81,9.57,C0SA40
知本（水試所）,22.702394,121.082761,-0.73,28.18,7.3,85.48,11.55,9.71,C0SA60
土坂,22.453108,120.887572,0.0,27.9,8.29,83.95,15.07,9.75,C0SA80
達仁林場,22.264347,120.823972,-0.85,25.22,11.74,90.52,23.76,15.04,C0SA90
大禹嶺,24.186117,121.316086,0.65,13.53,2.69,87.33,11.14,-0.07,C0T790
天祥,24.179597,121.495639,0.88,24.4,5.54,87.38,10.5,4.98,C0T820
鯉魚潭,23.935639,121.508944,0.49,25.95,1.71,91.05,12.55,5.58,C0T870
西林,23.8119,121.441458,0.68,26.86,7.46,88.1,9.4,2.92,C0T900
光復,23.660694,121.424964,1.19,27.47,-1.3,86.1,11.36,3.64,C0T960
月眉山,23.809928,121.539828,1.25,25.18,-0.96,92.57,8.62,2.31,C0T9A0
水源,23.991861,121.537169,0.96,24.48,0.18,91.95,14.9,7.41,C0T9B0
和中,24.26676,121.74103,0.68,27.49,10.41,100.0,11.31,3.59,C0T9D0
大坑,23.880628,121.581981,0.89,25.48,4.14,92.81,16.57,9.81,C0T9E0
水璉,23.797131,121.542514,0.51,26.54,4.39,91.33,8.33,2.13,C0T9F0
鳳林山,23.735269,121.420131,0.09,24.61,0.93,93.62,13.86,5.65,C0T9G0
加路蘭山,23.682947,121.5274,1.22,24.62,6.37,98.62,10.45,2.22,C0T9H0
豐濱,23.583897,121.514806,1.22,26.95,-3.07,86.1,9.24,2.2,C0T9I0
靜浦,23.455167,121.495028,0.9,27.26,6.89,93.14,13.95,7.8,C0T9M0
富里,23.171639,121.249378,-0.94,26.79,19.53,99.05,11.17,9.42,C0T9N0
雙連埤,24.753033,121.641303,0.01,23.68,-1.96,93.57,8.07,-2.43,C0U520
礁溪,24.817539,121.765608,1.0,27.55,-2.34,84.43,4.48,-4.63,C0U600
玉蘭,24.675286,121.587061,1.12,25.51,-1.41,84.14,8.9,-1.24,C0U650
太平山,24.505486,121.525656,1.2,18.18,-0.83,91.9,14.38,1.92,C0U710
南山,24.43742,121.38167,0.39,22.09,-5.3,84.71,5.31,-0.64,C0U720
龜山島,24.841667,121.953133,-0.15,24.5,-0.84,93.48,3.36,-1.09,C0U750
東澳,24.52196,121.83318,0.81,27.76,-3.55,83.95,5.86,-3.54,C0U760
南澳,24.44935,121.81022,0.27,27.33,2.49,88.86,3.21,-3.47,C0U770
五結,24.68637,121.79794,-0.05,27.55,-0.75,83.76,5.48,-0.83,C0U780
頭城,24.85323,121.8308,-0.01,27.52,-0.48,88.86,4.93,-2.77,C0U860
大礁溪,24.791042,121.675047,0.23,24.85,6.48,93.52,9.05,1.68,C0U870
三星,24.66812,121.65302,0.16,26.87,-5.65,82.86,7.43,0.68,C0U890
內城,24.71813,121.68766,0.66,27.5,-1.74,85.33,5.67,-1.49,C0U900
冬山,24.63373,121.7937,0.71,28.01,0.12,80.67,6.74,-1.18,C0U910
羅東,24.68184,121.74934,0.72,27.92,1.52,84.1,4.36,-2.11,C0U940
鶯子嶺,24.89754,121.79244,0.58,21.8,-3.17,92.05,9.57,-1.09,C0U950
翠峰湖,24.510856,121.608044,1.07,18.02,1.52,93.62,13.98,5.72,C0U960
大福,24.80064,121.81389,-0.18,27.04,2.02,86.0,4.29,-2.05,C0U970
坪林石牌,24.86478,121.77396,0.39,24.03,2.31,95.71,7.52,-1.04,C0U980
員山,24.74435,121.72247,0.19,27.51,3.89,86.9,4.76,-2.05,C0U990
土場,24.576533,121.495333,-0.07,25.42,-2.72,86.43,5.76,-0.82,C0UA00
鴛鴦湖,24.590269,121.412228,0.69,18.6,2.49,96.43,15.55,4.15,C0UA10
白嶺,24.527819,121.519031,0.57,20.81,-2.04,92.38,15.02,5.28,C0UA30
西德山,24.560647,121.752608,0.62,21.87,1.99,94.33,10.74,2.69,C0UA40
西帽山,24.555361,121.802628,0.36,23.3,-4.39,88.33,11.05,0.79,C0UA50
樟樹山,24.41393,121.78325,0.33,24.77,3.16,89.2,5.08,-2.69,C0UA60
桃源谷,24.962606,121.888875,0.37,24.24,-0.14,96.0,8.76,-2.27,C0UA70
復興,23.222403,120.806089,0.52,24.42,3.39,85.14,16.93,-0.66,C0V210
溪埔,22.738578,120.446797,-0.01,28.45,4.82,86.29,21.05,7.71,C0V350
內門,22.975481,120.466769,0.93,28.44,2.2,86.0,25.26,9.87,C0V360
古亭坑,22.893178,120.401947,0.21,27.46,2.68,87.27,23.4,6.0,C0V370
阿公店,22.804194,120.355528,-0.2,28.16,2.11,84.38,15.45,3.46,C0V400
鳳山,22.646653,120.356122,-0.56,28.5,8.06,86.1,13.39,1.95,C0V440
鳳森,22.545064,120.392592,-0.26,28.32,0.31,83.43,16.19,3.47,C0V450
新興,22.627422,120.298803,0.44,29.52,-2.27,76.95,16.71,5.0,C0V490
阿蓮,22.883208,120.327508,-0.01,28.92,1.1,82.38,17.2,2.88,C0V530
梓官,22.760558,120.267211,-0.19,28.94,-0.59,80.67,17.14,4.86,C0V610
永安,22.82315,120.236856,-0.22,28.69,-2.49,81.67,14.02,1.9,C0V620
茄萣,22.906642,120.182608,0.19,29.29,4.01,82.38,19.0,7.63,C0V630
湖內,22.887139,120.2445,-0.55,28.41,-0.32,81.0,14.62,3.18,C0V640
彌陀,22.783806,120.246361,-0.0,28.86,-2.4,82.43,15.12,3.38,C0V650
岡山,22.797078,120.294958,0.29,29.67,0.78,79.43,20.07,6.71,C0V660
仁武,22.701083,120.347722,0.13,29.69,1.22,79.38,16.43,4.21,C0V680
鼓山,22.623325,120.275575,-0.14,29.02,0.13,81.24,14.29,3.94,C0V690
三民,22.645017,120.311233,-0.06,29.57,3.19,76.52,17.5,5.34,C0V700
苓雅,22.622742,120.330669,0.49,29.83,6.65,80.42,17.82,6.32,C0V710
林園,22.507747,120.394511,0.36,29.99,3.97,80.67,14.24,2.14,C0V720
大寮,22.605614,120.395717,-0.33,28.98,6.85,83.86,20.6,8.75,C0V730
旗山,22.888614,120.483597,0.97,29.27,-0.7,79.1,24.05,9.84,C0V740
路竹,22.854997,120.259439,0.42,29.58,-0.48,79.05,15.12,1.51,C0V750
橋頭,22.757806,120.30575,0.34,29.71,-3.53,76.05,17.26,5.45,C0V760
大社,22.730306,120.346639,0.2,29.55,4.1,80.95,18.36,5.55,C0V770
萬山,22.905944,120.688056,0.4,26.23,4.23,85.71,19.11,2.74,C0V790
六龜,22.997889,120.633583,0.19,27.34,4.43,83.71,25.81,6.47,C0V800
左營,22.67491,120.28491,-0.16,28.82,-0.95,80.05,17.02,3.44,C0V810
小林,23.148408,120.63325,-0.22,25.88,8.07,87.57,15.74,4.56,C0V820
東莒,25.9652,119.98069,1.13,25.8,-1.04,87.47,2.0,-5.6,C0W110
西嶼,23.5626,119.468436,0.65,26.88,-1.24,92.21,10.53,5.03,C0W120
花嶼,23.40007,119.32276,0.5,27.13,0.45,90.48,3.55,-3.19,C0W130
金沙,24.488292,118.408778,0.86,27.28,-2.78,84.33,1.83,-3.18,C0W140
金寧,24.457703,118.328989,-0.03,27.15,-4.66,83.67,1.5,-3.01,C0W150
東河,23.296598,120.385608,-0.23,28.12,-2.09,79.81,15.45,0.43,C0X050
下營,23.22695,120.256261,0.39,28.62,-3.5,80.24,15.81,1.97,C0X060
佳里,23.173039,120.145086,0.72,28.86,2.73,87.62,19.05,6.69,C0X080
臺南市北區,23.010394,120.194228,-0.11,29.46,5.48,80.38,12.95,3.31,C0X100
臺南市南區,22.961189,120.188378,-0.09,29.21,1.1,82.19,14.33,4.88,C0X110
麻豆,23.183289,120.248611,0.53,29.61,1.46,83.0,16.5,6.06,C0X120
官田,23.193217,120.315422,0.01,28.93,8.25,87.81,14.02,3.58,C0X130
西港,23.125608,120.203108,-0.34,28.92,-0.12,79.33,19.6,9.81,C0X140
安定,23.102614,120.227839,0.19,29.26,3.14,83.76,17.95,8.96,C0X150
仁德,22.968258,120.257689,0.19,29.23,2.72,82.0,15.55,4.79,C0X160
關廟,22.963017,120.327797,-0.18,29.0,7.34,83.19,14.33,1.82,C0X170
山上,23.0757,120.363253,0.02,28.41,2.12,83.14,17.74,6.14,C0X180
安平,22.993161,120.152181,-0.09,29.12,-4.27,77.95,14.38,5.65,C0X190
左鎮,23.056758,120.408522,0.86,28.7,-0.83,83.43,17.55,5.77,C0X200
白河,23.347466,120.414427,0.01,28.2,1.87,82.19,14.48,0.14,C0X210
學甲,23.230367,120.182187,0.17,28.64,2.04,81.67,14.62,5.17,C0X220
鹽水,23.272621,120.247641,0.13,28.32,0.47,83.38,14.67,3.14,C0X230
關子嶺,23.331169,120.508025,0.05,26.06,3.79,87.71,24.45,3.91,C0X240
新營,23.310689,120.316681,-0.19,28.72,2.38,80.38,17.26,5.44,C0X250
後壁,23.366358,120.362326,-0.05,28.41,0.13,80.62,15.26,4.06,C0X260
將軍,23.214999,120.13577,0.17,28.52,-0.09,82.1,14.19,3.3,C0X280
北門,23.267772,120.125481,-0.06,28.61,-2.03,82.38,12.93,1.55,C0X290
鹿寮,23.386047,120.477331,0.02,27.54,-0.6,83.95,17.65,2.73,C0X300
柳營,23.253328,120.375253,-0.61,28.14,6.97,83.14,13.62,12.05,C0X320
明里,23.208717,121.262342,0.18,26.35,2.2,90.62,12.64,5.82,C0Z020
佳心,23.34567,121.21316,0.9,23.15,10.06,94.95,14.79,7.49,C0Z050
玉里,23.3215,121.339656,0.79,27.38,8.01,96.43,16.4,8.79,C0Z061
舞鶴,23.46811,121.37407,1.21,26.52,9.25,99.57,18.38,12.65,C0Z070
富源,23.587642,121.378225,0.66,26.55,0.16,89.33,12.55,4.62,C0Z080
東華,23.89525,121.549833,0.52,27.77,3.49,89.43,4.64,0.46,C0Z100
吉安光華,23.930925,121.595153,0.4,27.28,-2.74,84.86,15.0,10.69,C0Z150
鳳林,23.746114,121.453411,0.27,26.93,-0.15,83.43,9.14,2.29,C0Z160
卓溪,23.3443,121.3029,-0.28,27.06,0.06,81.52,16.71,10.27,C0Z170
新城,24.040486,121.604878,0.24,27.48,15.86,98.67,10.76,6.16,C0Z180
富世,24.14743,121.6297,0.18,27.44,-1.92,85.81,12.83,6.8,C0Z190
萬榮,23.709219,121.420106,0.53,26.84,-1.76,84.62,12.21,5.82,C0Z200
瑞穗,23.5239,121.39021,0.74,27.33,2.12,87.43,13.71,8.63,C0Z210
和平林道,24.343922,121.656317,0.18,24.45,-2.84,88.71,10.38,7.01,C0Z220
和平,24.30717,121.77007,-0.77,26.7,-1.25,83.43,11.12,4.11,C0Z230
瑞穗林道,23.49284,121.30688,0.48,22.06,2.72,96.48,16.07,7.68,C0Z250
蕃薯寮,23.73835,121.540108,0.6,25.74,-2.69,89.43,8.86,1.25,C0Z270
德武,23.47426,121.41071,0.53,26.86,0.84,87.81,19.02,14.91,C0Z280
赤柯山,23.36893,121.38293,0.62,23.1,-0.4,89.9,18.19,13.51,C0Z290
東里,23.26853,121.30547,0.28,27.13,-2.64,84.95,19.19,15.4,C0Z300
清水斷崖,24.218294,121.689142,-0.26,26.8,-2.18,87.76,8.64,1.58,C0Z310
清水林道,23.27125,121.188272,0.05,24.3,0.77,85.48,13.74,8.26,C0Z320
安通山,23.290728,121.348528,0.07,25.39,4.53,89.76,18.76,14.85,C0Z330
口湖工作站,23.589978,120.180394,0.01,28.24,0.96,77.33,11.98,9.48,12J990
東港工作站,22.479997,120.466058,-0.35,29.0,2.13,70.52,13.79,10.58,12Q970
恆春工作站,22.079678,120.714425,-0.37,28.7,3.79,79.24,13.26,6.97,12Q980
萬大發電廠,23.978875,121.139639,0.54,22.53,-6.88,83.14,10.21,-0.21,42HA10
桃改樹林分場,24.944503,121.386972,-1.05,27.49,1.53,79.14,5.29,0.46,72AI40
桃園農改場,24.950944,121.030583,1.09,27.95,0.1,83.24,1.57,-7.07,72C440
桃改五峰分場,24.612194,121.157167,1.09,22.6,1.42,89.76,5.47,-4.48,72D080
臺中農改場,24.003028,120.534389,0.56,28.16,4.52,87.67,10.38,0.28,72G600
中改埔里分場,23.903208,120.963364,0.27,24.14,2.27,91.57,15.2,-2.7,72HA00
南改斗南分場,23.634556,120.477333,0.75,28.42,0.79,83.71,7.33,-4.29,72K220
南改義竹分場,23.360694,120.279361,0.2,28.15,-4.08,81.81,14.48,2.33,72M360
南改鹿草分場,23.416869,120.283061,-0.12,28.33,4.57,85.14,11.02,3.93,72M700
臺南農改場,23.0605,120.342194,0.19,28.16,3.97,86.95,16.95,5.28,72N100
七股研究中心,23.081672,120.062894,0.04,29.01,2.37,83.71,19.0,13.93,72N240
高雄農改場,22.709333,120.525889,0.32,28.59,4.11,85.1,17.69,0.13,72Q010
東改班鳩分場,22.829528,121.077694,0.46,26.39,0.99,84.85,9.55,0.95,72S200
東改賓朗果園,22.813889,121.071278,-6.69,18.81,3.28,93.5,11.86,4.02,72S590
花蓮農改場,23.975222,121.563889,1.01,27.46,-0.89,83.38,13.79,8.06,72T250
花改蘭陽分場,24.686306,121.716583,0.98,27.45,-1.38,84.9,6.0,-1.58,72U480
高改旗南分場,22.857861,120.516667,-0.67,28.05,7.19,83.86,2.59,-15.5,72V140
茶改北部分場,24.955778,121.631222,1.51,25.58,1.17,87.14,5.86,-8.44,82A750
茶改場,24.908472,121.185333,0.81,27.11,-3.55,80.14,3.31,-6.28,82C160
茶改中部分場,23.875611,120.913583,0.16,23.26,1.75,90.93,19.54,2.16,82H320
茶改南部分場,23.762528,120.7405,-0.21,25.31,0.24,89.05,20.5,4.67,82H840
茶改東部分場,22.907694,121.130139,0.16,26.89,3.51,85.86,13.57,5.3,82S580
農工中心,24.985917,121.239833,1.15,27.98,2.15,77.71,2.43,-5.7,A2C560
水試臺西試驗場,23.717231,120.190522,0.21,28.49,2.96,87.71,12.97,5.82,A2K360
臺大雲林校區,23.730628,120.423903,-0.3,28.0,3.47,83.9,10.71,7.91,A2K630
臺南蘭花園區,23.340258,120.379661,-0.16,28.04,4.8,86.14,13.36,10.49,A2N290
畜試北區分所,24.527806,120.770972,2.39,29.48,-4.33,77.46,3.12,-5.03,B2E890
畜產試驗所,23.058972,120.336406,0.04,27.79,1.96,86.43,17.79,2.06,B2N890
畜試南區分所,21.945583,120.802167,-0.08,28.01,-1.5,82.52,15.19,4.76,B2Q810
畜試東區分所,24.669039,121.832561,-0.38,27.52,7.41,91.24,7.0,3.74,B2U990
蓮華池,23.918333,120.885278,-0.69,24.02,5.98,89.71,19.38,1.73,E2H360
林試畢祿溪站,24.226944,121.308522,-0.05,15.64,12.91,91.33,10.48,10.27,E2HA20
四湖植物園,23.676986,120.163433,-0.01,28.3,10.08,95.14,14.95,9.32,E2K600
林試六龜中心,22.991703,120.645722,-0.88,26.32,12.1,88.19,22.76,21.57,E2P980
林試太麻里2,22.598,120.99775,-0.41,28.06,3.98,80.76,0.68,-2.11,E2S960
林試太麻里1,22.598922,120.980044,-0.28,27.72,5.46,82.76,13.95,10.58,E2S980
農試所(霧峰),24.031261,120.688133,1.1,28.6,-0.47,82.6,9.38,-2.78,G2F820
農試嘉義分所,23.485028,120.473806,0.03,27.71,2.05,82.81,18.0,8.04,G2L020
農試溪口農場,23.58565,120.408111,0.89,28.4,0.88,82.43,8.38,3.55,G2M350
農試鳳山分所,22.646611,120.356083,-0.01,28.63,2.85,81.1,16.64,2.29,G2P820
苗栗農改場,24.495722,120.829111,0.42,27.68,-0.43,78.95,3.5,-6.63,K2E360
苗改生物防治研究中心,24.422861,120.871833,-0.08,26.1,1.29,82.57,7.1,-2.5,K2E710
種苗改良場,24.225972,120.800917,0.76,26.02,6.04,88.05,8.86,-7.32,K2F750
臺大和社,23.590856,120.888864,1.07,23.82,3.65,89.9,10.43,-0.63,U2HA30
臺大內茅埔,23.689722,120.851117,0.23,24.92,2.89,87.43,8.33,-3.0,U2HA40
臺大竹山,23.756972,120.681556,0.02,27.34,2.31,83.14,15.55,1.27,U2HA50
