站名,緯度,經度,平均溫距平,本年度平均溫,平均溼度距平,本年度日均相對溼度,本年度日均降水量,日均降水量距平,站號
淡水,25.164889,121.448906,-0.05,26.2,4.99,85.25,9.4,-4.57,466900
鞍部,25.182586,121.529731,0.12,21.12,6.34,95.5,9.25,-8.45,466910
臺北,25.037658,121.514853,0.4,27.48,1.3,77.25,4.75,-7.68,466920
竹子湖,25.162078,121.544547,0.28,22.85,5.2,91.0,7.62,-8.57,466930
基隆,25.133314,121.740475,-0.05,26.08,2.9,82.25,9.75,-4.94,466940
花蓮,23.975128,121.613275,0.74,27.35,1.95,82.5,5.65,0.06,466990
新屋,25.006725,121.047492,-1.24,26.18,2.8,87.75,5.27,-7.75,467050
宜蘭,24.763975,121.756528,0.12,26.25,3.34,85.75,7.88,-1.66,467080
金門,24.407306,118.289281,-0.15,24.85,4.64,90.0,2.42,-1.84,467110
田中,23.873803,120.581286,-1.93,27.38,7.25,88.25,13.38,13.18,467270
澎湖,23.565503,119.563094,0.33,27.35,3.55,88.0,2.52,-1.21,467350
臺南,22.99328,120.20492,-0.56,27.75,10.48,87.25,43.75,33.74,467410
永康,23.038386,120.2367,-0.57,27.52,13.58,88.5,52.0,44.14,467420
嘉義,23.495925,120.432906,0.05,27.65,7.9,87.0,24.0,13.89,467480
臺中,24.145736,120.684075,0.27,27.78,6.92,83.0,6.77,-5.13,467490
阿里山,23.508208,120.813242,1.26,15.15,6.35,97.25,28.02,2.14,467530
大武,22.35572,120.90374,1.14,28.85,0.78,78.0,12.02,3.15,467540
玉山,23.48718,120.95943,2.71,9.52,11.46,94.75,16.4,2.6,467550
新竹,24.827853,121.014219,0.26,27.2,3.81,81.25,4.75,-3.49,467571
恆春,22.003897,120.746339,-0.21,28.0,9.99,88.25,17.25,9.41,467590
成功,23.097486,121.373428,0.28,26.95,6.95,88.75,13.4,7.26,467610
日月潭,23.881325,120.90805,0.4,22.28,11.94,97.5,39.12,22.32,467650
臺東,22.752211,121.154586,0.49,28.17,5.47,83.25,6.02,-0.14,467660
馬祖,26.169467,119.923158,0.93,23.78,3.83,91.25,16.05,10.34,467990
山佳,24.974944,121.402008,0.51,27.25,-1.82,80.25,4.12,-5.77,C0A520
坪林,24.938183,121.70975,1.49,25.35,-3.88,89.25,12.25,1.1,C0A530
泰平,24.971197,121.823711,0.55,23.37,-1.53,94.5,15.38,1.73,C0A550
桶後,24.848222,121.597992,2.16,25.63,-4.96,88.0,16.12,6.23,C0A570
石碇,24.993969,121.662917,0.35,24.85,-4.48,87.75,7.62,-9.28,C0A640
大坪,25.165914,121.632969,2.42,26.1,-4.03,86.0,9.0,-10.74,C0A860
五指山,25.132153,121.608692,1.52,23.15,-1.43,93.25,11.25,-2.7,C0A870
雙溪,25.036003,121.864242,1.51,26.5,-3.32,87.5,7.62,-4.23,C0A890
三和,25.233153,121.595236,-1.11,24.38,-2.74,91.5,25.62,-1.58,C0A931
金山,25.223628,121.643967,-0.02,25.4,-1.85,86.25,19.25,2.08,C0A940
鼻頭角,25.129036,121.923372,0.57,26.05,-3.48,87.25,2.88,-6.95,C0A950
三貂角,25.007606,122.002058,0.56,25.85,-0.75,87.0,15.25,5.74,C0A970
社子,25.109508,121.469681,0.84,27.85,0.74,81.5,5.0,-7.09,C0A980
天母,25.117494,121.537169,0.28,27.25,-2.51,75.0,5.38,-6.59,C0A9C0
內湖,25.079422,121.57545,0.85,27.8,0.26,80.25,5.5,-6.15,C0A9F0
大屯山,25.175675,121.522408,1.71,21.68,3.21,98.75,10.0,-6.77,C0AC40
三峽,24.939025,121.369728,0.95,28.15,-0.69,81.75,2.5,-7.08,C0AC60
信義,25.037822,121.564597,0.38,27.4,-2.23,80.5,6.5,-5.23,C0AC70
文山,25.00235,121.575728,-0.41,26.15,-3.84,82.0,5.12,-6.01,C0AC80
新莊,25.051478,121.446756,-0.48,27.33,0.76,77.0,6.62,-4.48,C0ACA0
八里,25.150211,121.403947,0.79,27.78,7.66,88.5,8.62,-2.26,C0AD10
蘆洲,25.086594,121.472331,0.07,28.0,1.67,79.25,6.38,-3.95,C0AD30
土城,24.973208,121.445169,-0.32,26.5,-0.83,82.75,6.5,-4.17,C0AD40
鶯歌,24.951533,121.346294,0.76,27.88,0.34,84.5,2.38,-6.19,C0AD50
汐止,25.066881,121.658778,-1.14,26.02,-2.07,83.25,7.88,-6.81,C0AH00
永和,25.01125,121.508111,-0.22,27.92,2.53,79.5,6.88,-7.67,C0AH10
五分山,25.07125,121.780794,1.07,23.4,-3.12,92.5,12.62,-6.24,C0AH30
平等,25.129142,121.577086,-0.99,24.38,2.92,85.75,5.75,-13.06,C0AH40
松山,25.04871,121.55042,-1.04,27.15,9.67,80.75,5.38,2.21,C0AH70
深坑,25.002703,121.628328,-0.42,26.25,0.61,86.0,6.38,0.21,C0AH80
福山植物園,24.760717,121.58135,-0.52,22.4,1.58,94.25,9.5,4.67,C0AH90
五股,25.07445,121.42728,-1.21,26.42,-4.05,83.75,6.75,4.67,C0AI00
屈尺,24.92184,121.54475,0.32,27.3,1.75,87.25,4.12,-6.24,C0AI10
白沙灣,25.283128,121.519058,-1.55,25.67,8.83,88.75,10.75,8.29,C0AI20
三重,25.057328,121.500629,-2.14,27.92,6.42,84.25,3.88,2.96,C0AI30
石牌,25.115597,121.513139,-1.26,28.25,9.33,79.5,5.75,3.92,C0AI40
七堵,25.094819,121.71713,-0.8,27.02,-1.42,85.5,11.12,4.71,C0B010
基隆嶼,25.19141,121.78391,-1.67,25.25,5.0,95.75,4.5,2.75,C0B020
復興,24.820208,121.352281,0.39,24.08,0.21,87.75,7.25,-6.74,C0C460
桃園,24.992425,121.323172,0.14,27.15,1.51,77.25,6.25,-5.1,C0C480
八德,24.928708,121.283289,-0.84,26.5,-1.13,78.5,3.38,-5.31,C0C490
觀音,25.027072,121.153317,-0.4,25.45,8.72,92.25,7.5,-3.96,C0C590
蘆竹,25.084275,121.265767,-0.5,26.65,0.86,83.75,6.25,-4.76,C0C620
大溪,24.882853,121.265547,0.1,25.55,2.31,82.25,4.12,-5.04,C0C630
平鎮,24.897503,121.214636,0.4,25.83,0.37,82.75,4.12,-5.1,C0C650
楊梅,24.912375,121.143047,-1.19,26.12,5.33,84.0,6.5,-3.85,C0C660
龍潭,24.870056,121.221389,-0.99,25.55,4.24,83.5,5.12,-4.11,C0C670
龜山,25.02846,121.38656,-1.91,24.35,0.42,81.75,7.88,-7.31,C0C680
中壢,24.977661,121.256375,-1.16,26.38,4.67,79.5,5.62,4.07,C0C700
大溪永福,24.892936,121.324975,-0.73,26.08,1.17,84.75,3.88,1.08,C0C710
梅花,24.678347,121.208558,0.59,23.9,2.52,90.75,5.62,-3.68,C0D360
峨眉,24.6905,121.017189,-0.28,26.6,2.75,88.75,3.5,-3.83,C0D430
打鐵坑,24.849664,121.150789,-0.14,24.72,-1.82,85.5,2.0,-7.18,C0D480
橫山,24.71116,121.11693,-0.11,24.95,9.01,96.25,4.0,-5.92,C0D540
雪霸,24.526972,121.11605,0.8,18.25,7.99,91.0,8.0,-6.64,C0D550
竹東,24.767147,121.057881,1.12,27.05,-7.46,70.25,7.0,-1.92,C0D560
寶山,24.735006,121.025192,0.34,25.8,1.52,87.25,5.88,-3.45,C0D580
新豐,24.87068,120.97721,-0.22,25.4,8.1,93.0,7.12,-2.42,C0D590
湖口,24.904794,121.043628,-1.1,26.22,-0.44,82.25,6.5,-3.01,C0D650
新竹市東區,24.798681,120.986942,-1.17,26.58,3.92,80.75,4.25,-1.99,C0D660
竹南,24.708978,120.888897,1.83,28.5,6.19,86.25,6.75,-1.07,C0E420
南庄,24.601775,121.000214,0.6,25.62,2.44,86.5,4.62,-5.43,C0E430
明德,24.583486,120.885411,0.01,27.5,0.52,80.25,3.62,-1.96,C0E550
通霄,24.471892,120.704622,-0.9,26.7,4.49,87.25,5.5,-1.2,C0E590
馬都安,24.451272,120.930192,0.82,23.25,10.17,91.5,6.75,-5.26,C0E610
頭份,24.688247,120.912206,1.05,28.42,2.89,78.75,12.0,3.21,C0E730
造橋,24.637056,120.864778,-0.57,27.25,0.41,82.0,6.12,-1.04,C0E740
苗栗,24.564569,120.824575,-1.07,27.25,0.49,75.75,3.75,-2.69,C0E750
銅鑼,24.489681,120.790853,-1.01,26.55,0.94,83.25,2.75,-6.14,C0E780
西湖,24.562947,120.7485,-0.77,26.4,2.25,88.75,4.38,-1.18,C0E810
獅潭,24.539133,120.920042,-0.7,26.02,-0.07,83.5,4.5,-4.69,C0E820
苑裡,24.439714,120.653053,-1.48,26.8,4.32,83.75,5.25,-2.07,C0E830
大河,24.618069,120.948578,-2.26,25.2,2.45,82.75,3.5,-7.57,C0E850
高鐵苗栗,24.60725,120.826094,-1.16,27.1,16.06,89.0,5.0,3.39,C0E870
石岡,24.276061,120.777644,-0.0,26.82,5.0,86.0,4.25,-10.04,C0F0B0
中坑,24.248517,120.903319,-0.59,21.8,0.5,92.25,11.12,-14.19,C0F0C0
審馬陣,24.381675,121.4203,1.09,11.68,9.58,96.25,7.12,2.57,C0F0D0
東勢,24.246428,120.833047,0.64,27.1,3.92,82.75,6.88,-4.36,C0F850
大坑,24.173142,120.722289,0.62,28.75,7.18,82.25,3.25,-6.72,C0F970
神岡,24.272481,120.658314,-1.07,26.3,2.37,85.25,3.5,-1.47,C0F9I0
大安,24.345061,120.588025,-1.26,26.62,3.59,87.0,9.88,5.27,C0F9K0
后里,24.310436,120.729725,-0.27,27.22,4.29,85.75,2.25,-6.18,C0F9L0
豐原,24.254322,120.720692,0.5,28.17,3.79,81.75,2.88,-5.65,C0F9M0
大里,24.092464,120.701378,-0.5,28.55,8.46,82.0,10.12,-0.06,C0F9N0
潭子,24.213106,120.703933,-0.06,28.5,9.49,85.25,4.75,-4.44,C0F9O0
清水,24.312297,120.562242,-1.35,26.98,2.62,85.75,11.38,6.5,C0F9P0
外埔,24.347817,120.705686,-0.53,26.8,1.35,86.0,3.25,-3.14,C0F9Q0
龍井,24.184536,120.528972,-0.99,27.28,-2.81,85.0,12.25,6.92,C0F9R0
烏日,24.107058,120.624103,-0.8,27.72,5.54,81.5,13.25,4.56,C0F9S0
西屯,24.179494,120.641275,-1.15,27.4,5.42,81.75,6.5,-1.73,C0F9T0
南屯,24.137006,120.637969,-1.04,27.82,6.26,81.5,12.62,4.02,C0F9U0
新社,24.200172,120.815806,0.1,25.45,1.93,87.0,7.62,-5.35,C0F9V0
大雅(中科園區),24.21528,120.62445,-1.24,26.4,8.07,87.5,3.38,-5.43,C0F9X0
桃山,24.432739,121.303808,1.47,11.65,7.28,91.75,23.25,1.21,C0F9Y0
雪山東峰,24.388792,121.268675,1.37,12.3,8.85,91.75,15.0,-7.03,C0F9Z0
芬園,24.015678,120.6213,-1.08,26.5,14.55,96.5,18.88,9.09,C0G620
員林,23.946503,120.585597,1.99,29.55,3.48,85.5,23.38,12.41,C0G650
溪湖,23.94835,120.479122,0.52,28.52,2.78,90.0,23.12,11.62,C0G660
溪州,23.851589,120.499093,-0.38,27.48,1.22,84.25,23.75,5.85,C0G720
二林,23.903325,120.376081,-0.78,27.15,3.4,91.5,15.62,-1.57,C0G730
大城,23.852487,120.320935,-0.69,27.15,4.98,88.25,13.88,-0.44,C0G740
福興,24.041289,120.437669,-0.88,27.9,0.04,83.5,8.38,0.65,C0G770
秀水,24.03405,120.503869,-0.63,27.88,5.18,88.25,22.75,15.48,C0G780
埔鹽,24.000394,120.431683,0.03,27.95,-0.07,87.0,11.5,3.91,C0G800
埔心,23.947633,120.525456,0.54,29.2,5.89,85.25,27.62,15.58,C0G810
田尾,23.901669,120.509389,-0.42,27.9,6.17,91.0,26.38,12.75,C0G820
埤頭,23.866003,120.452806,-0.74,27.38,7.33,96.0,24.0,10.72,C0G830
社頭,23.897647,120.5862,-0.72,28.22,13.98,89.5,15.12,2.67,C0G860
伸港,24.148933,120.484403,-1.12,27.28,0.64,84.25,10.12,5.1,C0G890
線西,24.143358,120.443536,-2.27,27.25,5.33,85.5,8.5,3.29,C0G900
花壇,24.032076,120.549461,-0.23,29.35,17.0,91.0,25.12,24.38,C0G910
埔里,23.972169,120.952425,-0.23,25.72,7.3,90.5,27.62,-3.76,C0H890
草屯,23.973672,120.68085,-0.91,27.22,9.81,87.25,11.38,1.31,C0H960
昆陽,24.121322,121.273642,1.77,11.7,7.02,99.25,17.5,4.0,C0H990
神木村,23.532742,120.843667,1.22,19.77,6.45,96.75,15.5,-5.01,C0H9A0
合歡山,24.143442,121.272547,2.14,10.82,10.41,100.0,24.0,1.16,C0H9C0
廬山,24.033311,121.181808,0.77,19.73,6.4,93.0,21.0,1.22,C0I010
信義,23.689694,120.851036,-0.03,24.78,6.55,92.25,14.25,-15.28,C0I080
竹山,23.761225,120.688156,0.47,27.15,8.58,89.75,21.88,8.46,C0I110
水里,23.812553,120.849792,-0.1,26.22,5.77,87.5,35.0,3.17,C0I360
魚池,23.895703,120.94135,-0.14,24.45,3.35,88.75,34.0,3.45,C0I370
集集,23.828206,120.801467,-0.66,26.42,8.98,91.25,23.5,-6.9,C0I380
仁愛,24.022122,121.132206,0.54,21.8,1.38,90.25,20.5,-19.88,C0I390
名間,23.837053,120.701447,-1.09,26.3,13.03,92.5,18.12,-3.14,C0I410
國姓,24.037803,120.855072,-0.3,26.3,4.65,89.25,13.12,-15.09,C0I420
南投,23.911469,120.687331,-0.88,27.62,15.77,92.0,6.75,-13.93,C0I460
梅峰,24.085272,121.173572,0.94,16.52,3.71,95.0,24.62,-15.33,C0I480
萬大林道,23.928228,121.091411,0.24,19.35,2.13,94.0,24.0,-5.38,C0I490
小奇萊,24.131764,121.295717,1.66,11.58,6.83,99.5,6.17,-6.53,C0I530
崙背,23.75555,120.318925,-0.67,27.3,4.55,90.25,20.38,0.94,C0K250
四湖,23.630414,120.227125,0.11,27.38,4.02,89.25,18.75,8.82,C0K280
宜梧,23.536281,120.169329,-0.74,27.58,1.88,86.75,10.5,1.31,C0K291
虎尾,23.719183,120.442036,-0.32,27.3,14.98,93.25,28.0,16.21,C0K330
土庫,23.679029,120.395574,-1.41,27.1,4.83,88.0,31.12,11.34,C0K390
斗六,23.720583,120.541127,-0.87,27.4,5.2,85.5,12.62,-9.62,C0K400
北港,23.573957,120.292802,-1.01,27.25,3.48,87.0,13.62,6.64,C0K410
西螺,23.800407,120.467394,-0.93,27.28,6.39,88.25,24.0,5.18,C0K420
褒忠,23.690938,120.303634,-0.77,27.12,4.16,89.5,20.75,5.44,C0K430
二崙,23.772797,120.408944,-1.09,26.98,13.72,97.25,24.88,4.11,C0K440
大埤,23.646074,120.431537,-1.03,27.25,7.87,89.0,18.38,-3.99,C0K450
斗南,23.678734,120.478359,-1.05,27.3,10.02,87.75,19.62,-2.06,C0K460
林內,23.748675,120.609642,-0.74,26.95,6.77,88.5,14.38,-6.69,C0K470
莿桐,23.761192,120.502372,-1.02,27.0,8.97,89.0,19.25,-2.4,C0K480
元長,23.64981,120.315024,-1.04,27.35,6.92,88.75,28.5,12.12,C0K500
水林,23.572924,120.24597,-1.04,27.42,8.2,89.5,22.38,14.52,C0K510
臺西,23.701547,120.197559,-0.99,27.22,5.45,88.25,16.12,-1.86,C0K530
蔦松,23.514319,120.229736,-1.03,27.55,6.8,89.5,14.25,6.78,C0K550
棋山,23.68645,120.603417,-0.46,27.35,9.77,90.5,8.5,-21.92,C0K560
高鐵雲林,23.737456,120.417944,-1.83,26.78,9.39,91.0,23.12,20.18,C0K580
東後寮,23.369908,120.248065,-1.32,26.98,8.83,93.0,28.0,22.03,C0M520
奮起湖,23.493903,120.699253,1.02,20.4,5.75,98.25,28.0,3.09,C0M530
中埔,23.42538,120.5229,-0.92,27.05,5.6,83.5,17.38,3.01,C0M640
朴子,23.43463,120.23902,-1.94,26.45,10.28,92.75,26.38,21.19,C0M650
溪口,23.604131,120.403569,-0.87,27.15,4.81,87.75,10.25,-4.01,C0M660
大林,23.600616,120.45841,-1.02,27.62,9.57,87.5,10.5,-9.33,C0M670
太保,23.455062,120.331455,-1.58,27.0,8.98,91.75,21.0,12.4,C0M680
水上,23.419734,120.388909,-1.17,27.17,7.38,88.75,29.25,21.48,C0M690
竹崎,23.526178,120.555508,-0.55,26.9,9.13,88.75,12.88,0.21,C0M700
東石,23.458927,120.15385,-1.16,27.6,1.28,85.5,10.88,3.94,C0M710
番路,23.464657,120.554156,-0.58,26.8,8.42,86.75,15.62,-2.89,C0M720
嘉義市東區,23.457673,120.460531,-1.27,27.75,10.5,87.0,19.25,9.53,C0M730
六腳,23.492871,120.290625,-1.16,27.28,8.97,88.5,18.88,11.31,C0M740
布袋,23.380878,120.167789,-1.15,27.6,7.65,90.25,19.5,14.15,C0M750
民雄,23.551754,120.428457,-1.27,27.45,8.5,88.0,11.75,-3.07,C0M760
嘉義梅山,23.585398,120.555587,-0.84,27.1,8.73,88.25,13.62,-7.0,C0M770
鹿草,23.41134,120.30835,-1.44,27.17,11.25,92.25,33.62,23.79,C0M780
新港,23.553269,120.345728,-1.52,27.0,8.38,88.75,12.0,0.0,C0M790
茶山,23.299075,120.664767,-0.62,24.98,8.95,93.25,26.62,-8.17,C0M800
里佳,23.389125,120.716647,-0.23,20.33,8.03,96.0,33.88,-10.84,C0M810
達邦,23.453994,120.749517,0.51,22.65,8.83,93.5,21.62,-18.01,C0M820
表湖,23.24186,120.64166,-1.76,22.88,9.19,93.25,31.25,21.19,C0M850
新美,23.338017,120.683169,-0.83,24.5,15.25,92.75,29.62,26.62,C0M860
北寮,23.079561,120.495008,-1.46,26.6,13.48,95.5,56.25,46.74,C0O830
王爺宮,23.222064,120.40085,0.65,28.48,1.25,84.0,38.25,30.3,C0O840
大內,23.11885,120.36083,-0.71,28.22,9.92,91.0,42.75,36.23,C0O860
善化,23.112883,120.297219,-0.52,27.05,12.78,96.25,43.38,34.53,C0O900
崎頂,22.959547,120.369317,-0.53,27.42,9.67,93.25,40.25,35.35,C0O960
虎頭埤,23.021375,120.347878,-1.52,26.62,4.14,87.0,52.25,45.04,C0O970
新市,23.061614,120.298197,-1.05,27.72,5.19,88.5,44.75,39.51,C0O980
媽廟,22.99175,120.293525,-1.44,27.38,11.78,94.0,37.88,32.17,C0O990
尾寮山,22.833111,120.683889,1.09,22.38,6.17,99.0,35.38,15.73,C0R100
阿禮,22.742908,120.743678,-0.69,21.5,4.4,91.5,26.0,9.21,C0R130
瑪家,22.682903,120.686639,-1.3,22.92,14.24,98.75,39.12,13.52,C0R140
三地門,22.709889,120.639944,-0.02,27.42,8.33,86.0,30.88,16.06,C0R150
鹽埔,22.739558,120.530778,-0.97,27.42,5.11,91.25,32.5,22.86,C0R160
赤山,22.592333,120.614306,-0.97,27.67,13.36,95.75,30.88,18.76,C0R190
潮州,22.534361,120.54,-0.24,27.8,9.94,87.5,27.25,16.23,C0R220
來義,22.527306,120.625111,-1.64,26.4,15.28,96.25,36.0,26.5,C0R240
春日,22.370361,120.628306,-2.61,25.98,13.53,93.5,44.62,38.28,C0R260
琉球嶼,22.332244,120.362236,-0.48,27.32,4.22,90.75,17.5,9.76,C0R270
車城,22.0744,120.716247,-1.51,27.72,9.33,91.0,26.25,26.17,C0R320
牡丹,22.130036,120.792639,-1.64,25.62,18.83,99.0,26.38,26.29,C0R341
貓鼻頭,21.921774,120.7358,-0.14,27.55,4.42,89.75,21.5,15.48,C0R350
大漢山,22.405264,120.753181,0.72,18.6,5.17,100.0,75.0,69.75,C0R440
高樹,22.826389,120.600806,-1.43,27.3,5.8,81.75,31.5,20.52,C0R470
長治,22.693128,120.542622,-0.82,28.07,12.58,92.0,36.0,26.69,C0R480
九如,22.7405,120.490503,-0.79,27.92,5.48,87.75,35.25,26.33,C0R490
崁頂,22.514781,120.506914,-1.39,27.62,8.81,91.5,25.75,16.9,C0R520
佳冬,22.419456,120.552375,-1.46,27.38,9.42,91.5,37.62,30.92,C0R540
新埤,22.467947,120.582894,-1.37,27.4,3.83,86.75,43.38,37.08,C0R550
新園,22.5434,120.461558,-0.5,28.45,5.07,87.0,34.5,26.93,C0R560
麟洛,22.65078,120.52719,-0.8,28.3,11.56,90.0,38.62,30.67,C0R570
南州,22.48591,120.50274,-1.36,27.45,14.03,94.5,29.5,22.38,C0R580
里港,22.77919,120.49459,-1.21,27.35,9.28,90.25,30.62,22.35,C0R590
舊泰武,22.588194,120.664944,-1.2,23.17,11.67,96.25,47.38,25.42,C0R600
墾雷,21.900836,120.855269,-1.52,27.25,13.0,97.25,34.25,33.73,C0R620
東港,22.46247,120.44074,-1.43,27.6,6.5,91.0,31.62,30.24,C0R640
竹田,22.58486,120.54344,-1.57,27.82,8.17,88.0,32.75,31.17,C0R650
枋寮,22.367722,120.590647,-1.11,27.42,12.75,94.75,37.38,35.71,C0R660
楓港,22.190131,120.692156,-2.01,27.02,8.92,89.25,39.5,39.17,C0R670
佳樂水,21.993578,120.861633,-1.88,27.62,13.67,91.5,15.62,15.62,C0R680
墾丁,21.966756,120.810269,-1.42,25.75,8.58,96.75,18.88,18.88,C0R690
枋山,22.246844,120.661086,-0.91,27.52,8.17,90.0,46.5,44.75,C0R700
龍磐,21.931672,120.838942,-1.83,26.7,9.08,94.75,21.88,21.88,C0R710
旭海,22.205403,120.887614,-2.17,25.92,14.33,90.0,13.5,13.5,C0R720
大坪頂,22.024633,120.69355,-1.35,26.65,11.33,98.5,14.0,13.25,C0R730
四林格山,22.076989,120.802439,-0.78,23.88,4.25,99.75,31.75,28.25,C0R750
南仁湖,22.084681,120.863353,-1.8,24.9,16.83,99.5,29.62,26.29,C0R760
保力,22.071122,120.764111,-1.26,26.58,10.42,95.25,27.0,25.08,C0R770
滿州,22.024403,120.839892,-1.75,27.15,11.83,90.0,14.88,14.21,C0R780
九棚,22.14195,120.889281,-2.44,26.88,18.08,88.75,15.5,15.17,C0R790
丹路,22.204481,120.750989,-1.45,26.6,12.33,93.5,58.25,56.83,C0R800
內獅,22.305064,120.642986,-1.03,27.48,19.83,99.5,54.75,54.0,C0R810
白鷺,22.454275,120.666219,-0.86,24.12,10.25,96.75,67.5,64.42,C0R820
高士,22.121825,120.836781,-1.98,24.55,17.0,98.0,24.25,23.67,C0R830
牡丹池山,22.168389,120.841225,-1.79,23.68,16.08,99.25,29.25,29.0,C0R840
下馬,23.150427,121.070312,0.53,24.3,9.55,89.75,21.88,21.58,C0S660
太麻里,22.60902,120.98533,1.19,24.83,9.17,91.33,1.33,-5.93,C0S690
知本,22.684866,121.005642,1.69,25.52,9.42,92.25,42.62,34.02,C0S700
鹿野,22.917711,121.122994,1.33,25.7,12.33,90.5,17.38,10.66,C0S710
綠島,22.6672,121.47533,0.68,27.25,2.08,88.25,10.5,6.64,C0S730
池上,23.119628,121.209469,1.09,26.15,8.5,90.5,17.75,12.64,C0S740
向陽,23.248397,120.986133,2.42,17.27,24.0,90.5,20.0,3.55,C0S750
大溪山,22.478475,120.943325,1.75,26.1,0.75,86.25,13.38,4.99,C0S770
金崙,22.538122,120.966875,1.43,27.68,7.83,83.5,11.75,4.75,C0S790
東河,22.972672,121.303986,-0.14,27.33,9.25,91.25,10.25,3.96,C0S810
長濱,23.286817,121.411975,0.77,26.33,9.58,90.25,26.62,20.03,C0S830
南田,22.279725,120.889208,0.64,28.18,5.75,80.25,11.38,-0.08,C0S840
關山,23.0395,121.175017,-0.21,26.7,11.08,89.75,20.62,9.6,C0S890
蘭嶼高中,22.04909,121.51214,-1.25,28.22,12.92,91.5,23.75,23.54,C0S900
蘭嶼燈塔,22.081197,121.503117,-1.47,26.4,14.42,96.75,42.88,42.88,C0S910
金峰嘉蘭,22.594789,120.960825,-1.05,27.85,10.67,85.0,21.88,16.71,C0S920
延平,22.902581,121.084058,-1.37,26.65,14.58,87.25,25.88,25.04,C0S930
石寧山,23.223772,121.406639,-1.36,27.22,8.5,90.0,28.12,28.0,C0S940
七塊厝,22.954453,121.229922,-0.45,26.45,2.08,85.75,20.25,14.17,C0S950
香蘭,22.587569,120.993375,-0.89,28.37,14.17,86.5,19.12,19.12,C0S960
加津林,22.416211,120.926942,-0.51,28.32,7.67,82.0,9.25,9.21,C0S970
勝林山,22.430439,120.8938,-2.16,22.83,14.75,93.75,13.88,13.67,C0S980
山豬窟,22.318619,120.857372,-2.28,25.55,16.08,88.75,12.25,12.21,C0S990
歷坵,22.520969,120.89185,-0.09,26.02,5.17,87.0,18.62,18.17,C0SA00
檳榔四格山,22.810031,121.109308,-1.08,25.95,9.58,90.25,12.62,11.67,C0SA10
金崙山,22.567419,120.959667,0.14,24.88,3.5,85.0,29.12,29.12,C0SA20
都歷,23.020333,121.323642,-1.34,27.08,7.75,85.75,12.0,7.25,C0SA30
瑞和,22.974361,121.156697,-1.62,26.75,10.25,86.75,20.25,17.92,C0SA40
知本（水試所）,22.702394,121.082761,-1.24,27.88,11.0,87.5,13.5,13.5,C0SA60
土坂,22.453108,120.887572,0.19,28.25,7.1,82.5,15.62,15.46,C0SA80
達仁林場,22.264347,120.823972,-1.84,24.48,18.33,95.0,33.12,31.54,C0SA90
大禹嶺,24.186117,121.316086,1.48,13.9,7.52,91.5,12.62,2.25,C0T790
天祥,24.179597,121.495639,1.43,24.52,2.61,84.5,5.5,1.77,C0T820
鯉魚潭,23.935639,121.508944,0.53,25.28,1.84,92.0,8.62,1.84,C0T870
西林,23.8119,121.441458,0.72,26.25,7.23,90.0,7.75,0.0,C0T900
光復,23.660694,121.424964,1.16,26.72,-1.82,87.5,17.5,10.03,C0T960
月眉山,23.809928,121.539828,1.9,25.08,-3.62,90.75,9.62,2.62,C0T9A0
水源,23.991861,121.537169,1.26,23.9,-1.5,92.5,11.75,5.56,C0T9B0
和中,24.26676,121.74103,0.62,26.75,9.67,100.0,7.75,-0.71,C0T9D0
大坑,23.880628,121.581981,0.84,24.7,3.22,92.75,7.0,-1.01,C0T9E0
水璉,23.797131,121.542514,0.42,25.82,4.03,91.5,8.38,2.09,C0T9F0
鳳林山,23.735269,121.420131,0.24,24.02,-1.11,94.0,14.25,5.76,C0T9G0
加路蘭山,23.682947,121.5274,1.57,24.3,3.7,97.75,12.38,3.98,C0T9H0
豐濱,23.583897,121.514806,1.02,26.17,-2.64,88.25,11.38,3.57,C0T9I0
靜浦,23.455167,121.495028,0.9,26.65,9.83,93.5,13.62,7.47,C0T9M0
富里,23.171639,121.249378,-1.41,26.48,19.92,99.25,13.88,12.75,C0T9N0
雙連埤,24.753033,121.641303,-0.35,22.72,-3.56,92.5,8.5,-5.13,C0U520
礁溪,24.817539,121.765608,0.43,26.25,-4.25,83.75,5.38,-4.59,C0U600
玉蘭,24.675286,121.587061,0.67,24.18,-3.36,85.25,14.12,4.32,C0U650
太平山,24.505486,121.525656,1.9,18.38,-0.69,92.25,7.75,-0.77,C0U710
南山,24.43742,121.38167,-0.15,21.38,-4.47,87.25,11.88,5.54,C0U720
龜山島,24.841667,121.953133,-0.43,23.5,-5.56,90.0,3.62,-1.65,C0U750
東澳,24.52196,121.83318,0.5,26.62,-6.08,83.75,7.0,-3.88,C0U760
南澳,24.44935,121.81022,0.32,26.78,-1.75,85.75,0.0,-7.96,C0U770
五結,24.68637,121.79794,-1.08,25.92,-1.11,85.5,7.25,-1.44,C0U780
頭城,24.85323,121.8308,-1.37,26.0,-0.81,88.25,7.25,-2.98,C0U860
大礁溪,24.791042,121.675047,-0.44,23.95,2.17,91.5,8.0,-0.78,C0U870
三星,24.66812,121.65302,-0.89,25.58,-6.61,84.0,6.38,-2.9,C0U890
內城,24.71813,121.68766,-0.45,26.12,-3.03,86.25,9.88,-0.24,C0U900
冬山,24.63373,121.7937,-0.77,26.18,0.78,84.0,16.88,5.85,C0U910
羅東,24.68184,121.74934,-0.54,26.45,0.94,85.5,5.62,-4.24,C0U940
鶯子嶺,24.89754,121.79244,-0.01,21.05,-6.72,90.0,12.38,2.82,C0U950
翠峰湖,24.510856,121.608044,1.03,18.05,1.17,94.0,14.0,3.64,C0U960
大福,24.80064,121.81389,-0.97,25.55,0.17,85.25,5.75,-3.72,C0U970
坪林石牌,24.86478,121.77396,-0.42,23.12,-0.83,93.5,9.75,0.47,C0U980
員山,24.74435,121.72247,-0.87,26.2,2.47,87.25,8.88,-1.6,C0U990
土場,24.576533,121.495333,-0.84,24.48,-3.47,86.75,9.62,3.76,C0UA00
鴛鴦湖,24.590269,121.412228,0.63,18.52,1.17,96.25,19.62,10.4,C0UA10
白嶺,24.527819,121.519031,0.58,20.68,-3.97,91.75,8.75,-2.03,C0UA30
西德山,24.560647,121.752608,0.3,21.28,0.08,94.75,13.38,6.99,C0UA40
西帽山,24.555361,121.802628,0.09,22.8,-6.69,87.75,17.12,7.65,C0UA50
樟樹山,24.41393,121.78325,0.8,25.13,-4.56,83.33,0.0,-5.14,C0UA60
桃源谷,24.962606,121.888875,-0.53,23.2,-3.33,93.5,18.38,6.96,C0UA70
復興,23.222403,120.806089,0.25,24.0,8.44,90.25,20.25,-4.43,C0V210
溪埔,22.738578,120.446797,-1.49,27.02,14.67,94.75,33.62,25.29,C0V350
內門,22.975481,120.466769,-0.16,27.42,7.92,90.5,75.75,67.07,C0V360
古亭坑,22.893178,120.401947,-0.08,26.92,7.98,91.75,42.5,32.03,C0V370
阿公店,22.804194,120.355528,-1.19,27.17,8.86,92.0,30.88,25.03,C0V400
鳳山,22.646653,120.356122,-2.19,27.0,18.5,95.0,2.5,-3.89,C0V440
鳳森,22.545064,120.392592,-1.65,27.05,8.0,91.0,34.62,28.51,C0V450
新興,22.627422,120.298803,-1.02,27.9,6.08,86.25,38.0,32.44,C0V490
阿蓮,22.883208,120.327508,-1.44,27.58,9.42,89.75,25.17,17.4,C0V530
梓官,22.760558,120.267211,-1.51,27.6,7.39,88.5,34.25,28.54,C0V610
永安,22.82315,120.236856,-1.44,27.52,4.89,88.75,28.62,20.99,C0V620
茄萣,22.906642,120.182608,-1.0,28.08,10.31,89.25,50.25,42.57,C0V630
湖內,22.887139,120.2445,-1.75,27.22,7.31,88.25,37.75,30.35,C0V640
彌陀,22.783806,120.246361,-0.92,28.02,6.7,91.75,32.5,26.21,C0V650
岡山,22.797078,120.294958,-1.27,28.2,10.56,89.5,38.75,32.36,C0V660
仁武,22.701083,120.347722,-1.08,28.45,10.03,89.5,35.12,27.38,C0V680
鼓山,22.623325,120.275575,-1.42,27.7,7.06,88.75,36.25,30.69,C0V690
三民,22.645017,120.311233,-1.69,28.05,11.58,84.75,38.62,32.45,C0V700
苓雅,22.622742,120.330669,-1.33,28.15,17.53,90.0,36.88,31.12,C0V710
林園,22.507747,120.394511,-1.4,28.25,14.21,90.5,33.38,28.07,C0V720
大寮,22.605614,120.395717,-2.18,27.25,18.75,95.5,35.12,28.22,C0V730
旗山,22.888614,120.483597,-0.34,28.02,5.94,85.25,63.38,53.35,C0V740
路竹,22.854997,120.259439,-0.78,28.45,7.89,87.5,36.62,26.34,C0V750
橋頭,22.757806,120.30575,-1.01,28.38,5.14,85.0,35.5,30.25,C0V760
大社,22.730306,120.346639,-1.43,28.02,14.67,91.5,37.12,30.91,C0V770
萬山,22.905944,120.688056,0.09,25.98,11.39,92.5,2.0,-10.98,C0V790
六龜,22.997889,120.633583,-0.65,26.62,10.61,89.5,49.62,32.24,C0V800
左營,22.67491,120.28491,-1.72,27.38,6.92,88.25,36.62,28.52,C0V810
小林,23.148408,120.63325,-1.09,25.05,16.17,95.0,36.25,32.17,C0V820
花嶼,23.40007,119.32276,0.02,26.42,2.25,92.25,1.38,-2.85,C0W130
金沙,24.488292,118.408778,-0.54,25.42,-3.71,85.0,2.12,-0.04,C0W140
金寧,24.457703,118.328989,-1.35,25.38,-5.58,84.5,1.38,-1.25,C0W150
東河,23.296598,120.385608,-1.88,26.88,8.77,89.0,26.88,19.51,C0X050
下營,23.22695,120.256261,-1.56,27.13,6.5,88.5,29.0,24.57,C0X060
佳里,23.173039,120.145086,-0.09,27.8,10.68,93.75,47.25,40.04,C0X080
臺南市北區,23.010394,120.194228,-1.55,28.12,14.56,89.25,32.5,27.43,C0X100
臺南市南區,22.961189,120.188378,-1.1,28.3,8.23,88.75,38.75,33.47,C0X110
麻豆,23.183289,120.248611,-1.27,27.92,10.64,92.0,33.88,28.94,C0X120
官田,23.193217,120.315422,-1.75,27.3,16.74,95.5,31.75,26.51,C0X130
西港,23.125608,120.203108,-1.97,27.4,9.38,88.5,44.25,38.58,C0X140
安定,23.102614,120.227839,-1.53,27.62,12.17,93.0,57.5,52.89,C0X150
仁德,22.968258,120.257689,-1.09,28.05,10.98,89.5,37.38,32.78,C0X160
關廟,22.963017,120.327797,-1.86,27.48,17.86,93.0,35.62,30.51,C0X170
山上,23.0757,120.363253,-1.44,27.08,9.75,89.75,44.25,37.18,C0X180
安平,22.993161,120.152181,-1.37,27.9,5.07,87.5,35.0,30.14,C0X190
左鎮,23.056758,120.408522,-0.32,27.6,5.76,89.0,54.25,45.83,C0X200
白河,23.347466,120.414427,-1.42,27.1,10.68,89.75,21.0,13.22,C0X210
學甲,23.230367,120.182187,-1.38,27.2,10.8,90.25,30.5,26.93,C0X220
鹽水,23.272621,120.247641,-1.63,26.95,10.32,91.25,24.12,19.23,C0X230
關子嶺,23.331169,120.508025,-0.63,25.55,9.95,93.75,26.88,11.92,C0X240
新營,23.310689,120.316681,-1.82,27.28,12.58,90.25,29.88,22.22,C0X250
後壁,23.366358,120.362326,-1.3,27.2,8.72,89.5,26.38,20.22,C0X260
將軍,23.214999,120.13577,-1.15,27.45,8.13,89.5,28.38,23.96,C0X280
北門,23.267772,120.125481,-1.21,27.5,2.7,88.0,25.5,22.32,C0X290
鹿寮,23.386047,120.477331,-0.78,27.08,4.62,87.75,22.12,12.04,C0X300
柳營,23.253328,120.375253,-2.0,26.9,15.42,91.25,30.38,28.46,C0X320
明里,23.208717,121.262342,0.15,26.12,2.61,92.0,16.75,9.2,C0Z020
佳心,23.34567,121.21316,1.47,23.15,11.64,97.75,30.12,25.19,C0Z050
玉里,23.3215,121.339656,1.12,27.05,5.61,94.5,31.62,22.23,C0Z061
舞鶴,23.46811,121.37407,1.41,26.05,7.28,99.5,24.5,19.29,C0Z070
富源,23.587642,121.378225,0.53,26.15,0.75,90.75,21.88,12.95,C0Z080
東華,23.89525,121.549833,-0.06,26.95,4.09,90.25,2.75,-2.38,C0Z100
吉安光華,23.930925,121.595153,-0.24,26.67,-1.34,86.5,4.88,1.18,C0Z150
鳳林,23.746114,121.453411,-0.3,26.28,0.28,84.75,14.62,2.26,C0Z160
卓溪,23.3443,121.3029,-0.66,26.75,1.42,83.25,30.38,20.29,C0Z170
新城,24.040486,121.604878,-0.42,26.68,15.22,98.5,6.75,2.42,C0Z180
富世,24.14743,121.6297,-0.4,26.85,-1.03,86.75,6.0,1.33,C0Z190
萬榮,23.709219,121.420106,0.07,26.25,-2.47,86.0,10.25,0.92,C0Z200
瑞穗,23.5239,121.39021,0.29,26.75,2.83,89.0,19.75,13.64,C0Z210
和平林道,24.343922,121.656317,-0.18,23.92,-4.86,88.75,9.25,6.92,C0Z220
和平,24.30717,121.77007,-1.01,26.2,-3.22,82.0,5.88,-1.88,C0Z230
瑞穗林道,23.49284,121.30688,0.45,21.98,2.5,97.5,25.0,13.31,C0Z250
蕃薯寮,23.73835,121.540108,-0.1,24.95,-3.59,90.25,10.62,3.79,C0Z270
德武,23.47426,121.41071,0.13,26.48,1.44,88.5,22.25,19.72,C0Z280
赤柯山,23.36893,121.38293,0.45,22.98,1.56,92.5,29.88,25.85,C0Z290
東里,23.26853,121.30547,-0.07,26.78,-0.36,87.25,38.38,34.18,C0Z300
清水斷崖,24.218294,121.689142,-0.94,26.17,-1.97,87.75,5.0,1.11,C0Z310
清水林道,23.27125,121.188272,0.13,24.35,3.44,88.5,30.0,21.31,C0Z320
安通山,23.290728,121.348528,-0.31,24.98,5.81,91.75,36.0,35.1,C0Z330
口湖工作站,23.589978,120.180394,-0.98,27.35,5.58,82.0,11.25,8.71,12J990
東港工作站,22.479997,120.466058,-1.62,27.58,9.67,79.0,26.12,24.14,12Q970
萬大發電廠,23.978875,121.139639,0.51,22.08,-3.39,88.5,21.12,16.05,42HA10
桃改樹林分場,24.944503,121.386972,-2.17,26.42,0.67,78.0,3.75,3.17,72AI40
桃園農改場,24.950944,121.030583,0.28,26.28,3.31,87.5,5.25,-2.35,72C440
桃改五峰分場,24.612194,121.157167,1.61,22.58,2.16,91.0,0.12,-10.03,72D080
臺中農改場,24.003028,120.534389,-0.08,27.0,7.24,90.75,31.0,22.52,72G600
中改埔里分場,23.903208,120.963364,0.41,24.2,4.5,93.75,29.5,13.17,72HA00
南改斗南分場,23.634556,120.477333,0.34,27.6,5.53,89.25,8.0,-3.02,72K220
南改義竹分場,23.360694,120.279361,-0.65,26.88,3.91,89.0,28.88,20.22,72M360
南改鹿草分場,23.416869,120.283061,-1.41,27.12,12.92,93.25,23.12,14.58,72M700
臺南農改場,23.0605,120.342194,-0.84,26.75,12.24,95.0,43.0,34.37,72N100
七股研究中心,23.081672,120.062894,-0.91,28.0,7.0,89.0,50.5,45.25,72N240
高雄農改場,22.709333,120.525889,-0.94,27.18,12.18,93.0,36.5,25.64,72Q010
東改班鳩分場,22.829528,121.077694,0.92,26.3,1.33,86.0,5.38,-2.39,72S200
東改賓朗果園,22.813889,121.071278,-29.42,-4.55,2.3,93.0,15.88,7.27,72S590
花蓮農改場,23.975222,121.563889,1.01,26.78,-0.8,84.25,8.0,2.78,72T250
花改蘭陽分場,24.686306,121.716583,0.31,26.08,0.32,86.25,6.88,0.04,72U480
高改旗南分場,22.857861,120.516667,-1.69,26.85,16.73,92.5,13.67,3.01,72V140
茶改北部分場,24.955778,121.631222,0.77,24.08,1.77,88.25,7.75,-4.72,82A750
茶改場,24.908472,121.185333,0.29,25.78,-0.7,83.25,4.88,-3.84,82C160
茶改中部分場,23.875611,120.913583,-0.32,22.52,5.49,94.75,42.5,25.48,82H320
茶改南部分場,23.762528,120.7405,-0.18,25.05,5.38,92.75,0.0,-16.13,82H840
茶改東部分場,22.907694,121.130139,0.51,26.83,1.56,86.25,16.38,10.16,82S580
農工中心,24.985917,121.239833,0.62,26.38,5.41,81.5,6.38,-0.84,A2C560
水試臺西試驗場,23.717231,120.190522,-0.65,27.55,9.75,91.75,0.0,-3.47,A2K360
臺大雲林校區,23.730628,120.423903,-1.57,26.9,10.58,90.25,24.5,23.67,A2K630
臺南蘭花園區,23.340258,120.379661,-1.37,26.98,11.58,92.25,22.88,21.38,A2N290
畜產試驗所,23.058972,120.336406,-0.99,26.42,10.78,95.0,45.5,34.14,B2N890
畜試南區分所,21.945583,120.802167,-0.82,27.1,5.43,87.0,18.62,12.1,B2Q810
畜試東區分所,24.669039,121.832561,-1.48,25.95,5.83,92.5,9.62,2.62,B2U990
蓮華池,23.918333,120.885278,-0.52,23.8,8.97,93.0,29.62,16.35,E2H360
林試畢祿溪站,24.226944,121.308522,-0.15,16.05,17.25,93.25,10.25,10.25,E2HA20
四湖植物園,23.676986,120.163433,-0.82,27.55,11.83,97.0,17.5,13.33,E2K600
林試六龜中心,22.991703,120.645722,-1.57,25.7,17.42,94.25,42.12,41.96,E2P980
林試太麻里2,22.598,120.99775,-0.67,28.1,6.92,81.25,2.12,2.12,E2S960
林試太麻里1,22.598922,120.980044,-0.57,27.8,8.92,83.75,21.12,21.12,E2S980
農試所(霧峰),24.031261,120.688133,0.83,27.98,-11.08,72.25,13.75,3.77,G2F820
農試嘉義分所,23.485028,120.473806,-0.07,27.1,9.57,90.75,18.12,9.66,G2L020
農試溪口農場,23.58565,120.408111,-0.48,27.25,7.58,89.0,10.88,8.29,G2M350
農試鳳山分所,22.646611,120.356083,-1.58,26.88,15.21,92.0,30.5,20.18,G2P820
苗栗農改場,24.495722,120.829111,-0.05,26.62,2.49,82.25,2.75,-7.01,K2E360
苗改生物防治研究中心,24.422861,120.871833,-0.88,25.55,5.72,85.0,4.0,2.64,K2E710
種苗改良場,24.225972,120.800917,0.66,25.48,12.56,94.25,6.88,-4.96,K2F750
臺大和社,23.590856,120.888864,1.46,23.9,6.58,94.0,13.5,8.38,U2HA30
臺大內茅埔,23.689722,120.851117,0.43,24.72,6.53,91.75,13.62,11.01,U2HA40
臺大竹山,23.756972,120.681556,-0.6,27.0,9.31,87.75,20.12,10.51,U2HA50
