站名,緯度,經度,平均溫距平,本年度平均溫,平均溼度距平,本年度日均相對溼度,本年度日均降水量,日均降水量距平,站號
淡水,25.164889,121.448906,1.36,30.35,-9.2,66.25,8.82,4.0,466900
鞍部,25.182586,121.529731,-0.18,23.22,1.13,87.62,14.95,3.46,466910
臺北,25.037658,121.514853,0.58,30.62,-5.27,65.75,2.2,-6.3,466920
竹子湖,25.162078,121.544547,0.32,25.35,-3.17,80.0,11.19,0.69,466930
基隆,25.133314,121.740475,0.54,30.04,-3.49,69.38,3.45,-2.18,466940
花蓮,23.975128,121.613275,-0.28,28.48,1.04,78.38,3.89,-3.22,466990
新屋,25.006725,121.047492,0.19,29.66,-3.53,74.62,10.32,9.56,467050
宜蘭,24.763975,121.756528,-0.17,28.86,2.59,79.75,2.95,-3.68,467080
金門,24.407306,118.289281,2.11,30.54,-11.61,73.75,0.02,-2.38,467110
田中,23.873803,120.581286,-1.87,28.31,5.97,82.38,47.88,46.98,467270
澎湖,23.565503,119.563094,0.11,29.04,2.24,85.5,8.69,4.08,467350
臺南,22.99328,120.20492,-0.79,28.9,3.93,79.38,23.81,14.71,467410
永康,23.038386,120.2367,-0.66,28.69,7.61,80.75,29.19,20.27,467420
嘉義,23.495925,120.432906,-1.22,27.98,8.27,84.12,29.69,17.64,467480
臺中,24.145736,120.684075,-0.27,28.75,4.47,78.88,23.31,13.42,467490
阿里山,23.508208,120.813242,-0.9,14.08,5.68,95.25,35.0,15.66,467530
大武,22.35572,120.90374,-0.78,28.19,3.22,79.62,53.62,40.55,467540
玉山,23.48718,120.95943,-1.3,6.85,-2.89,73.0,15.89,1.79,467550
新竹,24.827853,121.014219,0.4,29.92,-1.69,71.75,9.1,5.27,467571
恆春,22.003897,120.746339,-0.56,28.42,3.05,83.0,45.71,31.98,467590
成功,23.097486,121.373428,-0.54,27.79,1.38,81.38,27.2,18.38,467610
日月潭,23.881325,120.90805,-0.19,22.83,6.91,91.12,16.0,1.82,467650
臺東,22.752211,121.154586,-0.81,28.48,3.5,79.25,28.76,20.73,467660
馬祖,26.169467,119.923158,0.25,27.65,7.31,92.12,5.62,3.22,467990
山佳,24.974944,121.402008,1.47,30.86,-4.68,69.88,1.69,-6.65,C0A520
坪林,24.938183,121.70975,1.33,27.76,-3.82,84.12,3.38,-8.31,C0A530
泰平,24.971197,121.823711,0.45,25.86,-0.12,90.75,6.0,-4.59,C0A550
桶後,24.848222,121.597992,0.75,26.6,-6.95,81.25,1.75,-10.05,C0A570
石碇,24.993969,121.662917,0.7,27.6,-10.42,76.5,2.56,-5.41,C0A640
大坪,25.165914,121.632969,0.44,27.12,-3.34,80.62,3.06,-4.62,C0A860
五指山,25.132153,121.608692,1.47,25.9,-3.62,86.5,4.88,-3.39,C0A870
雙溪,25.036003,121.864242,1.25,29.4,-1.26,81.75,7.44,0.23,C0A890
三和,25.233153,121.595236,0.3,28.01,-3.19,82.12,6.44,-0.67,C0A931
金山,25.223628,121.643967,0.66,29.46,-9.33,69.25,3.69,-2.12,C0A940
鼻頭角,25.129036,121.923372,0.54,28.89,0.82,85.38,8.5,4.55,C0A950
三貂角,25.007606,122.002058,0.51,28.58,4.03,86.12,8.75,5.98,C0A970
社子,25.109508,121.469681,1.27,31.38,-6.48,66.88,5.38,-0.71,C0A980
天母,25.117494,121.537169,0.64,30.39,-7.73,63.75,5.75,-2.41,C0A9C0
內湖,25.079422,121.57545,1.1,31.22,-4.12,67.0,3.94,-5.82,C0A9F0
大屯山,25.175675,121.522408,1.19,23.29,2.4,96.75,10.38,3.69,C0AC40
三峽,24.939025,121.369728,1.93,31.44,-5.36,70.0,1.5,-5.73,C0AC60
信義,25.037822,121.564597,0.66,30.6,-5.0,67.62,1.94,-6.28,C0AC70
文山,25.00235,121.575728,0.22,29.4,-9.77,69.75,1.5,-6.06,C0AC80
新莊,25.051478,121.446756,0.37,30.95,-6.96,61.12,3.31,-2.18,C0ACA0
八里,25.150211,121.403947,1.66,31.59,0.32,71.88,7.38,4.55,C0AD10
蘆洲,25.086594,121.472331,0.33,31.17,-0.34,68.62,3.94,-1.2,C0AD30
土城,24.973208,121.445169,0.2,29.4,-3.91,72.75,1.44,-5.98,C0AD40
鶯歌,24.951533,121.346294,1.24,30.79,-5.23,71.25,1.75,-6.1,C0AD50
汐止,25.066881,121.658778,0.52,30.1,-10.95,66.12,2.75,-6.11,C0AH00
永和,25.01125,121.508111,1.03,30.99,-0.74,68.38,1.62,-8.11,C0AH10
五分山,25.07125,121.780794,1.21,24.98,-2.08,91.0,4.38,-4.68,C0AH30
平等,25.129142,121.577086,-0.21,27.06,-4.3,74.38,8.69,-0.04,C0AH40
林口,25.072181,121.38084,1.34,29.69,-3.92,74.88,5.94,-1.15,C0AH50
松山,25.04871,121.55042,0.35,30.52,4.05,68.25,2.44,-7.01,C0AH70
深坑,25.002703,121.628328,1.19,29.26,-6.49,75.38,1.81,-7.72,C0AH80
福山植物園,24.760717,121.58135,-0.14,23.8,1.35,91.75,2.94,-8.21,C0AH90
五股,25.07445,121.42728,1.7,30.26,-3.12,73.25,4.0,-4.93,C0AI00
屈尺,24.92184,121.54475,2.01,30.4,-6.05,75.75,1.56,-12.54,C0AI10
白沙灣,25.283128,121.519058,0.34,29.2,3.25,77.75,7.75,4.92,C0AI20
三重,25.057328,121.500629,0.94,31.52,-8.3,68.5,2.56,-4.94,C0AI30
石牌,25.115597,121.513139,0.23,31.18,0.75,66.75,4.88,-4.03,C0AI40
七堵,25.094819,121.71713,1.3,30.46,-5.94,72.62,2.81,-5.49,C0B010
基隆嶼,25.19141,121.78391,-0.17,28.39,3.35,91.5,3.5,-0.45,C0B020
復興,24.820208,121.352281,0.9,26.42,-6.54,76.5,2.06,-7.09,C0C460
桃園,24.992425,121.323172,0.77,30.68,-4.47,62.62,2.12,-3.69,C0C480
八德,24.928708,121.283289,0.52,29.65,-7.21,66.12,2.5,-3.78,C0C490
觀音,25.027072,121.153317,0.43,29.21,-1.94,73.88,7.38,6.07,C0C590
蘆竹,25.084275,121.265767,1.2,30.69,-7.29,68.12,9.25,7.04,C0C620
大溪,24.882853,121.265547,0.61,28.46,-2.38,71.12,2.0,-3.89,C0C630
平鎮,24.897503,121.214636,0.84,28.83,-2.6,72.25,0.0,-5.35,C0C650
楊梅,24.912375,121.143047,0.1,29.1,-1.56,69.62,5.38,-0.0,C0C660
龍潭,24.870056,121.221389,0.33,28.35,-2.56,71.5,3.62,-7.42,C0C670
龜山,25.02846,121.38656,0.58,28.79,-15.35,58.38,3.5,-5.7,C0C680
中壢,24.977661,121.256375,0.3,29.75,-2.85,65.25,2.44,-5.0,C0C700
大溪永福,24.892936,121.324975,1.04,28.98,-6.03,74.12,1.62,-10.25,C0C710
梅花,24.678347,121.208558,-0.06,25.12,1.63,86.88,3.31,-11.43,C0D360
峨眉,24.6905,121.017189,-0.23,27.82,5.12,88.5,8.38,3.42,C0D430
打鐵坑,24.849664,121.150789,0.15,27.04,-5.42,77.38,5.19,-0.05,C0D480
橫山,24.71116,121.11693,0.16,27.09,3.41,87.0,3.19,-4.48,C0D540
雪霸,24.526972,121.11605,-0.53,18.18,6.0,87.88,1.9,-4.47,C0D550
竹東,24.767147,121.057881,1.33,29.59,0.64,71.88,6.81,3.68,C0D560
寶山,24.735006,121.025192,0.19,27.5,2.88,84.62,7.44,3.71,C0D580
新豐,24.87068,120.97721,0.41,28.66,1.0,79.38,11.56,10.61,C0D590
湖口,24.904794,121.043628,0.24,29.51,-4.14,70.5,7.31,6.4,C0D650
新竹市東區,24.798681,120.986942,0.04,29.16,0.04,72.12,11.06,7.8,C0D660
竹南,24.708978,120.888897,0.33,29.45,6.34,80.0,16.38,12.62,C0E420
南庄,24.601775,121.000214,-0.0,26.75,4.43,85.38,13.12,2.83,C0E430
明德,24.583486,120.885411,0.47,29.21,2.08,78.5,13.44,10.38,C0E550
通霄,24.471892,120.704622,-0.14,28.78,2.84,82.38,20.25,17.69,C0E590
馬都安,24.451272,120.930192,0.13,23.94,1.1,86.62,14.0,2.83,C0E610
頭份,24.688247,120.912206,-0.12,29.68,6.06,74.88,15.5,13.48,C0E730
造橋,24.637056,120.864778,-0.24,29.16,2.64,79.88,11.5,9.5,C0E740
苗栗,24.564569,120.824575,-0.58,29.18,1.3,71.62,13.88,10.96,C0E750
銅鑼,24.489681,120.790853,-0.03,28.62,0.33,77.88,12.88,8.5,C0E780
西湖,24.562947,120.7485,0.06,28.56,1.39,84.62,17.62,15.95,C0E810
獅潭,24.539133,120.920042,-0.37,27.5,0.71,82.71,14.36,10.42,C0E820
苑裡,24.439714,120.653053,-0.34,29.11,1.94,78.0,19.69,16.29,C0E830
大河,24.618069,120.948578,-1.75,26.72,-3.16,73.0,11.0,5.54,C0E850
高鐵苗栗,24.60725,120.826094,-0.74,29.12,16.47,83.88,14.81,13.35,C0E870
石岡,24.276061,120.777644,0.49,27.61,1.25,82.12,24.81,12.32,C0F0B0
中坑,24.248517,120.903319,0.24,22.64,-0.53,91.0,28.06,8.76,C0F0C0
審馬陣,24.381675,121.4203,1.56,12.5,-16.95,71.25,6.38,1.71,C0F0D0
東勢,24.246428,120.833047,1.14,28.08,-2.1,77.0,21.25,10.8,C0F850
大坑,24.173142,120.722289,0.7,29.49,5.09,78.88,21.25,13.95,C0F970
神岡,24.272481,120.658314,-0.37,27.91,0.28,80.38,29.94,25.71,C0F9I0
大安,24.345061,120.588025,-0.56,28.7,2.74,81.75,17.94,14.58,C0F9K0
后里,24.310436,120.729725,0.17,28.59,2.74,80.88,28.38,23.24,C0F9L0
豐原,24.254322,120.720692,1.71,30.08,0.85,76.12,29.69,23.46,C0F9M0
大里,24.092464,120.701378,0.75,30.34,5.7,78.0,18.56,11.86,C0F9N0
潭子,24.213106,120.703933,-0.4,28.91,5.56,79.38,20.94,15.09,C0F9O0
清水,24.312297,120.562242,-0.58,29.11,2.36,80.75,15.69,12.25,C0F9P0
外埔,24.347817,120.705686,-0.42,28.29,2.24,81.5,25.31,21.26,C0F9Q0
龍井,24.184536,120.528972,-0.47,29.1,-2.32,79.5,27.94,24.21,C0F9R0
烏日,24.107058,120.624103,-0.35,28.98,2.29,76.5,23.69,17.96,C0F9S0
西屯,24.179494,120.641275,-0.49,28.85,2.81,76.62,27.69,22.01,C0F9T0
南屯,24.137006,120.637969,-0.64,29.01,3.38,76.88,23.81,17.67,C0F9U0
新社,24.200172,120.815806,0.15,26.08,5.79,90.75,26.0,14.92,C0F9V0
大雅(中科園區),24.21528,120.62445,-0.1,27.92,3.33,82.12,21.5,15.19,C0F9X0
桃山,24.432739,121.303808,0.59,11.2,-9.97,75.75,5.75,-2.5,C0F9Y0
雪山東峰,24.388792,121.268675,0.91,12.32,-11.54,72.0,8.44,1.15,C0F9Z0
芬園,24.015678,120.6213,-1.03,27.26,9.23,91.0,31.0,22.52,C0G620
員林,23.946503,120.585597,3.14,32.5,0.77,79.5,37.44,28.89,C0G650
溪湖,23.94835,120.479122,0.13,29.14,-0.49,82.12,49.62,41.95,C0G660
溪州,23.851589,120.499093,0.03,28.32,-2.2,79.25,52.0,39.06,C0G720
二林,23.903325,120.376081,-0.12,28.38,2.21,89.25,39.94,29.66,C0G730
大城,23.852487,120.320935,-0.29,28.12,3.12,85.5,9.25,-2.37,C0G740
福興,24.041289,120.437669,-0.66,29.35,-2.09,79.38,57.56,50.54,C0G770
秀水,24.03405,120.503869,-0.21,29.38,3.09,82.75,51.62,45.03,C0G780
埔鹽,24.000394,120.431683,0.02,29.2,-1.97,80.5,56.56,49.45,C0G800
埔心,23.947633,120.525456,0.65,30.26,4.33,80.62,44.38,36.78,C0G810
田尾,23.901669,120.509389,-0.13,29.02,4.41,87.12,50.12,41.73,C0G820
埤頭,23.866003,120.452806,-0.63,28.69,5.17,90.88,40.88,33.46,C0G830
社頭,23.897647,120.5862,-0.33,29.42,11.5,83.5,46.69,37.18,C0G860
二水,23.810742,120.6173,0.5,29.35,3.04,82.25,45.5,34.99,C0G880
伸港,24.148933,120.484403,-0.25,29.26,1.32,81.0,8.4,4.33,C0G890
線西,24.143358,120.443536,-1.35,28.95,3.58,81.88,22.5,19.05,C0G900
埔里,23.972169,120.952425,0.73,26.56,-2.64,82.62,12.0,3.09,C0H890
草屯,23.973672,120.68085,-0.29,28.36,2.7,79.12,21.19,12.52,C0H960
昆陽,24.121322,121.273642,0.28,12.01,-9.29,80.25,9.69,0.81,C0H990
神木村,23.532742,120.843667,-0.29,19.36,-0.06,92.38,25.56,9.2,C0H9A0
合歡山,24.143442,121.272547,0.29,10.65,6.19,87.62,18.12,10.35,C0H9C0
廬山,24.033311,121.181808,0.05,20.41,-5.98,80.5,12.25,1.72,C0I010
信義,23.689694,120.851036,0.21,25.01,-1.97,86.38,17.56,9.3,C0I080
竹山,23.761225,120.688156,-0.44,27.26,0.19,84.38,40.31,23.09,C0I110
水里,23.812553,120.849792,0.33,26.89,-2.95,79.12,16.31,7.01,C0I360
魚池,23.895703,120.94135,0.65,25.04,-4.48,82.5,15.06,4.65,C0I370
集集,23.828206,120.801467,0.06,27.11,-2.22,82.0,23.5,5.78,C0I380
仁愛,24.022122,121.132206,0.37,21.89,-4.17,83.12,15.06,7.03,C0I390
名間,23.837053,120.701447,-0.55,26.91,5.83,85.62,26.81,14.93,C0I410
國姓,24.037803,120.855072,0.52,26.95,-2.52,83.62,18.56,6.39,C0I420
南投,23.911469,120.687331,-0.14,28.39,6.97,84.12,28.19,13.79,C0I460
梅峰,24.085272,121.173572,0.87,16.9,-7.82,83.0,14.19,-0.09,C0I480
萬大林道,23.928228,121.091411,0.41,19.75,-7.91,83.38,15.38,4.48,C0I490
小奇萊,24.131764,121.295717,1.55,11.95,-11.7,82.0,15.62,3.34,C0I530
崙背,23.75555,120.318925,-0.35,28.0,-0.89,83.62,29.38,18.22,C0K250
四湖,23.630414,120.227125,-0.37,28.48,-0.02,84.5,23.94,18.18,C0K280
宜梧,23.536281,120.169329,-0.67,28.44,1.36,83.88,34.75,28.09,C0K291
虎尾,23.719183,120.442036,-0.79,28.49,6.82,86.38,44.0,34.89,C0K330
土庫,23.679029,120.395574,-0.32,28.2,0.03,80.88,31.75,21.29,C0K390
斗六,23.720583,120.541127,-0.31,28.06,-0.44,80.38,42.62,30.2,C0K400
北港,23.573957,120.292802,-0.27,28.25,-1.01,81.62,28.81,20.73,C0K410
西螺,23.800407,120.467394,0.01,28.55,-1.64,81.0,50.88,39.38,C0K420
褒忠,23.690938,120.303634,-0.17,28.2,2.5,85.0,25.94,16.65,C0K430
二崙,23.772797,120.408944,-0.48,28.11,1.34,83.14,35.94,24.2,C0K440
大埤,23.646074,120.431537,-0.23,28.29,0.05,80.5,31.19,19.15,C0K450
斗南,23.678734,120.478359,-0.34,28.16,4.43,82.0,35.56,24.82,C0K460
林內,23.748675,120.609642,-0.46,27.28,2.31,84.25,48.0,33.22,C0K470
莿桐,23.761192,120.502372,-0.26,28.09,2.31,81.38,47.44,32.24,C0K480
元長,23.64981,120.315024,-0.18,28.48,2.4,82.5,27.44,16.32,C0K500
水林,23.572924,120.24597,-0.09,28.6,3.23,83.75,33.12,23.3,C0K510
臺西,23.701547,120.197559,-0.31,28.14,2.28,85.12,20.69,10.51,C0K530
蔦松,23.514319,120.229736,-0.23,28.4,1.23,84.25,23.92,13.11,C0K550
棋山,23.68645,120.603417,-0.38,27.42,7.07,88.25,48.44,31.58,C0K560
高鐵雲林,23.737456,120.417944,-0.79,27.91,0.35,84.75,38.69,24.45,C0K580
東後寮,23.369908,120.248065,-0.32,27.84,2.82,87.75,35.94,22.95,C0M520
奮起湖,23.493903,120.699253,-0.52,19.81,3.8,97.0,51.38,32.05,C0M530
中埔,23.42538,120.5229,-0.8,27.21,1.97,79.62,26.31,10.09,C0M640
朴子,23.43463,120.23902,-1.0,27.44,4.14,87.12,35.25,23.32,C0M650
溪口,23.604131,120.403569,-0.29,28.05,-0.68,81.75,25.38,14.18,C0M660
大林,23.600616,120.45841,-0.45,28.18,4.29,83.0,33.69,20.48,C0M670
太保,23.455062,120.331455,-0.62,28.02,-0.34,82.12,42.69,28.39,C0M680
水上,23.419734,120.388909,-0.53,27.75,2.61,84.25,32.75,16.57,C0M690
竹崎,23.526178,120.555508,-0.82,26.64,4.88,87.0,49.0,31.58,C0M700
東石,23.458927,120.15385,-0.37,28.42,-1.18,82.38,30.0,17.83,C0M710
番路,23.464657,120.554156,-0.63,26.71,4.81,83.0,41.12,24.19,C0M720
嘉義市東區,23.457673,120.460531,-0.65,27.85,5.51,85.0,26.06,9.73,C0M730
六腳,23.492871,120.290625,-0.57,27.98,2.75,83.88,34.5,22.92,C0M740
布袋,23.380878,120.167789,-0.17,28.59,-1.07,81.88,24.31,12.65,C0M750
民雄,23.551754,120.428457,-0.95,27.86,4.06,84.25,32.44,19.31,C0M760
嘉義梅山,23.585398,120.555587,-0.68,27.24,6.1,85.5,54.12,36.5,C0M770
鹿草,23.41134,120.30835,-0.39,28.22,5.17,85.88,12.5,-4.55,C0M780
新港,23.553269,120.345728,-0.69,27.99,1.63,81.75,29.12,19.08,C0M790
茶山,23.299075,120.664767,-0.11,24.82,0.08,89.0,34.06,16.04,C0M800
里佳,23.389125,120.716647,0.1,20.41,-0.41,89.75,30.88,12.0,C0M810
達邦,23.453994,120.749517,0.15,22.15,2.03,89.38,30.56,17.08,C0M820
表湖,23.24186,120.64166,-0.83,22.95,0.35,90.75,39.75,15.97,C0M850
新美,23.338017,120.683169,-0.85,24.33,9.22,91.62,33.69,27.09,C0M860
北寮,23.079561,120.495008,-0.64,26.96,8.44,92.62,26.56,6.57,C0O830
王爺宮,23.222064,120.40085,1.73,29.45,-6.1,79.67,29.31,13.51,C0O840
大內,23.11885,120.36083,0.26,29.12,3.42,86.88,23.69,10.9,C0O860
善化,23.112883,120.297219,-0.33,28.58,9.33,93.12,29.12,20.22,C0O900
崎頂,22.959547,120.369317,1.01,28.62,-0.55,85.38,22.19,4.84,C0O960
虎頭埤,23.021375,120.347878,-0.93,27.24,-0.94,84.75,25.0,8.77,C0O970
新市,23.061614,120.298197,0.1,28.84,-0.65,83.75,28.38,13.52,C0O980
媽廟,22.99175,120.293525,-0.26,28.5,2.58,86.12,20.5,4.73,C0O990
尾寮山,22.833111,120.683889,0.14,22.44,1.39,94.38,52.5,29.63,C0R100
阿禮,22.742908,120.743678,-0.45,22.19,-5.24,83.62,36.0,19.4,C0R130
瑪家,22.682903,120.686639,-0.84,23.36,8.84,97.12,49.5,20.84,C0R140
三地門,22.709889,120.639944,-0.4,28.05,-0.27,80.5,35.88,18.45,C0R150
鹽埔,22.739558,120.530778,-0.12,28.19,0.97,88.62,33.12,11.63,C0R160
赤山,22.592333,120.614306,-0.58,27.92,7.71,92.5,34.12,8.07,C0R190
潮州,22.534361,120.54,-0.47,28.44,1.74,82.25,33.31,19.6,C0R220
來義,22.527306,120.625111,-1.39,26.57,10.66,94.75,42.81,15.5,C0R240
春日,22.370361,120.628306,-1.78,26.48,4.22,87.75,24.5,0.93,C0R260
琉球嶼,22.332244,120.362236,0.52,29.16,-3.87,82.62,18.94,11.42,C0R270
車城,22.0744,120.716247,-1.75,27.72,2.58,85.88,31.88,24.52,C0R320
牡丹,22.130036,120.792639,-1.48,25.84,4.65,91.75,53.31,49.61,C0R341
貓鼻頭,21.921774,120.7358,-0.5,28.12,2.53,85.62,39.38,28.18,C0R350
大漢山,22.405264,120.753181,-0.88,17.41,2.8,99.5,96.81,92.51,C0R440
高樹,22.826389,120.600806,-0.83,27.76,0.75,80.25,32.88,13.34,C0R470
長治,22.693128,120.542622,0.17,28.84,0.23,83.0,36.94,14.14,C0R480
九如,22.7405,120.490503,-0.14,28.61,0.34,83.62,34.69,13.46,C0R490
崁頂,22.514781,120.506914,-0.59,28.45,1.29,84.62,3.6,-17.6,C0R520
佳冬,22.419456,120.552375,-0.45,28.6,-0.81,80.75,19.0,-0.04,C0R540
新埤,22.467947,120.582894,-0.53,28.1,-4.45,80.25,28.38,7.88,C0R550
新園,22.5434,120.461558,0.37,29.35,-3.69,78.5,35.88,13.2,C0R560
麟洛,22.65078,120.52719,0.43,29.31,2.52,85.25,38.75,14.46,C0R570
南州,22.48591,120.50274,-0.32,28.41,6.63,85.88,21.5,1.81,C0R580
里港,22.77919,120.49459,-0.42,28.05,2.67,86.88,28.69,9.96,C0R590
舊泰武,22.588194,120.664944,-0.7,23.79,2.51,89.12,52.56,18.64,C0R600
墾雷,21.900836,120.855269,-0.99,27.72,9.57,94.75,49.62,34.52,C0R620
東港,22.46247,120.44074,-0.22,28.8,-3.25,82.5,19.5,9.13,C0R640
竹田,22.58486,120.54344,-0.23,28.46,-2.45,84.25,32.94,6.31,C0R650
枋寮,22.367722,120.590647,-0.31,28.76,3.45,83.75,17.5,11.35,C0R660
楓港,22.190131,120.692156,-1.37,28.09,-2.97,77.62,25.62,18.73,C0R670
佳樂水,21.993578,120.861633,-1.41,28.2,5.58,86.88,50.88,49.02,C0R680
墾丁,21.966756,120.810269,-1.31,26.21,4.67,93.38,52.19,47.29,C0R690
枋山,22.246844,120.661086,0.9,29.78,-2.9,79.0,0.12,-7.78,C0R700
龍磐,21.931672,120.838942,-2.14,27.11,7.7,91.5,44.31,42.46,C0R710
旭海,22.205403,120.887614,-2.39,26.06,9.12,88.62,73.0,72.55,C0R720
大坪頂,22.024633,120.69355,-1.96,26.69,7.53,92.62,37.31,33.86,C0R730
四林格山,22.076989,120.802439,-1.37,23.7,0.28,97.88,52.38,45.72,C0R750
南仁湖,22.084681,120.863353,-1.83,25.14,10.4,98.5,67.69,64.29,C0R760
保力,22.071122,120.764111,-0.79,27.02,2.3,90.0,46.31,36.01,C0R770
滿州,22.024403,120.839892,-1.55,27.32,4.15,86.75,53.38,51.12,C0R780
九棚,22.14195,120.889281,-2.56,26.79,10.15,87.25,75.06,72.01,C0R790
丹路,22.204481,120.750989,-1.32,27.04,-0.22,83.88,53.44,47.54,C0R800
內獅,22.305064,120.642986,-0.94,28.26,3.42,82.62,21.62,15.68,C0R810
白鷺,22.454275,120.666219,-0.84,24.26,-0.42,89.38,43.69,38.64,C0R820
高士,22.121825,120.836781,-2.31,24.41,8.08,94.88,79.94,73.64,C0R830
牡丹池山,22.168389,120.841225,-1.81,23.85,8.62,98.12,76.69,74.44,C0R840
下馬,23.150427,121.070312,-0.89,23.96,1.03,79.38,17.12,14.42,C0S660
太麻里,22.60902,120.98533,-0.02,25.49,7.72,83.62,37.0,30.13,C0S690
知本,22.684866,121.005642,-0.43,25.31,7.47,86.62,36.62,25.88,C0S700
鹿野,22.917711,121.122994,0.03,26.09,3.0,83.75,25.0,17.37,C0S710
綠島,22.6672,121.47533,-0.24,27.79,0.4,84.75,45.75,38.83,C0S730
池上,23.119628,121.209469,-0.75,26.59,4.32,82.62,20.38,11.44,C0S740
向陽,23.248397,120.986133,-0.98,14.96,12.0,91.5,24.5,9.59,C0S750
大溪山,22.478475,120.943325,-0.54,25.39,10.6,83.75,47.88,35.98,C0S770
金崙,22.538122,120.966875,-0.76,27.19,7.88,82.12,40.94,33.98,C0S790
東河,22.972672,121.303986,-1.37,27.78,2.9,85.0,33.12,26.82,C0S810
長濱,23.286817,121.411975,-0.59,27.28,0.67,81.12,17.31,11.7,C0S830
南田,22.279725,120.889208,-0.92,27.72,4.75,83.5,70.06,57.58,C0S840
關山,23.0395,121.175017,-0.8,26.95,6.88,85.88,21.25,11.33,C0S890
蘭嶼高中,22.04909,121.51214,-0.98,28.65,5.55,86.0,17.12,9.9,C0S900
蘭嶼燈塔,22.081197,121.503117,-0.71,27.12,5.88,91.12,15.25,8.25,C0S910
金峰嘉蘭,22.594789,120.960825,-3.14,26.58,7.88,76.88,42.88,39.48,C0S920
延平,22.902581,121.084058,-1.53,26.64,4.79,81.0,25.44,22.64,C0S930
石寧山,23.223772,121.406639,-0.74,28.16,2.86,83.25,17.62,17.02,C0S940
七塊厝,22.954453,121.229922,-1.08,25.95,-4.74,78.88,33.06,25.29,C0S950
香蘭,22.587569,120.993375,-1.5,28.3,2.0,74.5,40.19,40.19,C0S960
加津林,22.416211,120.926942,-1.92,28.02,12.44,81.0,49.75,43.42,C0S970
勝林山,22.430439,120.8938,-3.3,21.68,17.19,95.75,55.56,49.54,C0S980
山豬窟,22.318619,120.857372,-2.42,24.92,12.01,88.62,71.69,61.41,C0S990
歷坵,22.520969,120.89185,-2.66,24.9,14.71,87.38,50.75,46.08,C0SA00
檳榔四格山,22.810031,121.109308,-1.09,25.9,3.62,85.25,25.88,22.92,C0SA10
金崙山,22.567419,120.959667,-2.83,22.94,13.65,86.38,45.0,40.88,C0SA20
都歷,23.020333,121.323642,-0.65,28.08,-2.0,76.0,30.75,28.2,C0SA30
瑞和,22.974361,121.156697,-1.83,26.78,3.82,81.88,23.94,21.41,C0SA40
知本（水試所）,22.702394,121.082761,-1.75,28.0,5.85,83.25,32.06,32.06,C0SA60
土坂,22.453108,120.887572,-2.67,26.96,19.17,85.62,61.25,61.25,C0SA80
達仁林場,22.264347,120.823972,-2.18,24.32,14.08,94.38,80.88,79.28,C0SA90
大禹嶺,24.186117,121.316086,-1.03,12.98,2.28,86.5,7.94,0.79,C0T790
天祥,24.179597,121.495639,0.34,25.2,-0.01,79.62,4.19,-5.64,C0T820
鯉魚潭,23.935639,121.508944,-0.86,26.1,2.0,87.25,4.38,-2.39,C0T870
西林,23.8119,121.441458,-0.64,27.29,7.12,81.75,5.75,0.38,C0T900
光復,23.660694,121.424964,-0.59,27.39,-0.08,82.62,6.56,-0.59,C0T960
月眉山,23.809928,121.539828,-0.04,25.36,-1.03,87.5,5.81,-0.19,C0T9A0
水源,23.991861,121.537169,0.01,25.08,-1.58,84.75,5.56,-2.44,C0T9B0
和中,24.26676,121.74103,-1.31,27.18,-5.55,82.75,4.19,-2.12,C0T9D0
大坑,23.880628,121.581981,-0.61,25.56,4.05,87.5,5.19,1.96,C0T9E0
水璉,23.797131,121.542514,-0.96,26.7,4.53,86.0,6.25,1.66,C0T9F0
鳳林山,23.735269,121.420131,-1.4,24.85,-0.35,88.38,7.44,1.06,C0T9G0
加路蘭山,23.682947,121.5274,-0.08,25.04,-2.38,82.62,7.31,3.56,C0T9H0
豐濱,23.583897,121.514806,-0.08,27.09,0.42,83.12,9.06,4.25,C0T9I0
靜浦,23.455167,121.495028,-0.29,27.55,2.03,85.88,16.0,10.56,C0T9M0
富里,23.171639,121.249378,-1.55,26.56,-2.47,77.25,15.94,11.04,C0T9N0
雙連埤,24.753033,121.641303,-1.05,24.19,-0.57,91.0,4.0,-2.42,C0U520
礁溪,24.817539,121.765608,0.45,29.1,-4.34,78.12,3.31,-4.52,C0U600
玉蘭,24.675286,121.587061,-0.18,26.24,0.83,79.62,1.94,-6.31,C0U650
太平山,24.505486,121.525656,0.15,18.11,-6.43,86.0,2.31,-12.2,C0U710
南山,24.43742,121.38167,-0.59,22.55,-1.12,78.88,2.62,-0.01,C0U720
龜山島,24.841667,121.953133,-0.83,25.46,1.15,90.75,2.19,1.13,C0U750
東澳,24.52196,121.83318,-0.07,28.8,-6.81,78.12,4.75,-0.29,C0U760
南澳,24.44935,121.81022,-0.76,28.01,-0.72,83.75,4.12,1.74,C0U770
五結,24.68637,121.79794,-1.07,28.51,0.53,78.0,2.75,-0.01,C0U780
頭城,24.85323,121.8308,0.51,29.51,-3.66,82.88,3.38,-0.66,C0U860
大礁溪,24.791042,121.675047,-0.63,25.41,8.4,90.0,3.12,-3.97,C0U870
三星,24.66812,121.65302,-0.4,27.9,-6.56,76.88,1.94,-0.55,C0U890
內城,24.71813,121.68766,0.23,28.59,-1.14,79.62,2.25,0.07,C0U900
冬山,24.63373,121.7937,-0.02,29.05,-0.93,73.0,3.06,1.75,C0U910
羅東,24.68184,121.74934,0.01,28.96,2.63,78.0,2.62,1.29,C0U940
鶯子嶺,24.89754,121.79244,-0.76,21.83,2.4,93.5,10.5,-1.97,C0U950
翠峰湖,24.510856,121.608044,0.18,17.86,-2.43,88.5,3.25,-5.97,C0U960
大福,24.80064,121.81389,-0.15,28.62,2.38,80.38,2.56,-0.45,C0U970
坪林石牌,24.86478,121.77396,-0.42,24.39,4.59,95.62,5.69,-6.33,C0U980
員山,24.74435,121.72247,-0.19,28.62,2.74,80.88,3.5,0.77,C0U990
土場,24.576533,121.495333,-0.0,26.62,-8.78,79.12,1.94,-3.55,C0UA00
鴛鴦湖,24.590269,121.412228,0.12,18.92,2.42,91.88,2.56,-13.22,C0UA10
白嶺,24.527819,121.519031,-0.6,20.75,-0.19,89.88,2.69,-1.55,C0UA30
西德山,24.560647,121.752608,0.4,22.89,-6.76,82.88,2.62,-3.01,C0UA40
西帽山,24.555361,121.802628,-0.55,23.75,-5.17,83.12,4.5,1.03,C0UA50
樟樹山,24.41393,121.78325,-0.5,25.25,1.72,83.25,4.06,1.2,C0UA60
桃源谷,24.962606,121.888875,-0.79,24.69,4.84,96.88,6.38,0.36,C0UA70
復興,23.222403,120.806089,-0.23,24.01,4.01,86.25,21.19,10.94,C0V210
溪埔,22.738578,120.446797,-0.74,27.71,9.43,90.88,43.56,24.58,C0V350
內門,22.975481,120.466769,0.18,27.79,4.33,91.5,30.19,9.64,C0V360
古亭坑,22.893178,120.401947,-0.7,27.33,1.15,88.12,24.56,11.1,C0V370
阿公店,22.804194,120.355528,-0.71,27.75,4.09,86.75,23.75,8.14,C0V400
鳳山,22.646653,120.356122,-1.05,28.02,7.66,88.38,43.31,25.5,C0V440
鳳森,22.545064,120.392592,-0.63,27.96,-0.26,84.5,39.88,22.59,C0V450
新興,22.627422,120.298803,-0.49,29.16,-2.28,78.12,45.0,35.21,C0V490
阿蓮,22.883208,120.327508,-0.38,28.65,-0.11,83.88,0.0,-18.17,C0V530
梓官,22.760558,120.267211,-0.69,28.68,3.02,81.62,30.0,17.44,C0V610
永安,22.82315,120.236856,-0.57,28.6,-2.61,81.5,23.94,9.75,C0V620
茄萣,22.906642,120.182608,-0.2,29.16,4.09,82.25,22.5,9.65,C0V630
湖內,22.887139,120.2445,-0.94,28.2,-1.64,82.0,24.19,9.85,C0V640
彌陀,22.783806,120.246361,-0.38,28.71,-3.01,81.75,24.88,11.8,C0V650
岡山,22.797078,120.294958,-0.16,29.36,1.54,81.25,30.06,13.75,C0V660
仁武,22.701083,120.347722,-0.03,29.35,3.54,81.12,26.31,9.88,C0V680
鼓山,22.623325,120.275575,-0.66,28.85,2.11,81.12,34.88,23.68,C0V690
三民,22.645017,120.311233,-0.62,29.19,4.26,78.0,43.25,28.86,C0V700
苓雅,22.622742,120.330669,0.03,29.51,6.03,82.12,44.69,29.49,C0V710
林園,22.507747,120.394511,0.04,29.82,3.26,81.0,27.0,13.28,C0V720
大寮,22.605614,120.395717,-0.78,28.5,7.79,87.38,49.81,30.12,C0V730
旗山,22.888614,120.483597,0.18,28.61,0.09,81.5,30.69,10.62,C0V740
路竹,22.854997,120.259439,0.07,29.42,0.07,80.12,18.75,3.3,C0V750
橋頭,22.757806,120.30575,-0.21,29.35,-1.3,77.88,34.12,19.13,C0V760
大社,22.730306,120.346639,-0.09,29.25,3.08,82.38,36.56,18.51,C0V770
萬山,22.905944,120.688056,-0.05,25.76,0.99,86.38,32.94,13.73,C0V790
六龜,22.997889,120.633583,-0.58,26.75,5.18,86.0,37.5,15.43,C0V800
左營,22.67491,120.28491,-0.69,28.5,0.52,80.88,38.38,23.06,C0V810
小林,23.148408,120.63325,-0.57,25.25,4.95,89.75,29.25,16.4,C0V820
東莒,25.9652,119.98069,0.59,28.05,-0.51,88.62,0.0,-2.78,C0W110
西嶼,23.5626,119.468436,0.86,27.91,-1.78,90.62,7.19,1.31,C0W120
花嶼,23.40007,119.32276,0.81,28.19,-0.35,88.75,6.62,3.46,C0W130
金沙,24.488292,118.408778,2.12,30.31,-14.8,72.0,0.06,-1.87,C0W140
金寧,24.457703,118.328989,1.28,30.21,-17.15,71.38,1.69,-0.48,C0W150
東河,23.296598,120.385608,-0.65,27.62,-1.5,81.62,30.81,13.12,C0X050
下營,23.22695,120.256261,0.01,28.25,-1.81,82.62,25.44,10.95,C0X060
臺南市北區,23.010394,120.194228,-0.59,29.2,6.46,81.75,27.12,13.62,C0X100
臺南市南區,22.961189,120.188378,-0.43,29.11,1.04,82.5,23.12,10.32,C0X110
麻豆,23.183289,120.248611,0.04,29.21,4.4,84.88,24.0,11.69,C0X120
官田,23.193217,120.315422,-0.76,28.31,10.78,91.62,30.31,16.58,C0X130
西港,23.125608,120.203108,-0.45,28.88,0.89,80.5,34.19,20.98,C0X140
安定,23.102614,120.227839,-0.18,29.0,4.16,85.25,25.19,12.62,C0X150
仁德,22.968258,120.257689,-0.02,29.18,-0.45,79.83,25.69,9.93,C0X160
關廟,22.963017,120.327797,-0.71,28.52,7.79,85.38,25.0,8.53,C0X170
山上,23.0757,120.363253,-0.45,27.89,2.0,84.75,24.38,9.43,C0X180
安平,22.993161,120.152181,-0.44,29.12,-6.04,74.5,25.12,13.44,C0X190
左鎮,23.056758,120.408522,0.47,28.33,-1.03,84.88,26.06,8.14,C0X200
白河,23.347466,120.414427,-0.74,27.55,5.5,86.38,32.75,18.14,C0X210
學甲,23.230367,120.182187,-0.07,28.32,3.4,84.5,23.38,11.52,C0X220
鹽水,23.272621,120.247641,-0.42,27.81,2.91,87.25,28.38,14.12,C0X230
關子嶺,23.331169,120.508025,-0.54,25.6,6.62,90.62,48.75,26.28,C0X240
新營,23.310689,120.316681,-0.56,28.2,3.89,84.38,32.31,14.74,C0X250
後壁,23.366358,120.362326,-0.44,27.96,0.99,83.25,42.5,27.26,C0X260
將軍,23.214999,120.13577,0.19,28.77,-1.59,80.67,23.44,10.85,C0X280
北門,23.267772,120.125481,-0.31,28.48,2.96,85.5,29.69,16.95,C0X290
鹿寮,23.386047,120.477331,-0.72,26.91,2.28,87.12,34.38,17.83,C0X300
柳營,23.253328,120.375253,-1.62,27.69,11.72,86.62,23.56,21.11,C0X320
明里,23.208717,121.262342,-1.32,26.62,0.51,82.38,14.31,7.25,C0Z020
佳心,23.34567,121.21316,-0.53,23.16,5.34,86.88,14.56,6.66,C0Z050
玉里,23.3215,121.339656,-1.13,27.01,-6.61,77.12,12.69,6.18,C0Z061
舞鶴,23.46811,121.37407,-1.07,26.02,-1.59,83.25,11.06,6.14,C0Z070
富源,23.587642,121.378225,-1.03,26.33,0.17,85.38,8.94,2.78,C0Z080
東華,23.89525,121.549833,-0.8,27.74,4.88,86.12,0.06,-5.98,C0Z100
吉安光華,23.930925,121.595153,-0.27,27.72,0.67,83.88,3.88,2.68,C0Z150
鳳林,23.746114,121.453411,-0.88,27.01,1.1,79.12,5.75,4.66,C0Z160
卓溪,23.3443,121.3029,-1.44,26.98,0.83,77.62,13.25,11.63,C0Z170
新城,24.040486,121.604878,-0.18,28.04,-1.99,77.88,3.69,1.9,C0Z180
富世,24.14743,121.6297,-0.37,28.06,-4.0,80.0,7.62,4.41,C0Z190
萬榮,23.709219,121.420106,-0.58,26.98,-1.33,79.38,7.0,4.64,C0Z200
瑞穗,23.5239,121.39021,-0.57,27.16,3.74,84.38,13.12,12.22,C0Z210
和平林道,24.343922,121.656317,-0.32,25.15,-6.11,80.62,3.88,1.44,C0Z220
和平,24.30717,121.77007,-0.82,27.81,-2.21,75.12,3.31,-0.35,C0Z230
瑞穗林道,23.49284,121.30688,-0.63,22.06,-0.55,89.25,12.06,10.1,C0Z250
蕃薯寮,23.73835,121.540108,-0.4,25.88,-2.75,84.5,6.5,5.66,C0Z270
德武,23.47426,121.41071,-0.67,26.76,1.78,83.88,11.94,10.6,C0Z280
赤柯山,23.36893,121.38293,-0.38,23.24,-3.78,82.12,14.81,11.88,C0Z290
東里,23.26853,121.30547,-1.01,27.05,-1.99,80.88,15.12,12.59,C0Z300
清水斷崖,24.218294,121.689142,-0.54,27.48,-5.8,82.0,3.69,-3.85,C0Z310
清水林道,23.27125,121.188272,-1.05,24.01,-1.32,80.75,14.0,8.87,C0Z320
安通山,23.290728,121.348528,-1.18,25.35,4.42,85.25,14.38,13.06,C0Z330
口湖工作站,23.589978,120.180394,-0.43,28.11,2.58,78.62,21.69,14.88,12J990
東港工作站,22.479997,120.466058,-0.08,28.62,-2.5,71.25,20.69,7.16,12Q970
恆春工作站,22.079678,120.714425,-0.81,28.2,1.55,79.5,26.19,15.0,12Q980
萬大發電廠,23.978875,121.139639,0.33,22.69,-11.8,79.62,14.94,6.63,42HA10
桃改樹林分場,24.944503,121.386972,0.22,29.44,-8.28,67.62,1.56,-4.94,72AI40
桃園農改場,24.950944,121.030583,0.76,29.49,-3.28,75.12,9.19,6.08,72C440
桃改五峰分場,24.612194,121.157167,0.69,23.26,-1.12,85.0,4.19,-9.05,72D080
臺中農改場,24.003028,120.534389,-0.73,28.29,8.93,88.88,45.69,38.22,72G600
中改埔里分場,23.903208,120.963364,0.2,24.44,-0.67,89.38,15.75,10.42,72HA00
南改斗南分場,23.634556,120.477333,-0.91,27.85,6.13,86.75,34.56,22.98,72K220
南改義竹分場,23.360694,120.279361,-1.22,27.79,-0.45,83.43,40.29,31.64,72M360
南改鹿草分場,23.416869,120.283061,-0.64,28.08,5.28,85.62,33.69,24.94,72M700
臺南農改場,23.0605,120.342194,-1.33,27.66,8.87,89.75,24.56,15.89,72N100
七股研究中心,23.081672,120.062894,0.03,28.91,-0.38,83.12,24.0,3.95,72N240
高雄農改場,22.709333,120.525889,-1.06,27.9,5.01,85.12,36.19,22.11,72Q010
東改班鳩分場,22.829528,121.077694,-0.65,26.55,0.36,80.25,28.25,19.6,72S200
東改賓朗果園,22.813889,121.071278,-1.37,25.51,2.09,90.0,28.06,20.15,72S590
花蓮農改場,23.975222,121.563889,-0.29,27.91,-1.11,78.12,4.19,-2.5,72T250
花改蘭陽分場,24.686306,121.716583,-0.04,28.54,-3.14,77.62,2.12,-3.96,72U480
高改旗南分場,22.857861,120.516667,-1.95,27.5,11.47,87.0,30.12,19.66,72V140
茶改北部分場,24.955778,121.631222,0.31,26.52,-3.52,79.12,2.38,-8.45,82A750
茶改場,24.908472,121.185333,0.46,28.62,-10.2,68.5,3.75,-2.81,82C160
茶改中部分場,23.875611,120.913583,-2.13,21.9,4.57,92.0,27.4,13.73,82H320
茶改南部分場,23.762528,120.7405,-0.4,25.54,-0.31,87.75,30.62,10.04,82H840
茶改東部分場,22.907694,121.130139,-1.34,26.62,2.64,83.25,25.44,15.89,82S580
農工中心,24.985917,121.239833,0.58,29.84,-3.68,66.25,3.25,-1.28,A2C560
水試臺西試驗場,23.717231,120.190522,-0.89,28.46,3.73,89.88,19.25,10.34,A2K360
臺大雲林校區,23.730628,120.423903,-1.15,28.0,6.3,84.0,42.06,39.31,A2K630
臺南蘭花園區,23.340258,120.379661,-1.19,27.51,7.9,89.0,37.75,34.85,A2N290
畜試北區分所,24.527806,120.770972,-0.47,28.09,8.88,85.88,15.69,13.69,B2E890
畜產試驗所,23.058972,120.336406,-1.31,27.26,6.52,89.62,26.06,15.88,B2N890
畜試南區分所,21.945583,120.802167,-1.3,27.39,0.22,83.88,53.62,42.21,B2Q810
畜試東區分所,24.669039,121.832561,0.31,28.76,1.2,84.0,3.5,2.15,B2U990
蓮華池,23.918333,120.885278,-1.75,24.21,8.39,88.38,17.88,2.54,E2H360
林試畢祿溪站,24.226944,121.308522,0.21,16.73,-5.8,77.5,0.0,-2.65,E2HA20
四湖植物園,23.676986,120.163433,-0.21,28.36,10.45,96.0,22.19,10.69,E2K600
林試六龜中心,22.991703,120.645722,-1.64,25.66,11.85,91.25,34.56,34.56,E2P980
林試太麻里2,22.598,120.99775,-2.28,27.54,9.5,81.5,36.44,36.44,E2S960
林試太麻里1,22.598922,120.980044,-2.27,27.16,9.38,81.38,39.38,39.38,E2S980
農試所(霧峰),24.031261,120.688133,-0.43,28.32,1.91,81.88,21.06,10.71,G2F820
農試嘉義分所,23.485028,120.473806,-1.65,26.74,11.03,87.12,26.81,18.3,G2L020
農試溪口農場,23.58565,120.408111,-1.23,28.15,3.45,84.0,29.62,24.61,G2M350
農試鳳山分所,22.646611,120.356083,-1.3,28.11,8.99,83.88,41.12,32.41,G2P820
苗栗農改場,24.495722,120.829111,-0.64,28.06,2.24,80.14,15.36,10.37,K2E360
苗改生物防治研究中心,24.422861,120.871833,-0.14,26.65,2.92,82.25,20.0,12.68,K2E710
種苗改良場,24.225972,120.800917,-0.17,26.16,1.17,82.0,26.0,12.54,K2F750
溪頭,23.670306,120.798194,-0.42,20.28,5.18,95.33,35.83,23.5,U2H480
臺大和社,23.590856,120.888864,0.73,23.85,-0.38,88.38,12.94,7.94,U2HA30
臺大內茅埔,23.689722,120.851117,-0.07,25.01,-0.78,85.88,17.44,13.29,U2HA40
臺大竹山,23.756972,120.681556,-0.3,27.31,0.61,82.88,43.19,30.1,U2HA50
