站名,緯度,經度,平均溫距平,本年度平均溫,平均溼度距平,本年度日均相對溼度,本年度日均降水量,日均降水量距平,站號
淡水,25.164889,121.448906,0.84,28.22,0.68,80.61,2.51,-6.48,466900
鞍部,25.182586,121.529731,0.49,22.66,4.31,92.21,3.19,-8.97,466910
臺北,25.037658,121.514853,0.84,29.15,0.49,75.61,5.37,-6.24,466920
竹子湖,25.162078,121.544547,0.7,24.4,1.87,87.14,3.0,-7.87,466930
基隆,25.133314,121.740475,0.81,28.37,1.64,79.0,3.05,-7.08,466940
花蓮,23.975128,121.613275,0.53,28.04,2.94,83.32,9.64,4.01,466990
新屋,25.006725,121.047492,0.05,28.14,-1.01,82.18,1.19,-8.01,467050
宜蘭,24.763975,121.756528,0.58,27.94,3.69,84.89,4.23,-2.9,467080
金門,24.407306,118.289281,0.81,27.37,1.76,88.81,1.77,-3.23,467110
田中,23.873803,120.581286,-0.9,28.57,1.23,80.54,7.76,6.31,467270
澎湖,23.565503,119.563094,0.54,28.42,1.35,86.48,4.15,-1.16,467350
臺南,22.99328,120.20492,0.31,29.24,-0.03,76.71,12.27,-0.88,467410
永康,23.038386,120.2367,0.46,29.14,3.02,77.29,12.67,-0.29,467420
嘉義,23.495925,120.432906,0.18,28.6,3.61,80.41,17.03,5.99,467480
臺中,24.145736,120.684075,0.72,28.86,0.2,75.89,7.16,-4.44,467490
阿里山,23.508208,120.813242,0.12,14.59,3.17,93.29,18.33,-4.99,467530
大武,22.35572,120.90374,0.47,28.79,1.32,78.37,11.15,-1.36,467540
玉山,23.48718,120.95943,1.18,8.66,3.22,83.71,10.64,-5.4,467550
新竹,24.827853,121.014219,0.83,28.9,-0.16,76.31,1.72,-6.61,467571
恆春,22.003897,120.746339,0.48,29.07,1.46,81.39,9.9,-0.71,467590
成功,23.097486,121.373428,0.41,27.77,3.51,85.48,11.83,5.8,467610
日月潭,23.881325,120.90805,0.54,22.89,6.33,91.54,18.2,2.37,467650
臺東,22.752211,121.154586,0.52,28.87,2.49,80.0,7.78,0.49,467660
馬祖,26.169467,119.923158,1.31,26.3,1.75,89.29,4.17,-1.87,467990
山佳,24.974944,121.402008,1.53,29.33,-1.34,79.04,4.3,-6.5,C0A520
坪林,24.938183,121.70975,2.42,27.34,-3.08,88.68,4.84,-6.15,C0A530
泰平,24.971197,121.823711,1.1,25.11,-0.82,93.32,5.61,-5.98,C0A550
桶後,24.848222,121.597992,1.59,26.02,-5.22,87.0,10.5,-1.82,C0A570
石碇,24.993969,121.662917,1.01,26.49,-4.77,86.29,2.59,-11.79,C0A640
大坪,25.165914,121.632969,1.9,27.04,-3.71,84.27,4.4,-7.54,C0A860
五指山,25.132153,121.608692,2.52,25.51,-3.33,89.75,3.29,-7.14,C0A870
雙溪,25.036003,121.864242,2.08,28.41,-2.8,85.36,3.98,-6.19,C0A890
三和,25.233153,121.595236,0.4,26.62,-1.37,88.96,5.7,-9.13,C0A931
金山,25.223628,121.643967,0.71,27.57,-3.05,81.68,4.43,-5.7,C0A940
鼻頭角,25.129036,121.923372,1.36,28.13,-2.5,86.57,2.57,-3.76,C0A950
三貂角,25.007606,122.002058,1.19,27.63,0.85,88.25,5.04,-1.23,C0A970
社子,25.109508,121.469681,1.7,29.93,-0.91,77.68,2.75,-5.86,C0A980
天母,25.117494,121.537169,0.79,28.89,-3.95,72.79,2.57,-6.6,C0A9C0
內湖,25.079422,121.57545,1.57,29.88,-0.96,76.71,4.2,-5.93,C0A9F0
大屯山,25.175675,121.522408,2.32,23.34,1.63,96.93,3.23,-7.97,C0AC40
三峽,24.939025,121.369728,1.54,29.61,-1.14,79.71,4.29,-7.84,C0AC60
信義,25.037822,121.564597,1.32,29.48,-2.45,77.21,5.25,-6.91,C0AC70
文山,25.00235,121.575728,0.38,27.9,-3.66,80.79,4.38,-8.95,C0AC80
新莊,25.051478,121.446756,-0.15,28.74,0.05,74.0,2.91,-7.69,C0ACA0
八里,25.150211,121.403947,1.52,29.75,7.2,85.11,2.36,-5.27,C0AD10
蘆洲,25.086594,121.472331,0.97,30.03,0.22,75.36,2.93,-6.21,C0AD30
土城,24.973208,121.445169,0.35,28.04,-0.99,81.36,9.34,-4.45,C0AD40
鶯歌,24.951533,121.346294,1.28,29.34,0.61,82.18,2.96,-7.34,C0AD50
汐止,25.066881,121.658778,0.42,28.42,-3.73,79.07,2.43,-8.89,C0AH00
永和,25.01125,121.508111,1.11,29.75,1.51,76.36,8.98,-2.98,C0AH10
五分山,25.07125,121.780794,2.37,25.2,-2.17,91.54,4.36,-8.57,C0AH30
平等,25.129142,121.577086,0.32,26.24,-0.98,81.46,2.86,-8.55,C0AH40
林口,25.072181,121.38084,1.54,28.44,-0.78,83.5,2.7,-6.75,C0AH50
松山,25.04871,121.55042,0.23,29.02,9.06,78.0,6.07,0.1,C0AH70
深坑,25.002703,121.628328,1.1,28.1,-1.23,83.14,2.38,-6.72,C0AH80
福山植物園,24.760717,121.58135,0.55,23.63,1.0,93.11,7.46,0.03,C0AH90
五股,25.07445,121.42728,1.18,28.79,-0.59,81.14,3.27,-4.95,C0AI00
屈尺,24.92184,121.54475,1.88,29.19,0.52,84.64,6.41,-3.78,C0AI10
白沙灣,25.283128,121.519058,0.35,27.78,6.69,84.89,2.43,-4.0,C0AI20
三重,25.057328,121.500629,-0.74,29.66,6.29,82.29,2.7,0.41,C0AI30
石牌,25.115597,121.513139,0.5,30.09,5.89,75.82,2.32,-5.9,C0AI40
七堵,25.094819,121.71713,1.3,29.19,-1.76,81.82,3.14,-6.23,C0B010
基隆嶼,25.19141,121.78391,-0.01,27.35,6.57,95.36,1.0,-7.67,C0B020
復興,24.820208,121.352281,0.35,24.84,-7.69,78.5,7.88,-8.09,C0C460
桃園,24.992425,121.323172,0.68,28.95,0.72,73.96,3.07,-6.78,C0C480
八德,24.928708,121.283289,0.07,28.08,-2.85,75.39,3.16,-6.84,C0C490
觀音,25.027072,121.153317,0.19,27.42,5.89,86.89,3.41,-4.99,C0C590
蘆竹,25.084275,121.265767,0.58,28.61,-1.48,79.07,1.68,-6.51,C0C620
大溪,24.882853,121.265547,0.43,27.01,2.01,79.5,5.34,-4.88,C0C630
平鎮,24.897503,121.214636,0.68,27.33,0.13,79.86,3.48,-5.52,C0C650
楊梅,24.912375,121.143047,-0.02,27.93,2.49,77.46,1.96,-6.58,C0C660
龍潭,24.870056,121.221389,0.05,27.04,1.62,78.96,5.62,-2.79,C0C670
龜山,25.02846,121.38656,-0.92,25.92,-2.35,76.68,2.93,-7.49,C0C680
中壢,24.977661,121.256375,0.33,28.28,0.25,74.18,1.98,-3.82,C0C700
大溪永福,24.892936,121.324975,0.62,27.42,-0.2,83.68,4.96,-4.5,C0C710
梅花,24.678347,121.208558,0.38,24.51,1.5,89.14,7.75,-2.51,C0D360
峨眉,24.6905,121.017189,-0.0,27.3,2.76,88.36,4.21,-4.34,C0D430
打鐵坑,24.849664,121.150789,0.11,25.95,-2.23,83.43,0.93,-8.44,C0D480
橫山,24.71116,121.11693,-0.03,25.98,10.64,96.04,4.96,-4.92,C0D540
雪霸,24.526972,121.11605,0.2,18.19,1.12,85.5,5.93,-5.47,C0D550
竹東,24.767147,121.057881,1.43,28.52,-1.08,74.21,4.52,-3.61,C0D560
寶山,24.735006,121.025192,0.33,26.72,1.44,85.75,5.34,-3.14,C0D580
新豐,24.87068,120.97721,0.38,27.28,4.76,87.5,2.09,-6.61,C0D590
湖口,24.904794,121.043628,0.28,28.24,-3.44,75.46,1.62,-6.62,C0D650
新竹市東區,24.798681,120.986942,-0.09,28.14,1.44,75.96,2.96,-4.98,C0D660
竹南,24.708978,120.888897,1.66,29.45,3.1,80.86,2.38,-5.85,C0E420
南庄,24.601775,121.000214,0.21,26.07,3.44,86.29,7.09,-3.86,C0E430
明德,24.583486,120.885411,0.48,28.51,-0.66,78.14,2.73,-4.84,C0E550
通霄,24.471892,120.704622,0.07,28.19,-0.09,82.0,3.05,-4.02,C0E590
馬都安,24.451272,120.930192,0.52,23.54,3.97,86.75,7.14,-4.43,C0E610
頭份,24.688247,120.912206,1.21,29.77,1.12,74.43,3.62,-4.49,C0E730
造橋,24.637056,120.864778,0.08,28.58,-1.4,78.89,2.55,-4.93,C0E740
苗栗,24.564569,120.824575,-0.26,28.64,-2.47,71.14,2.25,-5.21,C0E750
銅鑼,24.489681,120.790853,0.05,28.05,-2.94,77.5,2.93,-5.34,C0E780
西湖,24.562947,120.7485,0.27,27.94,-2.22,83.71,2.71,-4.92,C0E810
獅潭,24.539133,120.920042,-0.09,27.06,-2.51,80.16,3.5,-5.53,C0E820
苑裡,24.439714,120.653053,-0.2,28.45,-0.72,77.64,2.09,-5.95,C0E830
大河,24.618069,120.948578,-1.4,26.23,1.42,81.14,3.61,-6.37,C0E850
高鐵苗栗,24.60725,120.826094,-0.0,28.54,9.67,82.71,2.75,-3.7,C0E870
石岡,24.276061,120.777644,0.41,27.28,0.2,81.18,7.05,-8.35,C0F0B0
中坑,24.248517,120.903319,-0.54,21.88,-1.12,89.39,15.21,-5.11,C0F0C0
審馬陣,24.381675,121.4203,0.35,11.57,3.32,85.11,8.75,1.94,C0F0D0
東勢,24.246428,120.833047,0.98,27.55,-1.45,78.21,7.66,-6.53,C0F850
大坑,24.173142,120.722289,1.05,29.45,0.95,76.14,5.02,-5.89,C0F970
神岡,24.272481,120.658314,-0.1,27.74,-4.83,77.68,3.57,-3.97,C0F9I0
大安,24.345061,120.588025,-0.22,28.17,-1.96,80.64,2.91,-3.39,C0F9K0
后里,24.310436,120.729725,0.48,28.38,-3.31,77.21,4.96,-4.49,C0F9L0
豐原,24.254322,120.720692,1.55,29.54,-3.86,73.18,4.32,-6.2,C0F9M0
大里,24.092464,120.701378,0.81,30.07,2.9,76.71,7.16,-3.05,C0F9N0
潭子,24.213106,120.703933,0.4,29.3,1.81,77.32,4.16,-6.39,C0F9O0
清水,24.312297,120.562242,-0.12,28.75,-3.53,78.54,2.62,-3.38,C0F9P0
外埔,24.347817,120.705686,-0.12,27.7,-2.0,81.39,4.46,-3.05,C0F9Q0
龍井,24.184536,120.528972,0.15,28.9,-8.45,77.79,4.14,-2.62,C0F9R0
烏日,24.107058,120.624103,0.06,28.94,-1.17,74.54,5.43,-2.98,C0F9S0
西屯,24.179494,120.641275,-0.0,28.94,-2.33,73.5,5.11,-3.55,C0F9T0
南屯,24.137006,120.637969,-0.12,29.08,-0.83,74.25,5.29,-2.93,C0F9U0
新社,24.200172,120.815806,0.27,25.81,-3.42,81.75,10.36,-5.19,C0F9V0
大雅(中科園區),24.21528,120.62445,0.12,27.86,0.57,79.75,3.2,-7.21,C0F9X0
桃山,24.432739,121.303808,0.25,10.79,4.12,86.89,11.27,-2.77,C0F9Y0
雪山東峰,24.388792,121.268675,0.48,11.78,2.52,83.86,8.66,-7.21,C0F9Z0
芬園,24.015678,120.6213,-0.63,27.26,7.82,90.07,7.0,-2.51,C0G620
員林,23.946503,120.585597,2.4,30.73,-3.67,77.89,7.59,-2.25,C0G650
溪湖,23.94835,120.479122,0.78,29.24,-5.62,80.04,6.84,-1.91,C0G660
溪州,23.851589,120.499093,0.77,28.85,-7.31,74.57,8.18,-3.16,C0G720
二林,23.903325,120.376081,0.22,28.4,-0.67,86.64,8.71,-2.16,C0G730
大城,23.852487,120.320935,0.2,28.26,-0.23,82.36,4.95,-5.08,C0G740
福興,24.041289,120.437669,0.0,29.36,-6.58,76.71,4.82,-2.57,C0G770
秀水,24.03405,120.503869,0.34,29.3,-1.95,80.46,6.96,-0.55,C0G780
埔鹽,24.000394,120.431683,0.71,29.15,-7.51,78.28,5.57,-2.09,C0G800
埔心,23.947633,120.525456,1.32,30.44,-1.72,77.25,6.91,-1.98,C0G810
田尾,23.901669,120.509389,0.4,29.16,1.03,84.86,7.96,-1.61,C0G820
埤頭,23.866003,120.452806,0.03,28.72,1.74,88.71,6.96,-1.76,C0G830
社頭,23.897647,120.5862,0.26,29.6,7.94,82.0,6.16,-3.83,C0G860
二水,23.810742,120.6173,1.01,29.6,-0.11,80.38,6.71,-4.27,C0G880
伸港,24.148933,120.484403,-0.08,28.77,-5.23,77.61,4.32,-2.08,C0G890
線西,24.143358,120.443536,-0.86,28.76,-0.71,79.32,4.0,-3.33,C0G900
花壇,24.032076,120.549461,1.44,31.03,11.69,85.39,7.16,5.24,C0G910
埔里,23.972169,120.952425,0.37,26.14,0.58,85.07,16.52,-2.07,C0H890
草屯,23.973672,120.68085,-0.12,28.24,0.53,78.43,7.66,-3.72,C0H960
昆陽,24.121322,121.273642,0.82,11.57,-0.19,88.21,8.98,-2.7,C0H990
神木村,23.532742,120.843667,0.49,19.62,0.18,91.39,12.98,-5.89,C0H9A0
合歡山,24.143442,121.272547,1.15,10.8,5.9,91.68,12.43,-9.7,C0H9C0
廬山,24.033311,121.181808,0.73,20.25,-2.38,84.0,8.62,-7.15,C0I010
信義,23.689694,120.851036,0.34,25.04,0.13,86.71,9.93,-4.92,C0I080
竹山,23.761225,120.688156,0.62,27.66,0.94,83.57,12.66,-0.78,C0I110
水里,23.812553,120.849792,0.39,26.69,-1.53,80.5,13.36,-5.48,C0I360
魚池,23.895703,120.94135,0.33,24.72,-2.48,83.89,15.96,-3.67,C0I370
集集,23.828206,120.801467,0.02,26.96,0.38,83.86,13.39,-8.49,C0I380
仁愛,24.022122,121.132206,0.65,22.05,-4.68,83.86,9.16,-12.89,C0I390
名間,23.837053,120.701447,-0.18,27.15,5.01,84.71,11.21,-3.98,C0I410
國姓,24.037803,120.855072,0.28,26.63,-1.63,84.36,12.91,-9.59,C0I420
南投,23.911469,120.687331,0.08,28.46,5.97,83.25,7.59,-8.53,C0I460
梅峰,24.085272,121.173572,0.79,16.64,-2.5,88.46,11.57,-13.24,C0I480
萬大林道,23.928228,121.091411,0.57,19.83,-6.51,84.5,9.54,-7.99,C0I490
小奇萊,24.131764,121.295717,1.05,11.7,-1.15,87.07,9.79,-6.31,C0I530
崙背,23.75555,120.318925,-0.16,27.9,0.02,85.46,8.96,-3.59,C0K250
四湖,23.630414,120.227125,0.73,28.67,-3.2,81.75,10.12,0.38,C0K280
宜梧,23.536281,120.169329,0.03,28.65,-1.75,81.61,9.73,0.24,C0K291
虎尾,23.719183,120.442036,0.58,28.9,4.28,82.68,8.73,-1.52,C0K330
土庫,23.679029,120.395574,0.13,28.52,-3.39,78.29,9.54,-2.28,C0K390
斗六,23.720583,120.541127,0.15,28.46,-4.53,76.0,6.23,-6.92,C0K400
北港,23.573957,120.292802,0.08,28.58,-3.1,79.11,8.7,0.64,C0K410
西螺,23.800407,120.467394,0.11,28.7,-2.96,77.93,7.5,-3.21,C0K420
褒忠,23.690938,120.303634,0.15,28.38,-2.51,80.61,8.62,-1.48,C0K430
二崙,23.772797,120.408944,0.53,28.85,3.9,86.39,7.5,-5.53,C0K440
大埤,23.646074,120.431537,0.25,28.62,-2.1,78.46,8.39,-4.28,C0K450
斗南,23.678734,120.478359,0.18,28.57,1.22,78.54,8.18,-5.13,C0K460
林內,23.748675,120.609642,0.16,27.77,-1.65,80.61,11.0,-3.2,C0K470
莿桐,23.761192,120.502372,0.15,28.34,-0.98,78.32,5.96,-7.4,C0K480
元長,23.64981,120.315024,0.26,28.76,-0.45,80.14,9.95,-1.95,C0K500
水林,23.572924,120.24597,0.45,28.98,0.1,80.71,10.11,-0.01,C0K510
臺西,23.701547,120.197559,-0.03,28.28,0.22,82.54,10.45,-1.35,C0K530
蔦松,23.514319,120.229736,0.14,28.71,-0.45,82.29,9.95,1.46,C0K550
棋山,23.68645,120.603417,0.1,27.84,3.34,84.71,11.75,-5.81,C0K560
高鐵雲林,23.737456,120.417944,-0.33,28.14,-1.79,82.36,8.82,1.03,C0K580
東後寮,23.369908,120.248065,0.11,28.25,-0.1,84.57,10.12,0.05,C0M520
奮起湖,23.493903,120.699253,0.45,20.31,2.1,94.36,20.18,-1.54,C0M530
中埔,23.42538,120.5229,-0.08,27.83,-1.55,76.21,12.54,-2.11,C0M640
朴子,23.43463,120.23902,-0.53,27.8,2.04,84.5,9.55,0.48,C0M650
溪口,23.604131,120.403569,0.03,28.37,-1.9,79.46,7.43,-2.36,C0M660
大林,23.600616,120.45841,0.2,28.83,-0.74,77.29,8.66,-4.52,C0M670
太保,23.455062,120.331455,-0.06,28.45,-3.4,79.43,10.0,-1.04,C0M680
水上,23.419734,120.388909,0.11,28.32,-1.12,80.0,16.84,5.13,C0M690
竹崎,23.526178,120.555508,-0.17,27.39,1.56,82.57,15.96,1.5,C0M700
東石,23.458927,120.15385,-0.19,28.74,-3.34,79.04,10.59,1.89,C0M710
番路,23.464657,120.554156,0.12,27.44,1.61,79.46,17.3,-0.17,C0M720
嘉義市東區,23.457673,120.460531,-0.03,28.78,2.21,79.39,15.7,3.43,C0M730
六腳,23.492871,120.290625,-0.04,28.54,1.36,80.61,10.38,2.25,C0M740
布袋,23.380878,120.167789,0.15,28.87,-3.13,79.39,9.36,-1.09,C0M750
民雄,23.551754,120.428457,0.11,28.8,-1.72,78.07,9.66,-3.15,C0M760
嘉義梅山,23.585398,120.555587,-0.24,27.85,1.89,80.25,16.91,1.96,C0M770
鹿草,23.41134,120.30835,0.22,28.76,0.0,80.46,11.48,-0.69,C0M780
新港,23.553269,120.345728,-0.07,28.5,-1.32,78.93,8.54,-1.47,C0M790
茶山,23.299075,120.664767,0.08,25.4,0.44,86.39,15.32,-5.13,C0M800
里佳,23.389125,120.716647,0.42,20.89,-1.33,86.96,19.0,-8.87,C0M810
達邦,23.453994,120.749517,0.54,22.7,2.31,87.39,12.16,-9.93,C0M820
表湖,23.24186,120.64166,-0.53,23.77,0.21,87.21,13.12,-1.39,C0M850
新美,23.338017,120.683169,-0.37,25.02,9.17,87.07,16.5,12.13,C0M860
北寮,23.079561,120.495008,-0.3,27.63,7.21,89.61,21.82,11.31,C0O830
王爺宮,23.222064,120.40085,1.89,29.72,-4.77,78.32,14.5,3.2,C0O840
大內,23.11885,120.36083,0.54,29.49,4.1,85.57,15.54,5.47,C0O860
善化,23.112883,120.297219,0.38,28.54,8.46,91.21,13.46,0.64,C0O900
崎頂,22.959547,120.369317,0.85,28.74,-0.75,84.57,13.23,3.82,C0O960
虎頭埤,23.021375,120.347878,-0.39,27.8,-1.51,82.07,15.98,5.91,C0O970
新市,23.061614,120.298197,0.38,29.23,-1.67,81.04,13.25,4.58,C0O980
媽廟,22.99175,120.293525,0.11,28.93,0.35,82.46,12.61,2.87,C0O990
尾寮山,22.833111,120.683889,0.92,22.7,1.79,93.75,23.84,-1.98,C0R100
阿禮,22.742908,120.743678,0.15,22.62,-2.86,83.96,13.46,-0.37,C0R130
瑪家,22.682903,120.686639,-0.51,23.85,10.08,94.68,20.32,0.66,C0R140
三地門,22.709889,120.639944,0.6,28.51,0.41,77.68,17.28,-1.78,C0R150
鹽埔,22.739558,120.530778,0.24,28.71,-0.69,85.25,15.59,3.95,C0R160
赤山,22.592333,120.614306,-0.16,28.54,6.28,88.25,16.45,2.74,C0R190
潮州,22.534361,120.54,0.71,29.14,0.72,78.32,16.36,1.38,C0R220
來義,22.527306,120.625111,-0.96,27.2,9.41,90.18,17.09,3.27,C0R240
春日,22.370361,120.628306,-1.36,27.19,5.29,85.71,16.29,5.94,C0R260
琉球嶼,22.332244,120.362236,0.87,29.04,-5.3,80.64,7.07,-2.13,C0R270
車城,22.0744,120.716247,-0.49,28.86,2.37,84.0,10.95,7.91,C0R320
牡丹,22.130036,120.792639,-0.42,26.76,7.86,91.96,13.45,8.28,C0R341
貓鼻頭,21.921774,120.7358,0.61,28.74,0.15,83.79,10.38,1.35,C0R350
大漢山,22.405264,120.753181,0.26,18.32,2.26,96.89,29.3,16.75,C0R440
高樹,22.826389,120.600806,-0.34,28.4,0.17,76.86,18.77,5.59,C0R470
長治,22.693128,120.542622,0.55,29.48,-1.71,77.64,15.82,3.28,C0R480
九如,22.7405,120.490503,0.51,29.4,-2.17,79.11,17.59,5.54,C0R490
崁頂,22.514781,120.506914,-0.32,28.84,0.14,81.5,10.02,-0.88,C0R520
佳冬,22.419456,120.552375,-0.21,28.85,0.4,80.46,15.04,4.04,C0R540
新埤,22.467947,120.582894,-0.28,28.51,-4.42,77.54,16.11,6.04,C0R550
新園,22.5434,120.461558,0.84,29.89,-6.52,74.5,13.27,2.19,C0R560
麟洛,22.65078,120.52719,0.64,29.78,2.81,81.96,19.68,8.93,C0R570
南州,22.48591,120.50274,-0.31,28.58,4.87,83.93,13.16,3.02,C0R580
里港,22.77919,120.49459,0.09,28.7,1.68,83.11,15.39,4.66,C0R590
舊泰武,22.588194,120.664944,-0.14,24.39,1.92,86.11,12.3,-6.58,C0R600
墾雷,21.900836,120.855269,-0.37,28.4,8.21,92.25,11.27,3.94,C0R620
東港,22.46247,120.44074,-0.11,29.09,-1.87,81.5,10.82,7.63,C0R640
竹田,22.58486,120.54344,-0.29,28.99,-1.25,80.04,15.61,10.69,C0R650
枋寮,22.367722,120.590647,-0.19,28.82,6.07,84.5,11.34,8.86,C0R660
楓港,22.190131,120.692156,-0.7,28.55,-0.7,78.07,14.27,11.8,C0R670
佳樂水,21.993578,120.861633,-0.82,28.71,5.56,84.86,10.88,9.01,C0R680
墾丁,21.966756,120.810269,-0.35,26.94,2.55,90.68,11.84,10.09,C0R690
枋山,22.246844,120.661086,0.22,29.02,-0.63,79.04,46.5,44.88,C0R700
龍磐,21.931672,120.838942,-0.85,27.92,4.39,88.89,9.96,8.9,C0R710
旭海,22.205403,120.887614,-0.77,27.21,4.89,84.32,10.18,7.03,C0R720
大坪頂,22.024633,120.69355,-0.64,27.72,7.24,92.64,6.93,5.53,C0R730
四林格山,22.076989,120.802439,-0.18,24.74,-0.38,95.25,14.07,6.9,C0R750
南仁湖,22.084681,120.863353,-0.84,25.92,10.92,95.75,17.5,10.58,C0R760
保力,22.071122,120.764111,-0.22,27.56,2.79,88.29,11.57,5.44,C0R770
滿州,22.024403,120.839892,-0.82,28.06,4.45,84.25,12.05,9.14,C0R780
九棚,22.14195,120.889281,-1.02,28.13,7.89,82.83,5.46,0.51,C0R790
丹路,22.204481,120.750989,-0.18,27.99,1.06,82.86,20.2,14.55,C0R800
內獅,22.305064,120.642986,-0.18,28.91,12.13,88.93,17.38,14.66,C0R810
白鷺,22.454275,120.666219,0.08,25.29,2.12,86.79,22.54,18.69,C0R820
高士,22.121825,120.836781,-0.82,25.68,6.97,91.11,14.96,7.96,C0R830
牡丹池山,22.168389,120.841225,-0.56,24.9,6.95,93.75,13.12,7.52,C0R840
下馬,23.150427,121.070312,0.2,24.11,3.59,84.07,7.68,6.14,C0S660
太麻里,22.60902,120.98533,0.91,25.59,3.2,87.63,6.78,-1.67,C0S690
知本,22.684866,121.005642,0.84,25.74,3.51,89.25,13.09,3.93,C0S700
鹿野,22.917711,121.122994,1.3,26.44,3.23,86.71,10.05,2.74,C0S710
綠島,22.6672,121.47533,1.11,28.36,-2.12,84.18,11.82,6.17,C0S730
池上,23.119628,121.209469,0.75,26.76,2.64,85.46,9.89,4.25,C0S740
向陽,23.248397,120.986133,0.74,16.17,10.6,89.32,10.68,-3.84,C0S750
大溪山,22.478475,120.943325,0.7,25.96,5.47,87.25,9.43,-1.51,C0S770
金崙,22.538122,120.966875,1.03,28.06,-0.36,80.75,8.0,-1.09,C0S790
東河,22.972672,121.303986,0.16,28.31,2.2,86.5,11.95,5.63,C0S810
長濱,23.286817,121.411975,0.78,27.35,2.59,85.96,10.98,5.9,C0S830
南田,22.279725,120.889208,0.59,28.61,0.62,79.79,10.95,-0.8,C0S840
關山,23.0395,121.175017,0.35,27.36,3.76,86.57,9.36,4.53,C0S890
蘭嶼高中,22.04909,121.51214,-0.41,28.94,6.69,86.07,15.93,13.28,C0S900
蘭嶼燈塔,22.081197,121.503117,-0.18,27.52,7.41,91.14,14.43,12.66,C0S910
金峰嘉蘭,22.594789,120.960825,-0.72,27.87,3.05,79.29,10.2,5.89,C0S920
延平,22.902581,121.084058,-0.81,27.08,8.37,82.54,10.14,6.71,C0S930
石寧山,23.223772,121.406639,-0.49,28.29,5.09,85.86,11.91,10.28,C0S940
七塊厝,22.954453,121.229922,0.01,26.65,-3.58,81.72,12.3,5.33,C0S950
香蘭,22.587569,120.993375,-0.25,28.85,7.2,81.17,9.38,6.79,C0S960
加津林,22.416211,120.926942,-0.07,28.55,3.67,80.11,10.18,7.25,C0S970
勝林山,22.430439,120.8938,-1.75,23.13,10.74,90.54,10.88,6.92,C0S980
山豬窟,22.318619,120.857372,-1.34,26.28,10.01,85.04,12.89,8.68,C0S990
歷坵,22.520969,120.89185,-0.11,25.82,1.9,86.46,9.88,5.95,C0SA00
檳榔四格山,22.810031,121.109308,-0.7,26.07,5.71,88.61,7.89,4.63,C0SA10
金崙山,22.567419,120.959667,-0.21,24.21,1.42,85.86,11.23,8.15,C0SA20
都歷,23.020333,121.323642,-0.02,28.36,-0.67,78.43,10.89,6.18,C0SA30
瑞和,22.974361,121.156697,-0.72,27.34,4.05,83.21,9.61,6.25,C0SA40
知本（水試所）,22.702394,121.082761,-0.47,28.52,5.21,83.64,8.66,6.64,C0SA60
土坂,22.453108,120.887572,-0.06,28.04,7.53,83.0,11.3,7.09,C0SA80
達仁林場,22.264347,120.823972,-0.65,25.52,9.81,89.18,17.82,10.59,C0SA90
大禹嶺,24.186117,121.316086,0.44,13.59,2.26,86.14,8.45,-0.78,C0T790
天祥,24.179597,121.495639,0.92,24.75,3.68,84.86,7.88,3.15,C0T820
鯉魚潭,23.935639,121.508944,0.49,26.29,1.31,89.71,9.41,3.44,C0T870
西林,23.8119,121.441458,0.82,27.32,6.58,85.93,7.05,1.26,C0T900
光復,23.660694,121.424964,1.19,27.86,-2.26,84.21,8.52,1.91,C0T960
月眉山,23.809928,121.539828,1.15,25.39,-1.28,91.96,6.46,0.92,C0T9A0
水源,23.991861,121.537169,0.87,24.7,-0.19,91.25,11.23,4.7,C0T9B0
和中,24.26676,121.74103,0.62,27.77,9.96,99.0,8.66,2.04,C0T9D0
大坑,23.880628,121.581981,0.89,25.79,4.05,92.11,12.43,6.45,C0T9E0
水璉,23.797131,121.542514,0.48,26.84,3.88,90.25,6.25,0.66,C0T9F0
鳳林山,23.735269,121.420131,0.08,24.92,0.34,92.54,10.39,3.09,C0T9G0
加路蘭山,23.682947,121.5274,1.33,25.04,6.16,97.71,7.84,0.65,C0T9H0
豐濱,23.583897,121.514806,1.23,27.26,-3.24,84.93,6.93,0.77,C0T9I0
靜浦,23.455167,121.495028,0.89,27.59,6.46,92.54,10.46,5.25,C0T9M0
富里,23.171639,121.249378,-0.67,27.19,20.35,99.35,8.38,6.6,C0T9N0
雙連埤,24.753033,121.641303,0.05,23.99,-2.92,92.0,6.16,-3.18,C0U520
礁溪,24.817539,121.765608,0.95,27.92,-3.65,82.79,3.36,-4.26,C0U600
玉蘭,24.675286,121.587061,1.09,25.89,-2.26,82.32,7.75,-1.25,C0U650
太平山,24.505486,121.525656,0.84,18.04,-0.39,92.57,13.36,1.16,C0U710
南山,24.43742,121.38167,0.35,22.13,-6.46,83.71,6.55,1.0,C0U720
龜山島,24.841667,121.953133,-0.12,24.82,-1.63,92.89,2.52,-1.26,C0U750
東澳,24.52196,121.83318,0.77,28.1,-3.96,82.89,4.45,-3.33,C0U760
南澳,24.44935,121.81022,0.3,27.67,1.39,87.79,2.46,-3.05,C0U770
五結,24.68637,121.79794,0.02,27.94,-1.23,82.18,4.43,-1.06,C0U780
頭城,24.85323,121.8308,0.22,28.03,-2.04,87.07,3.71,-2.63,C0U860
大礁溪,24.791042,121.675047,0.33,25.17,5.75,92.39,6.89,0.56,C0U870
三星,24.66812,121.65302,0.28,27.21,-7.01,81.18,5.71,-0.11,C0U890
內城,24.71813,121.68766,0.79,27.84,-2.66,83.82,5.07,-0.8,C0U900
冬山,24.63373,121.7937,0.78,28.41,-0.57,79.07,5.43,-0.9,C0U910
羅東,24.68184,121.74934,0.86,28.32,0.78,82.39,4.0,-1.26,C0U940
鶯子嶺,24.89754,121.79244,0.65,22.08,-5.07,89.93,7.2,-2.23,C0U950
翠峰湖,24.510856,121.608044,1.02,18.0,0.31,92.54,10.57,2.97,C0U960
大福,24.80064,121.81389,-0.08,27.43,1.02,84.86,3.21,-1.86,C0U970
坪林石牌,24.86478,121.77396,0.46,24.32,1.76,94.89,5.68,-1.74,C0U980
員山,24.74435,121.72247,0.32,27.86,2.73,85.25,3.75,-1.8,C0U990
土場,24.576533,121.495333,-0.0,25.67,-3.73,84.82,5.27,-0.79,C0UA00
鴛鴦湖,24.590269,121.412228,0.59,18.57,2.36,96.18,12.64,0.32,C0UA10
白嶺,24.527819,121.519031,0.41,20.79,-2.2,92.32,14.11,4.35,C0UA30
西德山,24.560647,121.752608,0.7,22.15,0.92,93.39,8.05,1.48,C0UA40
西帽山,24.555361,121.802628,0.52,23.69,-5.3,86.89,8.29,0.19,C0UA50
樟樹山,24.41393,121.78325,0.41,25.03,2.18,88.26,3.8,-2.4,C0UA60
桃源谷,24.962606,121.888875,0.52,24.68,-0.87,95.07,6.57,-2.23,C0UA70
復興,23.222403,120.806089,0.33,24.42,3.44,84.5,13.2,-1.31,C0V210
溪埔,22.738578,120.446797,-0.1,28.51,4.1,85.0,16.89,5.51,C0V350
內門,22.975481,120.466769,0.74,28.41,2.13,85.86,23.2,10.07,C0V360
古亭坑,22.893178,120.401947,0.15,27.61,1.59,85.91,17.7,2.62,C0V370
阿公店,22.804194,120.355528,-0.41,28.13,1.9,83.46,12.11,1.8,C0V400
鳳山,22.646653,120.356122,-0.63,28.58,6.99,84.96,10.2,-0.17,C0V440
鳳森,22.545064,120.392592,-0.3,28.41,-1.36,81.86,12.48,1.39,C0V450
新興,22.627422,120.298803,0.47,29.66,-3.5,75.39,12.61,1.65,C0V490
阿蓮,22.883208,120.327508,-0.15,28.97,0.53,81.5,13.36,1.66,C0V530
梓官,22.760558,120.267211,-0.3,28.99,-0.97,79.46,13.34,3.07,C0V610
永安,22.82315,120.236856,-0.3,28.78,-3.38,80.46,10.52,0.38,C0V620
茄萣,22.906642,120.182608,0.12,29.41,3.1,80.96,15.79,6.41,C0V630
湖內,22.887139,120.2445,-0.72,28.41,-1.03,80.14,12.36,3.11,C0V640
彌陀,22.783806,120.246361,-0.07,28.95,-3.66,80.75,11.34,1.6,C0V650
岡山,22.797078,120.294958,0.23,29.78,-0.15,77.93,15.34,4.32,C0V660
仁武,22.701083,120.347722,0.12,29.78,0.72,78.0,13.48,2.45,C0V680
鼓山,22.623325,120.275575,-0.19,29.13,-0.74,79.79,10.77,2.07,C0V690
三民,22.645017,120.311233,-0.07,29.71,2.25,75.18,13.34,2.9,C0V700
苓雅,22.622742,120.330669,0.52,30.01,5.32,78.69,13.1,3.03,C0V710
林園,22.507747,120.394511,0.34,30.11,2.49,78.89,11.5,1.39,C0V720
大寮,22.605614,120.395717,-0.35,29.1,5.09,81.93,16.32,5.54,C0V730
旗山,22.888614,120.483597,0.85,29.31,-1.14,78.32,20.62,8.88,C0V740
路竹,22.854997,120.259439,0.33,29.65,-1.11,77.75,11.68,0.68,C0V750
橋頭,22.757806,120.30575,0.2,29.75,-4.1,74.79,14.7,4.69,C0V760
大社,22.730306,120.346639,0.14,29.65,3.07,79.57,15.39,4.11,C0V770
萬山,22.905944,120.688056,0.31,26.27,3.17,84.64,14.56,1.01,C0V790
六龜,22.997889,120.633583,0.11,27.39,3.54,82.79,20.88,4.36,C0V800
左營,22.67491,120.28491,-0.2,28.94,-1.6,78.68,12.8,1.5,C0V810
小林,23.148408,120.63325,-0.12,25.96,6.35,86.54,13.59,3.81,C0V820
東莒,25.9652,119.98069,1.3,26.37,-1.29,87.23,1.39,-5.35,C0W110
西嶼,23.5626,119.468436,0.8,27.18,-2.59,90.81,7.69,3.15,C0W120
花嶼,23.40007,119.32276,0.59,27.31,-0.42,89.5,2.66,-2.93,C0W130
金沙,24.488292,118.408778,1.03,27.76,-3.96,83.36,1.38,-3.11,C0W140
金寧,24.457703,118.328989,0.12,27.63,-5.73,82.71,1.12,-2.74,C0W150
東河,23.296598,120.385608,-0.31,28.19,-2.97,78.5,13.57,1.11,C0X050
下營,23.22695,120.256261,0.3,28.7,-3.76,79.39,13.98,1.98,C0X060
佳里,23.173039,120.145086,0.68,29.04,2.25,86.5,14.62,3.81,C0X080
臺南市北區,23.010394,120.194228,-0.17,29.57,4.38,78.86,10.14,1.83,C0X100
臺南市南區,22.961189,120.188378,-0.15,29.29,-0.29,80.82,11.12,2.82,C0X110
麻豆,23.183289,120.248611,0.46,29.69,1.28,81.96,13.61,4.75,C0X120
官田,23.193217,120.315422,-0.07,29.0,7.44,86.75,13.12,4.04,C0X130
西港,23.125608,120.203108,-0.37,29.05,-0.76,78.18,14.86,6.52,C0X140
安定,23.102614,120.227839,0.13,29.38,2.63,82.68,13.89,6.14,C0X150
仁德,22.968258,120.257689,0.12,29.3,1.8,80.89,12.54,3.41,C0X160
關廟,22.963017,120.327797,-0.33,29.04,6.7,82.04,11.54,1.4,C0X170
山上,23.0757,120.363253,-0.09,28.44,1.7,82.36,15.62,5.57,C0X180
安平,22.993161,120.152181,-0.06,29.31,-6.74,74.96,11.04,3.39,C0X190
左鎮,23.056758,120.408522,0.74,28.71,-1.36,82.75,15.05,4.93,C0X200
白河,23.347466,120.414427,-0.13,28.21,1.61,81.5,14.05,1.87,C0X210
學甲,23.230367,120.182187,0.1,28.75,1.46,80.57,12.09,4.48,C0X220
鹽水,23.272621,120.247641,0.0,28.35,0.09,82.75,12.75,3.47,C0X230
關子嶺,23.331169,120.508025,-0.14,25.95,3.75,87.79,22.18,4.08,C0X240
新營,23.310689,120.316681,-0.33,28.78,1.94,79.39,15.71,5.88,C0X250
後壁,23.366358,120.362326,-0.18,28.47,-0.45,79.5,14.32,4.9,C0X260
將軍,23.214999,120.13577,0.07,28.62,-0.74,80.82,11.18,2.31,C0X280
北門,23.267772,120.125481,-0.24,28.76,-2.22,81.29,10.5,1.18,C0X290
鹿寮,23.386047,120.477331,-0.1,27.52,-0.79,83.57,17.08,3.47,C0X300
柳營,23.253328,120.375253,-0.67,28.25,6.07,82.04,12.57,10.27,C0X320
明里,23.208717,121.262342,0.2,26.74,1.39,88.36,11.0,4.97,C0Z020
佳心,23.34567,121.21316,0.81,23.4,8.74,92.82,11.11,4.75,C0Z050
舞鶴,23.46811,121.37407,1.14,26.86,10.66,99.59,13.8,8.81,C0Z070
富源,23.587642,121.378225,0.69,26.88,-0.95,87.57,9.45,2.59,C0Z080
東華,23.89525,121.549833,0.61,28.15,3.07,88.0,3.48,-0.52,C0Z100
吉安光華,23.930925,121.595153,0.45,27.59,-2.45,84.5,11.38,7.48,C0Z150
鳳林,23.746114,121.453411,0.34,27.32,-1.01,81.46,6.86,0.57,C0Z160
卓溪,23.3443,121.3029,-0.15,27.46,-1.17,79.21,12.96,7.55,C0Z170
富世,24.14743,121.6297,0.34,27.8,-3.42,84.07,10.43,4.66,C0Z190
萬榮,23.709219,121.420106,0.63,27.26,-2.7,82.43,9.16,3.46,C0Z200
瑞穗,23.5239,121.39021,0.83,27.68,0.92,85.46,10.29,5.77,C0Z210
和平林道,24.343922,121.656317,0.33,24.78,-4.02,86.93,7.79,4.84,C0Z220
和平,24.30717,121.77007,-0.6,27.07,-2.92,81.71,8.36,2.64,C0Z230
瑞穗林道,23.49284,121.30688,0.44,22.22,2.55,95.79,12.16,3.57,C0Z250
蕃薯寮,23.73835,121.540108,0.62,26.01,-3.17,88.54,6.64,-0.27,C0Z270
德武,23.47426,121.41071,0.6,27.18,-0.17,86.18,14.27,10.68,C0Z280
赤柯山,23.36893,121.38293,0.7,23.37,-1.12,88.64,13.64,9.24,C0Z290
東里,23.26853,121.30547,0.36,27.5,-3.69,82.86,15.05,11.79,C0Z300
清水斷崖,24.218294,121.689142,-0.06,27.21,-3.39,86.21,6.95,0.4,C0Z310
清水林道,23.27125,121.188272,0.17,24.61,-1.29,82.93,10.3,4.37,C0Z320
安通山,23.290728,121.348528,0.26,25.8,2.94,87.75,14.11,10.39,C0Z330
口湖工作站,23.589978,120.180394,0.02,28.35,-0.12,76.29,9.09,6.41,12J990
東港工作站,22.479997,120.466058,-0.25,29.06,0.34,69.39,11.36,8.11,12Q970
恆春工作站,22.079678,120.714425,-0.15,28.9,2.07,78.04,9.95,2.8,12Q980
萬大發電廠,23.978875,121.139639,0.39,22.57,-7.59,82.18,8.5,-0.61,42HA10
桃改樹林分場,24.944503,121.386972,-1.16,27.63,1.43,78.39,4.88,0.98,72AI40
桃園農改場,24.950944,121.030583,1.01,28.24,-0.9,81.21,1.18,-6.13,72C440
桃改五峰分場,24.612194,121.157167,0.8,22.53,1.17,89.32,5.76,-4.12,72D080
臺中農改場,24.003028,120.534389,0.4,28.31,4.42,86.75,7.91,-0.61,72G600
中改埔里分場,23.903208,120.963364,0.19,24.17,1.34,90.57,15.59,0.44,72HA00
南改斗南分場,23.634556,120.477333,0.62,28.57,0.1,82.21,6.39,-3.55,72K220
南改義竹分場,23.360694,120.279361,0.02,28.21,-4.49,81.0,12.29,1.63,72M360
南改鹿草分場,23.416869,120.283061,-0.08,28.46,2.9,83.36,8.64,2.39,72M700
臺南農改場,23.0605,120.342194,0.02,28.15,3.35,86.18,14.32,3.06,72N100
七股研究中心,23.081672,120.062894,0.13,29.15,0.77,82.25,14.39,8.0,72N240
高雄農改場,22.709333,120.525889,0.18,28.68,3.64,84.07,15.67,0.69,72Q010
東改班鳩分場,22.829528,121.077694,0.43,26.69,0.33,83.3,7.13,-0.54,72S200
東改賓朗果園,22.813889,121.071278,-4.44,21.37,1.54,91.19,8.95,1.93,72S590
花蓮農改場,23.975222,121.563889,0.97,27.82,-1.41,81.93,10.1,5.02,72T250
花改蘭陽分場,24.686306,121.716583,0.89,27.8,-2.46,83.04,5.75,-0.72,72U480
高改旗南分場,22.857861,120.516667,-0.76,28.16,6.17,82.43,3.98,-11.67,72V140
茶改北部分場,24.955778,121.631222,1.34,25.79,0.65,86.36,5.09,-8.22,82A750
茶改場,24.908472,121.185333,0.76,27.45,-5.61,77.25,2.59,-5.96,82C160
茶改中部分場,23.875611,120.913583,-0.34,23.01,2.98,91.69,20.78,5.48,82H320
茶改南部分場,23.762528,120.7405,-0.3,25.36,0.01,87.79,15.77,1.62,82H840
茶改東部分場,22.907694,121.130139,0.16,27.24,2.14,84.0,10.18,2.5,82S580
農工中心,24.985917,121.239833,1.11,28.34,0.46,75.25,1.84,-5.77,A2C560
水試臺西試驗場,23.717231,120.190522,0.21,28.69,1.19,86.61,9.23,3.1,A2K360
臺大雲林校區,23.730628,120.423903,-0.41,28.11,2.87,82.5,8.29,4.69,A2K630
臺南蘭花園區,23.340258,120.379661,-0.36,28.06,4.6,85.43,13.09,10.77,A2N290
畜試北區分所,24.527806,120.770972,1.58,28.9,-2.4,79.25,2.31,-5.33,B2E890
畜產試驗所,23.058972,120.336406,-0.16,27.82,1.75,85.68,14.89,1.06,B2N890
畜試南區分所,21.945583,120.802167,0.06,28.29,-2.88,80.96,11.39,2.06,B2Q810
畜試東區分所,24.669039,121.832561,-0.26,27.86,7.72,90.25,5.45,2.93,B2U990
蓮華池,23.918333,120.885278,-0.96,24.06,5.81,88.75,16.64,0.52,E2H360
林試畢祿溪站,24.226944,121.308522,-0.29,15.61,11.74,89.93,8.02,7.86,E2HA20
四湖植物園,23.676986,120.163433,0.14,28.54,9.29,94.39,11.27,5.19,E2K600
林試六龜中心,22.991703,120.645722,-0.82,26.4,10.35,87.21,18.64,15.59,E2P980
林試太麻里2,22.598,120.99775,-0.36,28.29,2.86,79.43,0.48,-1.82,E2S960
林試太麻里1,22.598922,120.980044,-0.28,27.96,4.73,81.43,10.46,7.8,E2S980
農試所(霧峰),24.031261,120.688133,0.76,28.54,-0.93,81.41,8.36,-2.54,G2F820
農試嘉義分所,23.485028,120.473806,-0.1,27.76,1.83,81.64,17.39,8.4,G2L020
農試溪口農場,23.58565,120.408111,0.85,28.51,0.06,81.11,7.95,3.56,G2M350
農試鳳山分所,22.646611,120.356083,-0.11,28.72,1.93,79.68,12.89,-0.17,G2P820
苗栗農改場,24.495722,120.829111,0.2,27.81,-0.81,77.79,2.64,-6.27,K2E360
苗改生物防治研究中心,24.422861,120.871833,-0.19,26.1,0.42,81.93,5.41,-4.01,K2E710
種苗改良場,24.225972,120.800917,0.47,25.98,5.48,87.25,7.59,-6.89,K2F750
臺大和社,23.590856,120.888864,1.0,23.85,2.31,88.96,8.5,-0.84,U2HA30
臺大內茅埔,23.689722,120.851117,0.25,25.01,0.93,86.07,9.12,-0.68,U2HA40
臺大竹山,23.756972,120.681556,0.05,27.47,0.35,81.43,12.02,-0.75,U2HA50
