站名,緯度,經度,平均溫距平,本年度平均溫,平均溼度距平,本年度日均相對溼度,本年度日均降水量,日均降水量距平,站號
淡水,25.164889,121.448906,0.71,29.69,-6.17,69.33,10.23,5.26,466900
鞍部,25.182586,121.529731,-0.54,22.86,1.79,88.44,16.12,4.69,466910
臺北,25.037658,121.514853,-0.0,30.02,-2.52,68.67,3.79,-4.9,466920
竹子湖,25.162078,121.544547,-0.13,24.88,-1.72,81.56,13.17,2.63,466930
基隆,25.133314,121.740475,0.07,29.54,-1.85,71.11,3.68,-1.8,466940
花蓮,23.975128,121.613275,-0.67,28.11,2.14,79.44,4.57,-2.35,466990
新屋,25.006725,121.047492,-0.42,29.01,-1.55,76.78,23.01,22.13,467050
宜蘭,24.763975,121.756528,-0.48,28.57,3.23,80.33,2.95,-3.39,467080
金門,24.407306,118.289281,1.86,30.29,-9.9,75.44,5.85,3.49,467110
田中,23.873803,120.581286,-2.25,27.98,7.7,83.33,61.22,60.4,467270
澎湖,23.565503,119.563094,0.08,29.02,2.85,86.11,7.72,3.05,467350
臺南,22.99328,120.20492,-0.84,28.84,4.92,80.44,22.17,12.37,467410
永康,23.038386,120.2367,-0.7,28.63,8.47,81.67,27.56,17.76,467420
嘉義,23.495925,120.432906,-1.31,27.88,8.64,84.56,36.11,24.27,467480
臺中,24.145736,120.684075,-0.74,28.28,5.95,80.44,43.17,33.61,467490
阿里山,23.508208,120.813242,-1.01,13.99,5.85,95.56,47.61,28.42,467530
大武,22.35572,120.90374,-1.06,27.9,4.48,80.89,65.61,52.55,467540
玉山,23.48718,120.95943,-1.51,6.68,-2.19,73.78,23.79,10.18,467550
新竹,24.827853,121.014219,-0.28,29.23,0.77,74.33,26.7,22.96,467571
恆春,22.003897,120.746339,-0.45,28.53,3.37,83.33,40.8,26.22,467590
成功,23.097486,121.373428,-0.79,27.56,2.15,82.11,25.62,17.21,467610
日月潭,23.881325,120.90805,-0.49,22.51,6.9,91.33,44.22,30.41,467650
臺東,22.752211,121.154586,-1.11,28.2,4.25,80.0,28.45,20.81,467660
馬祖,26.169467,119.923158,0.01,27.41,7.92,92.78,15.77,13.05,467990
山佳,24.974944,121.402008,0.9,30.26,-2.46,72.22,5.06,-3.82,C0A520
坪林,24.938183,121.70975,0.85,27.28,-2.82,85.11,3.61,-7.69,C0A530
泰平,24.971197,121.823711,0.08,25.49,0.83,91.78,5.83,-4.7,C0A550
桶後,24.848222,121.597992,0.3,26.13,-5.77,82.44,2.61,-9.35,C0A570
石碇,24.993969,121.662917,0.22,27.1,-8.28,78.78,3.22,-5.04,C0A640
大坪,25.165914,121.632969,0.03,26.72,-2.5,81.56,3.33,-4.21,C0A860
五指山,25.132153,121.608692,1.01,25.43,-2.82,87.44,5.44,-2.95,C0A870
雙溪,25.036003,121.864242,0.9,29.06,-0.36,82.67,7.0,-0.3,C0A890
三和,25.233153,121.595236,-0.04,27.64,-2.62,83.0,6.89,-1.77,C0A931
金山,25.223628,121.643967,0.17,28.97,-7.16,71.44,4.06,-1.86,C0A940
鼻頭角,25.129036,121.923372,0.47,28.82,-0.45,84.22,7.67,3.89,C0A950
三貂角,25.007606,122.002058,0.36,28.43,2.58,85.0,7.89,4.71,C0A970
社子,25.109508,121.469681,0.69,30.78,-3.82,69.56,7.33,1.15,C0A980
天母,25.117494,121.537169,-0.01,29.71,-5.3,66.33,7.33,-0.95,C0A9C0
內湖,25.079422,121.57545,0.56,30.67,-1.88,69.44,5.22,-4.55,C0A9F0
大屯山,25.175675,121.522408,0.93,23.01,2.26,96.67,10.25,3.2,C0AC40
三峽,24.939025,121.369728,1.3,30.79,-2.87,72.67,5.67,-1.76,C0AC60
信義,25.037822,121.564597,0.18,30.09,-2.89,69.89,3.5,-4.54,C0AC70
文山,25.00235,121.575728,-0.28,28.87,-7.51,72.11,2.89,-4.73,C0AC80
新莊,25.051478,121.446756,-0.22,30.33,-4.04,64.22,5.28,-0.92,C0ACA0
八里,25.150211,121.403947,1.13,31.03,2.06,73.89,8.89,5.79,C0AD10
蘆洲,25.086594,121.472331,-0.14,30.67,1.45,70.56,5.78,0.17,C0AD30
土城,24.973208,121.445169,-0.34,28.83,-1.98,74.78,4.0,-3.67,C0AD40
鶯歌,24.951533,121.346294,0.61,30.14,-3.02,73.67,6.89,-1.74,C0AD50
汐止,25.066881,121.658778,0.06,29.62,-8.52,68.78,3.33,-5.98,C0AH00
永和,25.01125,121.508111,0.58,30.5,0.74,70.33,3.11,-6.97,C0AH10
五分山,25.07125,121.780794,1.04,24.77,-2.7,90.44,4.5,-5.59,C0AH30
平等,25.129142,121.577086,-0.59,26.64,-3.69,75.56,9.83,-1.5,C0AH40
林口,25.072181,121.38084,0.81,29.13,-2.1,77.33,8.72,0.43,C0AH50
松山,25.04871,121.55042,-0.17,29.98,6.03,70.56,3.78,-6.65,C0AH70
深坑,25.002703,121.628328,0.72,28.79,-4.84,77.22,2.78,-7.6,C0AH80
福山植物園,24.760717,121.58135,-0.43,23.52,1.84,92.44,3.67,-9.32,C0AH90
五股,25.07445,121.42728,1.15,29.67,-1.67,75.33,6.17,-3.92,C0AI00
屈尺,24.92184,121.54475,1.5,29.86,-4.28,77.78,2.67,-12.62,C0AI10
白沙灣,25.283128,121.519058,-0.06,28.77,4.32,79.0,8.33,5.77,C0AI20
三重,25.057328,121.500629,0.3,30.96,-5.59,70.78,4.17,-2.65,C0AI30
石牌,25.115597,121.513139,-0.21,30.72,3.02,69.11,6.56,-1.76,C0AI40
七堵,25.094819,121.71713,0.89,30.0,-4.57,74.56,3.17,-6.59,C0B010
基隆嶼,25.19141,121.78391,-0.46,28.08,3.77,92.0,3.56,-0.54,C0B020
復興,24.820208,121.352281,0.36,25.88,-4.58,78.56,6.67,-2.9,C0C460
桃園,24.992425,121.323172,0.05,29.93,-1.14,66.22,7.61,1.68,C0C480
八德,24.928708,121.283289,-0.16,28.94,-4.57,69.0,10.33,3.93,C0C490
觀音,25.027072,121.153317,-0.23,28.53,0.26,76.22,14.78,13.37,C0C590
蘆竹,25.084275,121.265767,0.55,29.99,-4.65,71.0,13.06,10.74,C0C620
大溪,24.882853,121.265547,-0.01,27.84,-0.2,73.44,9.33,3.28,C0C630
平鎮,24.897503,121.214636,0.17,28.14,-0.16,74.89,9.56,4.23,C0C650
楊梅,24.912375,121.143047,-0.54,28.44,1.04,72.44,17.33,11.85,C0C660
龍潭,24.870056,121.221389,-0.32,27.69,-0.31,74.0,13.72,2.53,C0C670
龜山,25.02846,121.38656,0.0,28.17,-13.16,61.11,6.89,-3.5,C0C680
中壢,24.977661,121.256375,-0.33,29.07,-0.49,68.11,9.61,1.54,C0C700
大溪永福,24.892936,121.324975,0.42,28.37,-3.74,76.44,7.89,-2.91,C0C710
梅花,24.678347,121.208558,-0.46,24.7,2.68,88.11,12.56,-1.48,C0D360
峨眉,24.6905,121.017189,-0.77,27.29,6.42,89.78,23.61,18.23,C0D430
打鐵坑,24.849664,121.150789,-0.43,26.46,-3.55,79.33,16.94,11.46,C0D480
橫山,24.71116,121.11693,-0.4,26.54,4.81,88.33,13.72,6.18,C0D540
雪霸,24.526972,121.11605,-0.84,17.84,6.73,88.89,5.67,-1.4,C0D550
竹東,24.767147,121.057881,0.61,28.87,3.11,74.44,22.28,18.92,C0D560
寶山,24.735006,121.025192,-0.36,26.94,4.29,86.11,22.28,18.38,C0D580
新豐,24.87068,120.97721,-0.28,27.97,3.16,81.67,31.44,30.4,C0D590
湖口,24.904794,121.043628,-0.42,28.83,-1.83,72.89,22.28,21.1,C0D650
新竹市東區,24.798681,120.986942,-0.63,28.48,2.53,74.67,26.94,23.4,C0D660
竹南,24.708978,120.888897,-0.3,28.81,8.41,82.11,36.22,32.59,C0E420
南庄,24.601775,121.000214,-0.5,26.26,6.02,86.89,27.17,16.98,C0E430
明德,24.583486,120.885411,-0.13,28.62,3.69,80.11,29.94,26.54,C0E550
通霄,24.471892,120.704622,-0.73,28.2,4.69,84.11,43.44,40.92,C0E590
馬都安,24.451272,120.930192,-0.25,23.53,1.98,87.78,22.44,10.87,C0E610
頭份,24.688247,120.912206,-0.81,28.98,8.32,77.22,34.17,31.88,C0E730
造橋,24.637056,120.864778,-0.93,28.48,4.72,81.89,32.06,29.97,C0E740
苗栗,24.564569,120.824575,-1.2,28.58,3.44,73.67,32.0,29.15,C0E750
銅鑼,24.489681,120.790853,-0.69,27.99,1.83,79.22,28.28,24.07,C0E780
西湖,24.562947,120.7485,-0.56,27.96,3.16,86.33,45.5,43.76,C0E810
獅潭,24.539133,120.920042,-0.96,26.91,2.49,84.5,30.75,26.49,C0E820
苑裡,24.439714,120.653053,-0.91,28.57,3.62,79.56,46.94,43.67,C0E830
大河,24.618069,120.948578,-2.33,26.12,-2.7,73.67,28.72,23.01,C0E850
高鐵苗栗,24.60725,120.826094,-1.34,28.49,17.83,85.56,36.72,34.74,C0E870
石岡,24.276061,120.777644,0.13,27.26,1.76,82.67,37.0,25.2,C0F0B0
中坑,24.248517,120.903319,-0.07,22.34,-0.33,91.33,37.22,16.44,C0F0C0
審馬陣,24.381675,121.4203,1.16,12.16,-13.27,74.33,8.22,2.89,C0F0D0
東勢,24.246428,120.833047,0.66,27.6,-0.51,78.56,25.5,15.13,C0F850
大坑,24.173142,120.722289,0.29,29.11,6.07,79.78,38.83,31.83,C0F970
神岡,24.272481,120.658314,-0.84,27.44,1.56,81.67,40.0,35.31,C0F9I0
大安,24.345061,120.588025,-1.09,28.19,4.26,83.11,36.0,32.85,C0F9K0
后里,24.310436,120.729725,-0.24,28.19,3.65,81.78,37.67,32.72,C0F9L0
豐原,24.254322,120.720692,1.29,29.67,2.1,77.33,42.67,36.72,C0F9M0
大里,24.092464,120.701378,0.28,29.89,6.87,79.11,40.61,34.25,C0F9N0
潭子,24.213106,120.703933,-0.91,28.42,6.59,80.44,35.0,29.43,C0F9O0
清水,24.312297,120.562242,-1.11,28.6,3.62,81.89,33.0,29.79,C0F9P0
外埔,24.347817,120.705686,-0.88,27.83,3.45,82.67,29.83,25.98,C0F9Q0
龍井,24.184536,120.528972,-0.9,28.69,-1.2,80.56,42.33,38.8,C0F9R0
烏日,24.107058,120.624103,-0.87,28.47,3.99,78.11,41.5,36.1,C0F9S0
西屯,24.179494,120.641275,-0.98,28.38,4.35,78.11,41.0,35.61,C0F9T0
南屯,24.137006,120.637969,-1.14,28.52,4.97,78.44,38.94,32.97,C0F9U0
新社,24.200172,120.815806,-0.2,25.72,6.22,91.22,40.89,29.76,C0F9V0
大雅(中科園區),24.21528,120.62445,-0.58,27.46,4.85,83.56,35.61,29.47,C0F9X0
桃山,24.432739,121.303808,0.3,10.93,-7.06,78.44,9.0,-0.69,C0F9Y0
雪山東峰,24.388792,121.268675,0.57,12.0,-8.53,75.0,13.22,3.1,C0F9Z0
芬園,24.015678,120.6213,-1.51,26.77,10.35,92.0,51.44,43.52,C0G620
員林,23.946503,120.585597,-3.26,26.1,1.95,80.67,43.33,35.43,C0G650
溪湖,23.94835,120.479122,-0.28,28.74,0.89,83.33,65.44,58.41,C0G660
溪州,23.851589,120.499093,-0.29,28.02,-0.84,80.44,62.0,50.08,C0G720
二林,23.903325,120.376081,-0.41,28.11,2.98,90.0,44.83,35.31,C0G730
大城,23.852487,120.320935,-0.54,27.89,4.11,86.33,9.56,-1.48,C0G740
福興,24.041289,120.437669,-1.1,28.91,-0.5,80.89,60.33,53.86,C0G770
秀水,24.03405,120.503869,-0.6,29.01,4.18,83.78,57.33,51.28,C0G780
埔鹽,24.000394,120.431683,-0.35,28.84,-0.93,81.44,60.44,53.91,C0G800
埔心,23.947633,120.525456,0.28,29.91,5.73,81.89,55.33,48.34,C0G810
田尾,23.901669,120.509389,-0.53,28.64,5.62,88.22,60.44,52.7,C0G820
埤頭,23.866003,120.452806,-0.93,28.41,6.31,91.89,50.61,43.82,C0G830
社頭,23.897647,120.5862,-0.72,29.04,12.38,84.33,60.72,51.92,C0G860
二水,23.810742,120.6173,0.12,28.99,4.06,83.22,67.89,58.09,C0G880
伸港,24.148933,120.484403,-1.01,28.52,3.24,82.83,31.83,27.88,C0G890
線西,24.143358,120.443536,-1.82,28.53,5.0,83.0,34.33,30.92,C0G900
花壇,24.032076,120.549461,-4.16,26.1,19.45,90.0,43.72,42.54,C0G910
埔里,23.972169,120.952425,0.2,26.02,-0.84,84.56,22.67,13.59,C0H890
草屯,23.973672,120.68085,-0.75,27.9,3.84,80.33,29.61,19.98,C0H960
昆陽,24.121322,121.273642,-0.03,11.74,-6.76,82.44,16.0,7.39,C0H990
神木村,23.532742,120.843667,-0.49,19.14,0.03,92.56,36.61,20.37,C0H9A0
合歡山,24.143442,121.272547,0.08,10.48,7.88,89.0,24.61,15.84,C0H9C0
廬山,24.033311,121.181808,-0.29,20.06,-4.49,82.0,19.39,9.16,C0I010
信義,23.689694,120.851036,-0.25,24.56,-0.66,87.67,25.78,16.63,C0I080
竹山,23.761225,120.688156,-0.88,26.82,1.67,85.67,62.5,45.74,C0I110
水里,23.812553,120.849792,-0.15,26.41,-1.65,80.44,48.83,39.62,C0I360
魚池,23.895703,120.94135,0.16,24.54,-3.0,84.11,37.39,26.88,C0I370
集集,23.828206,120.801467,-0.42,26.64,-1.2,83.0,57.39,40.42,C0I380
仁愛,24.022122,121.132206,-0.01,21.51,-2.47,84.89,22.5,13.76,C0I390
名間,23.837053,120.701447,-0.95,26.53,6.25,86.0,47.56,36.13,C0I410
國姓,24.037803,120.855072,-0.01,26.42,-0.96,85.33,32.33,20.05,C0I420
南投,23.911469,120.687331,-0.6,27.94,8.43,85.44,43.39,29.43,C0I460
梅峰,24.085272,121.173572,0.57,16.6,-6.24,84.67,21.61,6.91,C0I480
萬大林道,23.928228,121.091411,0.12,19.46,-7.14,84.22,21.78,10.54,C0I490
小奇萊,24.131764,121.295717,1.19,11.68,-8.88,84.0,21.39,7.33,C0I530
崙背,23.75555,120.318925,-0.51,27.82,0.03,84.56,29.56,19.09,C0K250
四湖,23.630414,120.227125,-0.46,28.39,0.75,85.33,22.0,16.55,C0K280
宜梧,23.536281,120.169329,-0.69,28.4,1.85,84.33,31.06,24.64,C0K291
虎尾,23.719183,120.442036,-1.06,28.22,8.09,87.56,51.39,42.54,C0K330
土庫,23.679029,120.395574,-0.51,28.02,0.84,81.67,30.83,20.85,C0K390
斗六,23.720583,120.541127,-0.62,27.78,0.65,81.44,53.11,41.39,C0K400
北港,23.573957,120.292802,-0.36,28.16,-0.24,82.44,26.56,18.85,C0K410
西螺,23.800407,120.467394,-0.3,28.26,-0.34,82.11,64.61,53.97,C0K420
褒忠,23.690938,120.303634,-0.29,28.08,3.39,85.78,24.11,15.33,C0K430
二崙,23.772797,120.408944,-0.73,27.88,2.42,84.12,40.44,29.59,C0K440
大埤,23.646074,120.431537,-0.42,28.11,0.93,81.33,33.61,22.31,C0K450
斗南,23.678734,120.478359,-0.57,27.96,5.39,82.89,40.06,30.0,C0K460
林內,23.748675,120.609642,-0.77,26.98,3.19,85.22,59.94,45.99,C0K470
莿桐,23.761192,120.502372,-0.57,27.81,3.5,82.44,64.5,50.45,C0K480
元長,23.64981,120.315024,-0.32,28.33,3.3,83.33,25.78,15.28,C0K500
水林,23.572924,120.24597,-0.17,28.52,4.21,84.67,30.22,20.59,C0K510
臺西,23.701547,120.197559,-0.35,28.1,2.97,85.78,20.06,10.06,C0K530
蔦松,23.514319,120.229736,-0.3,28.32,1.98,85.0,23.92,13.33,C0K550
棋山,23.68645,120.603417,-0.59,27.23,7.47,88.67,57.39,41.24,C0K560
高鐵雲林,23.737456,120.417944,-1.05,27.67,1.42,85.67,41.89,28.33,C0K580
東後寮,23.369908,120.248065,-0.33,27.82,3.32,88.33,35.06,22.36,C0M520
奮起湖,23.493903,120.699253,-0.61,19.72,3.76,96.89,66.94,48.37,C0M530
中埔,23.42538,120.5229,-0.9,27.1,2.38,80.22,44.11,27.53,C0M640
朴子,23.43463,120.23902,-1.03,27.4,4.84,87.78,33.61,21.84,C0M650
溪口,23.604131,120.403569,-0.44,27.92,0.09,82.44,30.61,19.86,C0M660
大林,23.600616,120.45841,-0.64,28.0,5.34,84.0,43.17,30.7,C0M670
太保,23.455062,120.331455,-0.77,27.88,0.55,83.0,41.5,27.7,C0M680
水上,23.419734,120.388909,-0.66,27.62,3.34,85.0,37.5,21.77,C0M690
竹崎,23.526178,120.555508,-0.97,26.5,5.26,87.44,55.67,38.84,C0M700
東石,23.458927,120.15385,-0.4,28.39,-0.61,83.0,27.28,15.5,C0M710
番路,23.464657,120.554156,-0.79,26.54,5.35,83.67,52.61,35.7,C0M720
嘉義市東區,23.457673,120.460531,-0.79,27.68,6.06,85.89,38.0,21.64,C0M730
六腳,23.492871,120.290625,-0.64,27.9,3.4,84.56,35.5,23.88,C0M740
布袋,23.380878,120.167789,-0.19,28.54,-0.54,82.44,23.39,11.46,C0M750
民雄,23.551754,120.428457,-0.99,27.83,4.29,84.56,34.0,21.46,C0M760
嘉義梅山,23.585398,120.555587,-0.82,27.1,6.56,86.0,66.78,50.0,C0M770
鹿草,23.41134,120.30835,-0.48,28.13,6.09,86.78,11.43,-4.88,C0M780
新港,23.553269,120.345728,-0.82,27.86,2.38,82.56,32.72,22.57,C0M790
茶山,23.299075,120.664767,-0.45,24.5,1.22,90.11,58.78,40.91,C0M800
里佳,23.389125,120.716647,-0.08,20.22,0.19,90.44,51.33,32.37,C0M810
達邦,23.453994,120.749517,-0.14,21.87,3.1,90.44,45.5,32.05,C0M820
表湖,23.24186,120.64166,-1.07,22.76,1.04,91.22,61.44,38.72,C0M850
新美,23.338017,120.683169,-1.23,24.01,10.83,92.56,61.0,54.14,C0M860
北寮,23.079561,120.495008,-0.86,26.74,9.27,93.44,40.72,20.84,C0O830
王爺宮,23.222064,120.40085,1.29,29.0,-3.56,82.25,33.39,16.59,C0O840
大內,23.11885,120.36083,0.13,28.99,4.0,87.44,27.67,13.29,C0O860
善化,23.112883,120.297219,-0.38,28.51,10.0,93.78,29.0,18.96,C0O900
崎頂,22.959547,120.369317,0.94,28.52,0.38,86.33,21.67,3.77,C0O960
虎頭埤,23.021375,120.347878,-0.97,27.18,-0.61,85.22,27.17,9.93,C0O970
新市,23.061614,120.298197,0.04,28.77,0.01,84.44,26.22,10.08,C0O980
媽廟,22.99175,120.293525,-0.32,28.42,3.64,87.22,20.78,4.38,C0O990
尾寮山,22.833111,120.683889,0.0,22.3,1.88,95.0,63.5,39.37,C0R100
阿禮,22.742908,120.743678,-0.67,21.93,-4.73,84.56,65.0,45.53,C0R130
瑪家,22.682903,120.686639,-1.01,23.19,9.03,97.33,68.94,37.37,C0R140
三地門,22.709889,120.639944,-0.65,27.79,0.82,81.67,46.22,27.08,C0R150
鹽埔,22.739558,120.530778,-0.24,28.06,1.47,89.11,36.72,12.68,C0R160
赤山,22.592333,120.614306,-0.63,27.87,8.43,93.22,39.94,12.26,C0R190
潮州,22.534361,120.54,-0.47,28.43,2.47,82.89,31.61,17.25,C0R220
來義,22.527306,120.625111,-1.44,26.51,11.16,95.22,46.44,17.7,C0R240
春日,22.370361,120.628306,-1.77,26.47,5.07,88.67,23.33,-0.35,C0R260
琉球嶼,22.332244,120.362236,0.54,29.19,-3.05,83.33,16.83,8.42,C0R270
車城,22.0744,120.716247,-1.71,27.86,3.02,86.11,28.89,22.21,C0R320
牡丹,22.130036,120.792639,-1.51,25.9,5.18,92.0,51.06,47.69,C0R341
貓鼻頭,21.921774,120.7358,-0.43,28.18,3.0,86.0,35.11,23.92,C0R350
大漢山,22.405264,120.753181,-0.85,17.5,2.74,99.56,110.33,106.42,C0R440
高樹,22.826389,120.600806,-0.99,27.59,1.17,80.78,40.17,16.77,C0R470
長治,22.693128,120.542622,0.07,28.73,1.3,84.0,40.33,16.01,C0R480
九如,22.7405,120.490503,-0.26,28.49,0.81,84.11,34.69,11.17,C0R490
崁頂,22.514781,120.506914,-0.56,28.49,2.18,85.44,3.6,-17.34,C0R520
佳冬,22.419456,120.552375,-0.44,28.62,0.14,81.56,17.44,-0.82,C0R540
新埤,22.467947,120.582894,-0.51,28.13,-3.45,81.11,26.22,5.87,C0R550
新園,22.5434,120.461558,0.39,29.38,-2.88,79.22,32.61,10.03,C0R560
麟洛,22.65078,120.52719,0.36,29.24,3.2,85.89,42.06,16.98,C0R570
南州,22.48591,120.50274,-0.28,28.47,7.62,86.78,19.61,0.1,C0R580
里港,22.77919,120.49459,-0.52,27.93,3.0,87.22,32.11,10.64,C0R590
舊泰武,22.588194,120.664944,-0.84,23.63,3.62,90.33,60.67,24.84,C0R600
墾雷,21.900836,120.855269,-0.98,27.76,9.8,94.89,44.28,30.26,C0R620
東港,22.46247,120.44074,-0.19,28.79,-2.58,83.33,17.61,6.08,C0R640
竹田,22.58486,120.54344,-0.18,28.5,-1.5,85.0,32.67,4.19,C0R650
枋寮,22.367722,120.590647,-0.39,28.77,4.39,84.67,16.06,10.46,C0R660
楓港,22.190131,120.692156,-1.44,28.1,-1.77,78.78,25.33,18.61,C0R670
佳樂水,21.993578,120.861633,-1.52,28.17,6.42,87.33,45.83,44.15,C0R680
墾丁,21.966756,120.810269,-1.34,26.26,5.32,93.78,46.83,42.38,C0R690
枋山,22.246844,120.661086,0.84,29.78,-1.6,80.22,0.12,-7.06,C0R700
龍磐,21.931672,120.838942,-2.17,27.14,8.23,91.78,39.78,38.1,C0R710
旭海,22.205403,120.887614,-2.64,25.9,10.15,89.33,80.67,80.26,C0R720
大坪頂,22.024633,120.69355,-1.94,26.79,8.49,93.22,33.67,30.53,C0R730
四林格山,22.076989,120.802439,-1.33,23.78,0.57,98.11,49.17,43.12,C0R750
南仁湖,22.084681,120.863353,-1.88,25.18,10.74,98.56,65.39,62.3,C0R760
保力,22.071122,120.764111,-0.78,27.1,3.01,90.56,43.0,33.64,C0R770
滿州,22.024403,120.839892,-1.59,27.38,4.75,87.11,48.61,46.57,C0R780
九棚,22.14195,120.889281,-2.87,26.59,11.27,88.0,76.67,73.89,C0R790
丹路,22.204481,120.750989,-1.38,27.03,0.8,84.89,53.39,48.03,C0R800
內獅,22.305064,120.642986,-1.0,28.26,4.51,83.78,20.61,15.2,C0R810
白鷺,22.454275,120.666219,-0.97,24.19,0.74,90.56,44.44,39.85,C0R820
高士,22.121825,120.836781,-2.39,24.42,8.77,95.22,78.89,73.16,C0R830
牡丹池山,22.168389,120.841225,-1.91,23.83,9.15,98.33,80.78,78.73,C0R840
下馬,23.150427,121.070312,-1.23,23.67,2.74,80.56,21.11,18.61,C0S660
太麻里,22.60902,120.98533,-0.23,25.3,7.88,84.11,35.83,29.1,C0S690
知本,22.684866,121.005642,-0.65,25.12,7.95,87.22,35.33,24.92,C0S700
鹿野,22.917711,121.122994,-0.35,25.74,4.51,84.78,25.61,18.24,C0S710
綠島,22.6672,121.47533,-0.39,27.64,0.68,85.22,41.33,34.63,C0S730
池上,23.119628,121.209469,-1.19,26.18,6.29,84.22,22.28,13.91,C0S740
向陽,23.248397,120.986133,-1.08,14.88,12.69,91.78,28.67,14.48,C0S750
大溪山,22.478475,120.943325,-0.76,25.18,10.72,84.44,52.06,40.35,C0S770
金崙,22.538122,120.966875,-1.1,26.89,8.61,83.11,43.0,36.23,C0S790
東河,22.972672,121.303986,-1.65,27.52,3.44,85.44,31.22,25.2,C0S810
長濱,23.286817,121.411975,-0.81,27.07,1.09,81.22,17.28,11.97,C0S830
南田,22.279725,120.889208,-1.18,27.46,5.33,84.56,84.33,72.39,C0S840
關山,23.0395,121.175017,-1.23,26.58,8.83,87.33,21.78,12.76,C0S890
蘭嶼高中,22.04909,121.51214,-1.11,28.52,6.43,86.89,24.61,18.04,C0S900
蘭嶼燈塔,22.081197,121.503117,-0.85,26.98,6.57,91.89,22.44,16.08,C0S910
金峰嘉蘭,22.594789,120.960825,-3.24,26.36,8.28,77.78,41.44,38.26,C0S920
延平,22.902581,121.084058,-1.95,26.28,7.1,82.67,27.06,24.51,C0S930
石寧山,23.223772,121.406639,-1.18,27.79,4.01,84.11,17.33,16.79,C0S940
七塊厝,22.954453,121.229922,-1.42,25.63,-3.23,80.22,32.5,25.43,C0S950
香蘭,22.587569,120.993375,-1.77,28.08,3.04,75.22,38.44,38.44,C0S960
加津林,22.416211,120.926942,-1.96,27.83,12.54,81.89,50.22,43.88,C0S970
勝林山,22.430439,120.8938,-3.4,21.54,17.16,96.11,59.61,53.5,C0S980
山豬窟,22.318619,120.857372,-2.59,24.73,12.66,89.56,92.33,81.33,C0S990
歷坵,22.520969,120.89185,-2.67,24.7,14.21,88.11,57.44,52.47,C0SA00
檳榔四格山,22.810031,121.109308,-1.42,25.62,4.41,85.89,27.33,24.65,C0SA10
金崙山,22.567419,120.959667,-2.87,22.78,13.12,86.67,44.56,40.67,C0SA20
都歷,23.020333,121.323642,-0.86,27.87,-1.67,76.33,28.89,26.57,C0SA30
瑞和,22.974361,121.156697,-2.25,26.42,5.62,83.22,24.5,22.2,C0SA40
知本（水試所）,22.702394,121.082761,-2.11,27.7,7.54,84.44,31.33,31.33,C0SA60
土坂,22.453108,120.887572,-2.75,26.71,19.37,86.78,67.89,67.89,C0SA80
達仁林場,22.264347,120.823972,-2.35,24.23,14.71,94.89,98.67,97.21,C0SA90
大禹嶺,24.186117,121.316086,-1.27,12.77,3.69,87.44,12.22,5.15,C0T790
天祥,24.179597,121.495639,-0.04,24.84,1.7,81.33,5.11,-4.1,C0T820
鯉魚潭,23.935639,121.508944,-1.25,25.73,3.37,88.56,6.39,-0.62,C0T870
西林,23.8119,121.441458,-1.01,26.9,8.18,82.89,7.72,2.33,C0T900
光復,23.660694,121.424964,-1.03,26.97,1.27,84.0,7.33,0.51,C0T960
月眉山,23.809928,121.539828,-0.27,25.13,-0.66,88.0,6.61,0.69,C0T9A0
水源,23.991861,121.537169,-0.15,24.9,-2.01,84.56,7.11,-1.08,C0T9B0
和中,24.26676,121.74103,-1.63,26.84,-4.27,84.0,3.78,-2.29,C0T9D0
大坑,23.880628,121.581981,-0.87,25.3,4.23,87.78,6.33,3.11,C0T9E0
水璉,23.797131,121.542514,-1.23,26.43,5.03,86.56,6.89,2.32,C0T9F0
鳳林山,23.735269,121.420131,-1.64,24.6,-0.31,88.67,8.83,2.53,C0T9G0
加路蘭山,23.682947,121.5274,-0.35,24.76,-2.24,82.78,7.39,3.77,C0T9H0
豐濱,23.583897,121.514806,-0.35,26.82,1.07,83.78,8.72,4.16,C0T9I0
靜浦,23.455167,121.495028,-0.56,27.29,2.85,86.44,14.94,9.86,C0T9M0
富里,23.171639,121.249378,-2.05,26.16,-0.14,79.11,18.67,14.21,C0T9N0
雙連埤,24.753033,121.641303,-1.3,23.91,-0.78,91.22,4.11,-2.69,C0U520
礁溪,24.817539,121.765608,0.12,28.78,-4.38,78.56,3.22,-4.3,C0U600
玉蘭,24.675286,121.587061,-0.39,26.02,-0.02,79.22,2.39,-5.69,C0U650
太平山,24.505486,121.525656,-0.03,17.93,-6.58,86.0,3.11,-11.02,C0U710
南山,24.43742,121.38167,-0.7,22.32,-1.54,79.89,4.17,0.86,C0U720
龜山島,24.841667,121.953133,-0.81,25.48,-1.31,88.78,2.0,1.01,C0U750
東澳,24.52196,121.83318,-0.35,28.52,-5.65,79.44,4.33,-0.9,C0U760
南澳,24.44935,121.81022,-0.96,27.8,-0.52,84.33,3.67,1.2,C0U770
五結,24.68637,121.79794,-1.04,28.51,0.18,78.0,2.61,-0.55,C0U780
頭城,24.85323,121.8308,0.2,29.18,-4.06,83.0,3.33,-1.83,C0U860
大礁溪,24.791042,121.675047,-0.73,25.26,6.68,88.89,3.28,-7.1,C0U870
三星,24.66812,121.65302,-0.61,27.67,-6.48,77.33,2.06,-1.14,C0U890
內城,24.71813,121.68766,-0.01,28.32,-1.2,79.89,2.28,-0.8,C0U900
冬山,24.63373,121.7937,-0.2,28.81,-0.56,73.78,2.83,0.74,C0U910
羅東,24.68184,121.74934,-0.23,28.68,2.9,78.78,2.61,0.6,C0U940
鶯子嶺,24.89754,121.79244,-0.9,21.64,-0.06,91.67,9.33,-5.76,C0U950
翠峰湖,24.510856,121.608044,-0.03,17.62,-1.87,89.22,3.67,-6.26,C0U960
大福,24.80064,121.81389,-0.4,28.36,1.94,80.67,2.5,-1.77,C0U970
坪林石牌,24.86478,121.77396,-0.64,24.14,4.11,95.44,5.67,-8.76,C0U980
員山,24.74435,121.72247,-0.44,28.36,2.94,81.33,3.39,0.04,C0U990
土場,24.576533,121.495333,-0.35,26.29,-7.81,80.22,2.67,-3.12,C0UA00
鴛鴦湖,24.590269,121.412228,-0.13,18.67,2.67,92.67,5.06,-11.63,C0UA10
白嶺,24.527819,121.519031,-0.72,20.57,-0.98,89.78,3.33,-1.17,C0UA30
西德山,24.560647,121.752608,0.32,22.74,-7.76,82.33,2.56,-5.84,C0UA40
西帽山,24.555361,121.802628,-0.53,23.73,-7.06,81.67,4.17,-2.98,C0UA50
樟樹山,24.41393,121.78325,-0.53,25.17,0.56,82.56,3.67,0.3,C0UA60
桃源谷,24.962606,121.888875,-0.9,24.54,3.12,95.67,5.94,-1.92,C0UA70
復興,23.222403,120.806089,-0.54,23.68,4.78,87.11,40.0,28.98,C0V210
溪埔,22.738578,120.446797,-0.8,27.64,10.01,91.33,41.39,20.45,C0V350
內門,22.975481,120.466769,0.01,27.6,4.9,92.11,35.33,14.22,C0V360
古亭坑,22.893178,120.401947,-0.83,27.18,1.88,88.89,25.22,10.95,C0V370
阿公店,22.804194,120.355528,-0.71,27.74,4.89,87.56,22.83,4.81,C0V400
鳳山,22.646653,120.356122,-1.1,27.99,8.6,89.22,38.94,20.52,C0V440
鳳森,22.545064,120.392592,-0.61,28.0,0.36,85.0,35.61,18.63,C0V450
新興,22.627422,120.298803,-0.45,29.18,-1.57,78.78,40.0,30.05,C0V490
阿蓮,22.883208,120.327508,-0.43,28.58,0.75,84.67,3.5,-16.14,C0V530
梓官,22.760558,120.267211,-0.63,28.72,3.5,82.11,26.67,13.13,C0V610
永安,22.82315,120.236856,-0.55,28.6,-1.97,82.22,22.0,6.95,C0V620
茄萣,22.906642,120.182608,-0.21,29.14,4.78,83.0,20.22,6.98,C0V630
湖內,22.887139,120.2445,-0.92,28.21,-0.96,82.67,22.72,8.02,C0V640
彌陀,22.783806,120.246361,-0.36,28.72,-2.61,82.22,22.17,8.46,C0V650
岡山,22.797078,120.294958,-0.17,29.33,2.11,82.11,27.22,9.77,C0V660
仁武,22.701083,120.347722,-0.03,29.34,4.13,81.78,23.56,6.25,C0V680
鼓山,22.623325,120.275575,-0.62,28.89,2.69,81.78,31.0,18.9,C0V690
三民,22.645017,120.311233,-0.59,29.2,4.72,78.56,38.56,23.53,C0V700
苓雅,22.622742,120.330669,0.04,29.52,6.59,82.67,39.83,24.29,C0V710
林園,22.507747,120.394511,0.05,29.83,3.94,81.67,24.06,10.58,C0V720
大寮,22.605614,120.395717,-0.81,28.48,8.58,88.11,44.44,24.75,C0V730
旗山,22.888614,120.483597,0.02,28.46,0.72,82.11,33.89,12.51,C0V740
路竹,22.854997,120.259439,0.07,29.41,0.9,81.11,17.44,1.48,C0V750
橋頭,22.757806,120.30575,-0.23,29.33,-0.5,78.67,31.17,14.63,C0V760
大社,22.730306,120.346639,-0.09,29.24,3.87,83.11,33.11,14.2,C0V770
萬山,22.905944,120.688056,-0.29,25.52,1.92,87.22,43.33,21.37,C0V790
六龜,22.997889,120.633583,-0.87,26.44,6.15,87.0,58.56,34.69,C0V800
左營,22.67491,120.28491,-0.68,28.5,1.14,81.56,34.5,17.01,C0V810
小林,23.148408,120.63325,-0.9,24.97,6.41,90.78,47.11,34.97,C0V820
東莒,25.9652,119.98069,0.49,27.87,-0.43,88.67,0.0,-5.83,C0W110
西嶼,23.5626,119.468436,0.91,27.94,-1.47,91.0,6.39,0.04,C0W120
花嶼,23.40007,119.32276,0.86,28.26,-0.07,89.0,5.89,0.74,C0W130
金沙,24.488292,118.408778,1.97,30.13,-13.51,73.22,2.06,0.3,C0W140
金寧,24.457703,118.328989,1.14,30.04,-15.83,72.56,3.72,1.73,C0W150
東河,23.296598,120.385608,-0.78,27.5,-0.9,82.22,36.17,18.35,C0X050
下營,23.22695,120.256261,-0.03,28.21,-1.3,83.11,23.5,8.63,C0X060
佳里,23.173039,120.145086,-1.14,28.05,5.64,90.75,11.0,3.67,C0X080
臺南市北區,23.010394,120.194228,-0.6,29.17,7.41,82.78,24.89,11.1,C0X100
臺南市南區,22.961189,120.188378,-0.4,29.12,1.96,83.44,22.0,8.76,C0X110
麻豆,23.183289,120.248611,-0.03,29.13,5.11,85.67,22.72,9.84,C0X120
官田,23.193217,120.315422,-0.87,28.19,11.65,92.56,29.72,15.37,C0X130
西港,23.125608,120.203108,-0.54,28.77,2.07,81.78,32.78,18.52,C0X140
安定,23.102614,120.227839,-0.21,28.96,4.91,86.0,23.94,10.68,C0X150
仁德,22.968258,120.257689,0.0,29.18,-0.53,79.83,24.17,7.66,C0X160
關廟,22.963017,120.327797,-0.78,28.44,8.6,86.22,23.28,5.97,C0X170
山上,23.0757,120.363253,-0.6,27.73,2.59,85.33,26.83,10.71,C0X180
安平,22.993161,120.152181,-0.46,29.08,-4.64,76.0,23.22,11.19,C0X190
左鎮,23.056758,120.408522,0.31,28.17,-0.47,85.44,34.0,15.85,C0X200
白河,23.347466,120.414427,-0.87,27.42,6.33,87.22,51.25,36.71,C0X210
學甲,23.230367,120.182187,-0.08,28.3,4.03,85.22,21.56,9.59,C0X220
鹽水,23.272621,120.247641,-0.46,27.78,3.34,87.67,26.06,12.17,C0X230
關子嶺,23.331169,120.508025,-0.64,25.51,7.07,91.0,60.94,37.45,C0X240
新營,23.310689,120.316681,-0.68,28.09,4.75,85.22,33.06,16.06,C0X250
後壁,23.366358,120.362326,-0.54,27.86,1.75,84.0,46.67,31.84,C0X260
將軍,23.214999,120.13577,0.2,28.77,-1.63,80.67,21.22,7.68,C0X280
北門,23.267772,120.125481,-0.28,28.47,4.01,86.67,26.61,12.7,C0X290
鹿寮,23.386047,120.477331,-0.78,26.84,2.59,87.44,49.44,32.81,C0X300
柳營,23.253328,120.375253,-1.83,27.59,12.08,86.62,27.67,25.39,C0X320
明里,23.208717,121.262342,-1.73,26.22,2.54,84.11,17.17,10.41,C0Z020
佳心,23.34567,121.21316,-0.77,22.93,5.51,87.11,17.56,9.91,C0Z050
玉里,23.3215,121.339656,-1.5,26.64,-4.57,78.89,14.06,7.98,C0Z061
舞鶴,23.46811,121.37407,-1.46,25.64,-0.24,84.44,11.78,6.88,C0Z070
富源,23.587642,121.378225,-1.38,26.0,0.99,86.11,9.67,4.02,C0Z080
東華,23.89525,121.549833,-1.24,27.32,6.13,87.33,2.22,-3.57,C0Z100
吉安光華,23.930925,121.595153,-0.66,27.38,1.97,85.11,4.94,3.73,C0Z150
鳳林,23.746114,121.453411,-1.27,26.66,2.44,80.44,6.72,5.54,C0Z160
卓溪,23.3443,121.3029,-1.87,26.58,2.44,79.11,14.5,12.94,C0Z170
新城,24.040486,121.604878,-0.54,27.71,-0.76,79.0,4.11,2.35,C0Z180
富世,24.14743,121.6297,-0.49,27.96,-4.54,79.56,7.11,3.99,C0Z190
萬榮,23.709219,121.420106,-0.98,26.61,0.1,80.78,8.06,5.17,C0Z200
瑞穗,23.5239,121.39021,-1.01,26.77,5.46,85.89,13.39,12.54,C0Z210
和平林道,24.343922,121.656317,-0.45,24.97,-6.43,80.78,3.67,-0.76,C0Z220
和平,24.30717,121.77007,-0.94,27.69,-2.39,75.0,2.94,-1.01,C0Z230
瑞穗林道,23.49284,121.30688,-0.89,21.81,-0.27,89.67,13.89,11.86,C0Z250
蕃薯寮,23.73835,121.540108,-0.63,25.66,-2.52,84.89,6.78,5.94,C0Z270
德武,23.47426,121.41071,-1.12,26.37,3.6,85.44,12.22,10.95,C0Z280
赤柯山,23.36893,121.38293,-0.61,23.04,-3.22,82.44,15.56,12.86,C0Z290
東里,23.26853,121.30547,-1.45,26.67,-0.08,82.56,17.06,14.75,C0Z300
清水斷崖,24.218294,121.689142,-0.78,27.22,-5.48,82.44,3.28,-5.6,C0Z310
清水林道,23.27125,121.188272,-1.42,23.7,0.06,82.0,16.67,11.88,C0Z320
安通山,23.290728,121.348528,-1.52,25.03,5.25,85.89,15.89,14.69,C0Z330
口湖工作站,23.589978,120.180394,-0.47,28.09,3.27,79.22,19.28,12.98,12J990
東港工作站,22.479997,120.466058,-0.02,28.66,-1.93,71.89,18.78,3.32,12Q970
恆春工作站,22.079678,120.714425,-0.71,28.3,2.05,80.0,23.89,9.51,12Q980
萬大發電廠,23.978875,121.139639,-0.09,22.24,-10.02,81.22,19.94,11.81,42HA10
桃改樹林分場,24.944503,121.386972,-0.51,28.77,-4.97,70.67,5.17,-0.74,72AI40
桃園農改場,24.950944,121.030583,0.04,28.77,-0.75,77.78,25.06,22.13,72C440
桃改五峰分場,24.612194,121.157167,0.26,22.8,0.14,86.56,13.06,-0.1,72D080
臺中農改場,24.003028,120.534389,-0.73,28.29,8.91,88.88,56.11,48.45,72G600
中改埔里分場,23.903208,120.963364,-0.2,23.99,0.44,90.44,33.72,28.02,72HA00
南改斗南分場,23.634556,120.477333,-1.13,27.63,7.04,87.67,44.06,32.3,72K220
南改義竹分場,23.360694,120.279361,-1.21,27.79,-0.56,83.43,40.29,31.75,72M360
南改鹿草分場,23.416869,120.283061,-0.74,27.99,6.08,86.44,33.44,25.01,72M700
臺南農改場,23.0605,120.342194,-1.39,27.58,9.5,90.44,24.17,15.19,72N100
七股研究中心,23.081672,120.062894,0.04,28.93,0.3,83.67,21.33,2.24,72N240
高雄農改場,22.709333,120.525889,-1.19,27.77,5.83,86.0,38.67,22.75,72Q010
東改班鳩分場,22.829528,121.077694,-0.88,26.36,1.12,80.89,29.83,21.6,72S200
東改賓朗果園,22.813889,121.071278,-1.52,25.4,2.21,90.0,29.44,21.84,72S590
花蓮農改場,23.975222,121.563889,-0.66,27.56,-0.1,79.22,5.44,-1.37,72T250
花改蘭陽分場,24.686306,121.716583,-0.31,28.29,-2.51,78.22,2.17,-3.74,72U480
高改旗南分場,22.857861,120.516667,-2.12,27.33,12.35,87.89,34.89,23.61,72V140
茶改北部分場,24.955778,121.631222,-0.17,26.06,-2.0,80.78,3.28,-7.29,82A750
茶改場,24.908472,121.185333,-0.24,27.91,-7.16,71.78,14.44,8.1,82C160
茶改中部分場,23.875611,120.913583,-2.54,21.48,5.23,92.83,67.08,53.5,82H320
茶改南部分場,23.762528,120.7405,-0.87,25.1,0.59,88.89,58.78,39.26,82H840
茶改東部分場,22.907694,121.130139,-1.74,26.28,4.08,84.56,26.67,17.68,82S580
農工中心,24.985917,121.239833,-0.13,29.11,-0.42,69.67,10.39,5.95,A2C560
水試臺西試驗場,23.717231,120.190522,-0.97,28.39,4.63,90.56,19.06,10.92,A2K360
臺大雲林校區,23.730628,120.423903,-1.42,27.79,7.32,84.78,45.94,43.44,A2K630
臺南蘭花園區,23.340258,120.379661,-1.38,27.4,9.03,89.67,45.83,43.2,A2N290
畜試北區分所,24.527806,120.770972,-0.98,27.52,9.88,87.33,36.0,33.38,B2E890
畜產試驗所,23.058972,120.336406,-1.4,27.17,7.14,90.33,25.11,14.08,B2N890
畜試南區分所,21.945583,120.802167,-1.2,27.47,0.32,84.0,48.06,35.85,B2Q810
畜試東區分所,24.669039,121.832561,0.01,28.53,2.05,84.78,3.22,1.99,B2U990
蓮華池,23.918333,120.885278,-2.11,23.8,9.54,89.44,41.78,25.86,E2H360
林試畢祿溪站,24.226944,121.308522,0.18,16.67,-4.52,77.67,0.58,-1.83,E2HA20
四湖植物園,23.676986,120.163433,-0.28,28.29,10.94,96.44,21.5,10.73,E2K600
林試六龜中心,22.991703,120.645722,-2.03,25.37,13.38,92.11,55.78,55.73,E2P980
林試太麻里2,22.598,120.99775,-2.59,27.29,10.81,82.44,34.78,34.78,E2S960
林試太麻里1,22.598922,120.980044,-2.54,26.91,10.4,82.22,37.83,37.83,E2S980
農試所(霧峰),24.031261,120.688133,-0.88,27.87,2.91,83.0,38.67,28.33,G2F820
農試嘉義分所,23.485028,120.473806,-1.76,26.62,11.4,87.56,36.22,27.99,G2L020
農試溪口農場,23.58565,120.408111,-1.46,28.0,4.28,84.67,35.39,30.53,G2M350
農試鳳山分所,22.646611,120.356083,-1.27,28.13,9.42,84.33,36.94,28.05,G2P820
苗栗農改場,24.495722,120.829111,-1.32,27.4,4.24,82.25,30.69,25.92,K2E360
苗改生物防治研究中心,24.422861,120.871833,-0.63,26.14,4.42,84.0,29.0,21.05,K2E710
種苗改良場,24.225972,120.800917,-0.57,25.77,2.16,83.11,40.0,26.85,K2F750
溪頭,23.670306,120.798194,-0.66,20.03,5.51,95.86,46.07,33.57,U2H480
臺大和社,23.590856,120.888864,0.32,23.42,1.1,89.56,22.28,16.71,U2HA30
臺大內茅埔,23.689722,120.851117,-0.53,24.56,0.95,87.22,26.0,22.14,U2HA40
臺大竹山,23.756972,120.681556,-0.81,26.86,2.29,84.44,65.06,52.43,U2HA50
