站名,緯度,經度,平均溫距平,本年度平均溫,平均溼度距平,本年度日均相對溼度,本年度日均降水量,日均降水量距平,站號
淡水,25.164889,121.448906,0.33,26.84,6.05,86.7,4.87,-8.45,466900
鞍部,25.182586,121.529731,0.56,21.87,7.56,96.6,4.96,-12.33,466910
臺北,25.037658,121.514853,0.4,27.76,5.61,81.8,8.1,-5.46,466920
竹子湖,25.162078,121.544547,0.7,23.57,5.96,92.0,4.6,-10.68,466930
基隆,25.133314,121.740475,0.59,27.04,4.3,83.3,4.88,-9.85,466940
花蓮,23.975128,121.613275,0.73,27.56,4.08,85.0,12.87,5.89,466990
新屋,25.006725,121.047492,-0.35,27.08,2.81,87.5,2.76,-6.92,467050
宜蘭,24.763975,121.756528,0.79,27.2,3.86,86.3,3.51,-7.7,467080
金門,24.407306,118.289281,0.42,25.9,2.93,88.8,0.97,-3.97,467110
田中,23.873803,120.581286,-0.34,28.28,2.07,84.8,8.16,5.16,467270
澎湖,23.565503,119.563094,0.55,27.83,3.3,88.3,10.76,5.54,467350
臺南,22.99328,120.20492,0.42,28.88,4.59,81.7,17.71,3.95,467410
永康,23.038386,120.2367,0.62,28.86,7.43,82.1,20.86,7.96,467420
嘉義,23.495925,120.432906,0.37,28.23,7.38,85.5,17.36,5.16,467480
臺中,24.145736,120.684075,0.98,28.59,3.7,80.0,3.36,-11.94,467490
阿里山,23.508208,120.813242,1.19,15.24,4.05,95.1,19.06,-15.83,467530
大武,22.35572,120.90374,0.91,28.78,3.26,80.6,7.11,-5.8,467540
玉山,23.48718,120.95943,2.74,9.74,7.53,90.9,7.37,-14.95,467550
新竹,24.827853,121.014219,0.62,27.86,5.19,82.5,3.3,-8.23,467571
恆春,22.003897,120.746339,0.61,28.92,4.27,83.2,8.15,-3.37,467590
成功,23.097486,121.373428,0.45,27.27,6.63,88.7,10.22,4.56,467610
日月潭,23.881325,120.90805,0.82,22.75,10.23,95.6,25.41,3.77,467650
臺東,22.752211,121.154586,0.59,28.42,5.52,83.5,4.98,-1.67,467660
馬祖,26.169467,119.923158,1.38,24.91,2.19,89.7,6.42,-0.01,467990
山佳,24.974944,121.402008,1.0,28.0,1.47,82.8,3.95,-7.62,C0A520
坪林,24.938183,121.70975,2.47,26.55,-2.75,90.0,6.65,-7.24,C0A530
泰平,24.971197,121.823711,1.21,24.33,0.17,95.2,6.45,-8.29,C0A550
桶後,24.848222,121.597992,2.46,26.12,-5.33,87.2,16.95,3.36,C0A570
石碇,24.993969,121.662917,0.84,25.65,-3.01,88.8,3.9,-13.27,C0A640
大坪,25.165914,121.632969,2.97,27.0,-2.79,86.5,9.5,-8.51,C0A860
五指山,25.132153,121.608692,2.39,24.36,-1.01,92.8,5.8,-8.5,C0A870
雙溪,25.036003,121.864242,2.19,27.5,-2.51,87.3,3.35,-9.53,C0A890
三和,25.233153,121.595236,-0.14,25.35,-1.06,92.1,11.35,-8.2,C0A931
金山,25.223628,121.643967,0.49,26.29,0.02,87.0,8.4,-6.99,C0A940
鼻頭角,25.129036,121.923372,1.24,27.13,-1.63,88.6,2.3,-7.33,C0A950
三貂角,25.007606,122.002058,1.11,26.68,2.2,89.2,6.85,-2.29,C0A970
社子,25.109508,121.469681,1.14,28.42,3.73,83.5,3.55,-8.52,C0A980
天母,25.117494,121.537169,0.64,27.88,-1.12,76.1,3.0,-9.58,C0A9C0
內湖,25.079422,121.57545,1.18,28.47,3.61,82.7,6.8,-6.18,C0A9F0
大屯山,25.175675,121.522408,2.32,22.57,4.07,99.0,5.6,-10.48,C0AC40
三峽,24.939025,121.369728,1.22,28.67,1.91,83.9,5.3,-7.03,C0AC60
信義,25.037822,121.564597,0.72,28.08,1.53,83.5,8.1,-5.07,C0AC70
文山,25.00235,121.575728,-0.02,26.8,-0.99,84.5,8.7,-5.19,C0AC80
新莊,25.051478,121.446756,-0.38,27.74,5.7,81.4,4.1,-7.66,C0ACA0
八里,25.150211,121.403947,0.98,28.37,12.37,92.4,4.75,-5.97,C0AD10
蘆洲,25.086594,121.472331,0.34,28.6,4.2,81.0,3.9,-6.6,C0AD30
土城,24.973208,121.445169,-0.16,26.91,2.5,85.6,17.65,4.27,C0AD40
鶯歌,24.951533,121.346294,0.9,28.28,3.41,86.8,2.5,-9.24,C0AD50
汐止,25.066881,121.658778,-0.17,27.15,-0.05,84.7,4.2,-10.22,C0AH00
永和,25.01125,121.508111,0.4,28.49,6.0,82.2,12.75,0.79,C0AH10
五分山,25.07125,121.780794,1.95,24.26,-0.63,94.8,5.75,-9.14,C0AH30
平等,25.129142,121.577086,-0.15,25.34,2.72,85.8,3.7,-10.68,C0AH40
林口,25.072181,121.38084,0.51,26.97,6.46,93.33,4.55,-6.42,C0AH50
松山,25.04871,121.55042,-0.61,27.71,12.91,83.7,8.55,2.22,C0AH70
深坑,25.002703,121.628328,0.55,27.1,0.63,86.1,4.15,-4.14,C0AH80
福山植物園,24.760717,121.58135,0.46,23.18,1.75,94.5,9.45,1.19,C0AH90
五股,25.07445,121.42728,0.36,27.44,-1.47,85.9,4.45,-3.22,C0AI00
屈尺,24.92184,121.54475,1.29,28.12,2.83,87.8,11.55,0.58,C0AI10
白沙灣,25.283128,121.519058,-0.27,26.54,8.28,89.2,4.8,-3.3,C0AI20
三重,25.057328,121.500629,-1.2,28.06,10.07,90.9,3.15,0.9,C0AI30
石牌,25.115597,121.513139,0.06,28.99,8.95,81.2,3.5,-4.56,C0AI40
七堵,25.094819,121.71713,0.72,27.96,-0.68,86.5,4.9,-4.36,C0B010
基隆嶼,25.19141,121.78391,-0.45,26.21,6.66,97.2,1.9,-8.64,C0B020
復興,24.820208,121.352281,0.69,24.63,-3.16,83.3,6.55,-9.15,C0C460
桃園,24.992425,121.323172,0.14,27.63,6.07,80.6,4.5,-7.47,C0C480
八德,24.928708,121.283289,-0.39,27.05,1.25,80.9,4.3,-7.1,C0C490
觀音,25.027072,121.153317,0.13,26.44,9.12,91.9,3.75,-7.35,C0C590
蘆竹,25.084275,121.265767,-0.0,27.38,2.69,85.0,3.65,-6.58,C0C620
大溪,24.882853,121.265547,0.26,26.12,5.83,84.6,5.9,-4.27,C0C630
平鎮,24.897503,121.214636,0.49,26.36,3.95,85.0,5.95,-4.74,C0C650
楊梅,24.912375,121.143047,-0.54,26.85,8.42,85.2,2.95,-5.82,C0C660
龍潭,24.870056,121.221389,-0.2,26.23,5.16,84.3,5.3,-2.63,C0C670
龜山,25.02846,121.38656,-1.42,25.01,3.0,83.9,4.75,-7.33,C0C680
中壢,24.977661,121.256375,-0.36,26.99,5.49,81.1,3.85,-1.98,C0C700
大溪永福,24.892936,121.324975,0.38,26.64,1.03,86.9,4.4,-4.08,C0C710
梅花,24.678347,121.208558,0.86,24.34,4.13,91.9,10.45,-0.97,C0D360
峨眉,24.6905,121.017189,0.14,26.97,4.67,91.3,3.45,-5.3,C0D430
打鐵坑,24.849664,121.150789,0.13,25.3,0.45,87.1,2.05,-8.95,C0D480
橫山,24.71116,121.11693,0.09,25.49,10.99,97.5,6.2,-4.51,C0D540
雪霸,24.526972,121.11605,0.9,18.46,7.56,91.6,5.65,-9.39,C0D550
竹東,24.767147,121.057881,1.36,27.69,0.38,77.0,4.05,-4.65,C0D560
寶山,24.735006,121.025192,0.51,26.26,4.26,89.5,4.15,-4.83,C0D580
新豐,24.87068,120.97721,0.29,26.34,9.54,93.7,4.05,-8.16,C0D590
湖口,24.904794,121.043628,-0.28,27.05,0.43,82.2,3.45,-5.15,C0D650
新竹市東區,24.798681,120.986942,-0.55,27.23,5.82,81.9,3.9,-2.09,C0D660
竹南,24.708978,120.888897,1.99,28.95,9.15,88.5,5.6,-5.04,C0E420
南庄,24.601775,121.000214,0.73,25.94,5.24,89.0,4.15,-9.42,C0E430
明德,24.583486,120.885411,0.17,27.78,4.12,83.9,5.55,-1.61,C0E550
通霄,24.471892,120.704622,-0.18,27.45,3.79,87.1,5.3,-2.02,C0E590
馬都安,24.451272,120.930192,0.84,23.37,12.12,92.2,6.75,-8.14,C0E610
頭份,24.688247,120.912206,1.15,28.91,6.06,81.1,8.2,-0.47,C0E730
造橋,24.637056,120.864778,-0.22,27.74,2.73,84.4,6.0,-1.21,C0E740
苗栗,24.564569,120.824575,-0.46,27.93,0.73,75.9,4.6,-3.34,C0E750
銅鑼,24.489681,120.790853,-0.12,27.42,0.65,83.0,5.9,-3.48,C0E780
西湖,24.562947,120.7485,0.03,27.24,1.47,88.4,3.9,-3.11,C0E810
獅潭,24.539133,120.920042,-0.22,26.52,0.98,85.0,4.65,-5.85,C0E820
苑裡,24.439714,120.653053,-0.47,27.68,2.87,82.6,3.35,-4.26,C0E830
大河,24.618069,120.948578,-1.76,25.4,5.08,86.7,5.65,-4.41,C0E850
高鐵苗栗,24.60725,120.826094,-0.37,27.67,15.81,90.2,5.35,0.53,C0E870
石岡,24.276061,120.777644,0.36,27.08,3.7,85.6,7.45,-7.24,C0F0B0
中坑,24.248517,120.903319,-0.48,21.92,1.73,92.4,14.05,-7.86,C0F0C0
審馬陣,24.381675,121.4203,1.58,12.11,4.99,90.6,10.2,3.03,C0F0D0
東勢,24.246428,120.833047,1.13,27.51,1.91,81.6,9.5,-5.55,C0F850
大坑,24.173142,120.722289,1.14,29.26,4.96,80.7,3.25,-9.26,C0F970
神岡,24.272481,120.658314,-0.24,27.24,-0.12,83.1,3.45,-3.59,C0F9I0
大安,24.345061,120.588025,-0.41,27.55,1.6,85.3,4.25,-1.79,C0F9K0
后里,24.310436,120.729725,0.41,27.92,2.59,84.4,5.3,-5.1,C0F9L0
豐原,24.254322,120.720692,1.28,28.94,0.31,78.9,2.05,-9.0,C0F9M0
大里,24.092464,120.701378,0.59,29.6,7.55,81.9,6.4,-5.59,C0F9N0
潭子,24.213106,120.703933,1.64,30.2,6.46,82.6,2.95,-9.08,C0F9O0
清水,24.312297,120.562242,-0.39,28.02,0.46,83.8,4.7,-1.16,C0F9P0
外埔,24.347817,120.705686,0.0,27.34,0.78,85.9,5.25,-3.13,C0F9Q0
龍井,24.184536,120.528972,0.02,28.37,-5.37,82.2,5.75,-0.74,C0F9R0
烏日,24.107058,120.624103,0.16,28.7,1.91,78.4,5.4,-3.79,C0F9S0
西屯,24.179494,120.641275,-0.08,28.49,1.09,78.1,3.25,-6.04,C0F9T0
南屯,24.137006,120.637969,-0.1,28.77,2.69,78.5,5.2,-3.68,C0F9U0
新社,24.200172,120.815806,0.44,25.77,0.51,85.8,13.1,-3.08,C0F9V0
大雅(中科園區),24.21528,120.62445,-0.11,27.41,4.67,84.4,2.05,-7.55,C0F9X0
桃山,24.432739,121.303808,1.54,11.63,5.4,90.6,16.05,-2.24,C0F9Y0
雪山東峰,24.388792,121.268675,1.67,12.5,4.9,88.7,10.6,-8.32,C0F9Z0
芬園,24.015678,120.6213,-0.37,27.27,11.25,93.7,8.95,-2.08,C0G620
員林,23.946503,120.585597,2.74,30.42,-0.7,82.0,11.55,-1.25,C0G650
溪湖,23.94835,120.479122,0.97,29.06,-3.77,84.12,9.7,-0.26,C0G660
溪州,23.851589,120.499093,0.69,28.51,-3.13,80.0,10.7,-3.48,C0G720
二林,23.903325,120.376081,0.16,28.04,1.52,90.2,7.1,-6.03,C0G730
大城,23.852487,120.320935,0.11,27.9,2.8,86.4,6.15,-4.83,C0G740
福興,24.041289,120.437669,-0.03,28.91,-3.0,80.8,3.6,-4.25,C0G770
秀水,24.03405,120.503869,0.3,28.89,1.58,84.9,9.35,0.98,C0G780
埔鹽,24.000394,120.431683,0.75,28.79,-5.25,81.86,5.3,-3.04,C0G800
埔心,23.947633,120.525456,1.35,30.09,1.13,81.8,11.7,0.95,C0G810
田尾,23.901669,120.509389,0.41,28.81,3.81,88.8,12.15,0.53,C0G820
埤頭,23.866003,120.452806,0.05,28.27,5.52,94.2,10.25,-0.38,C0G830
社頭,23.897647,120.5862,0.16,29.17,11.21,86.6,9.3,-1.95,C0G860
伸港,24.148933,120.484403,-0.15,28.3,-2.32,81.6,5.6,-0.31,C0G890
線西,24.143358,120.443536,-0.62,28.2,1.53,83.7,5.1,-6.86,C0G900
花壇,24.032076,120.549461,1.28,30.16,12.35,88.6,10.35,5.85,C0G910
埔里,23.972169,120.952425,0.22,25.92,4.93,89.4,27.4,2.31,C0H890
草屯,23.973672,120.68085,-0.0,28.11,5.19,83.4,11.2,-0.36,C0H960
昆陽,24.121322,121.273642,2.0,12.14,2.52,94.1,10.0,-7.49,C0H990
神木村,23.532742,120.843667,1.28,19.97,4.03,95.1,9.55,-18.29,C0H9A0
合歡山,24.143442,121.272547,2.35,11.34,6.33,95.6,13.5,-16.94,C0H9C0
廬山,24.033311,121.181808,1.26,20.28,2.62,89.6,13.25,-12.16,C0I010
信義,23.689694,120.851036,0.89,25.33,2.12,88.9,8.0,-15.18,C0I080
竹山,23.761225,120.688156,1.12,27.74,4.0,87.5,14.6,-1.95,C0I110
水里,23.812553,120.849792,0.48,26.6,2.58,85.1,22.45,-2.95,C0I360
魚池,23.895703,120.94135,0.3,24.61,0.92,87.5,22.45,-3.77,C0I370
集集,23.828206,120.801467,0.02,26.78,5.38,89.2,19.05,-9.27,C0I380
仁愛,24.022122,121.132206,0.98,22.2,-1.48,87.7,11.65,-20.31,C0I390
名間,23.837053,120.701447,-0.12,27.05,9.03,89.2,12.25,-6.5,C0I410
國姓,24.037803,120.855072,0.22,26.48,2.32,88.5,17.45,-8.69,C0I420
南投,23.911469,120.687331,0.19,28.43,9.83,87.5,6.8,-13.57,C0I460
梅峰,24.085272,121.173572,1.4,17.0,0.24,91.9,15.2,-17.6,C0I480
萬大林道,23.928228,121.091411,0.88,19.89,-2.03,89.9,14.75,-10.79,C0I490
小奇萊,24.131764,121.295717,2.17,12.11,1.39,93.2,6.17,-16.56,C0I530
崙背,23.75555,120.318925,-0.01,27.84,2.32,88.8,9.45,-6.71,C0K250
四湖,23.630414,120.227125,0.77,28.22,0.75,86.3,8.6,-2.16,C0K280
宜梧,23.536281,120.169329,-0.21,28.24,0.07,85.3,5.7,-3.95,C0K291
虎尾,23.719183,120.442036,0.67,28.44,10.08,89.1,12.1,-0.94,C0K330
土庫,23.679029,120.395574,-0.22,28.06,0.97,83.9,13.8,-3.07,C0K390
斗六,23.720583,120.541127,0.03,28.17,0.95,82.0,5.9,-13.17,C0K400
北港,23.573957,120.292802,-0.11,28.17,0.22,83.5,5.55,-3.0,C0K410
西螺,23.800407,120.467394,0.02,28.26,2.2,84.1,10.45,-4.25,C0K420
褒忠,23.690938,120.303634,0.02,27.93,2.31,87.3,9.15,-3.14,C0K430
二崙,23.772797,120.408944,-0.15,27.89,13.13,97.0,11.1,-5.76,C0K440
大埤,23.646074,120.431537,-0.01,28.2,3.33,84.9,8.0,-9.87,C0K450
斗南,23.678734,120.478359,-0.05,28.18,6.05,84.3,8.2,-11.46,C0K460
林內,23.748675,120.609642,0.17,27.64,2.88,85.6,10.85,-8.13,C0K470
莿桐,23.761192,120.502372,0.01,27.94,4.52,85.0,7.95,-9.96,C0K480
元長,23.64981,120.315024,-0.04,28.27,3.32,85.3,12.1,-2.77,C0K500
水林,23.572924,120.24597,-0.02,28.35,5.33,86.8,9.55,-1.12,C0K510
臺西,23.701547,120.197559,-0.25,27.83,3.48,86.7,7.25,-6.81,C0K530
蔦松,23.514319,120.229736,0.02,28.43,2.73,86.1,6.05,-2.96,C0K550
棋山,23.68645,120.603417,0.19,27.79,7.28,89.2,8.5,-15.88,C0K560
高鐵雲林,23.737456,120.417944,-0.58,27.76,3.37,87.4,10.95,1.38,C0K580
東後寮,23.369908,120.248065,-0.09,28.02,3.87,88.5,11.75,2.52,C0M520
奮起湖,23.493903,120.699253,1.14,20.62,4.73,97.2,17.35,-14.27,C0M530
中埔,23.42538,120.5229,-0.31,27.54,3.68,81.9,10.75,-4.78,C0M640
朴子,23.43463,120.23902,-0.8,27.46,6.05,88.8,12.05,4.15,C0M650
溪口,23.604131,120.403569,-0.09,27.97,1.91,84.6,4.95,-8.47,C0M660
大林,23.600616,120.45841,-0.09,28.44,5.38,83.9,9.1,-9.28,C0M670
太保,23.455062,120.331455,-0.36,28.11,2.63,85.9,8.6,-0.92,C0M680
水上,23.419734,120.388909,-0.12,28.12,3.47,84.8,14.15,4.53,C0M690
竹崎,23.526178,120.555508,-0.15,27.3,6.62,87.3,13.4,-1.07,C0M700
東石,23.458927,120.15385,-0.36,28.32,-0.51,83.0,6.05,-3.2,C0M710
番路,23.464657,120.554156,-0.02,27.23,6.78,85.3,13.4,-4.23,C0M720
嘉義市東區,23.457673,120.460531,-0.37,28.49,7.9,84.5,18.0,7.38,C0M730
六腳,23.492871,120.290625,-0.21,28.19,5.67,85.0,8.65,0.91,C0M740
布袋,23.380878,120.167789,-0.12,28.51,1.77,84.6,9.05,-0.19,C0M750
民雄,23.551754,120.428457,-0.33,28.3,4.43,84.3,7.85,-6.08,C0M760
嘉義梅山,23.585398,120.555587,-0.3,27.6,7.4,86.7,14.7,-4.79,C0M770
鹿草,23.41134,120.30835,-0.1,28.42,5.15,86.2,14.0,3.57,C0M780
新港,23.553269,120.345728,-0.42,28.07,3.53,84.2,5.35,-6.02,C0M790
茶山,23.299075,120.664767,0.22,25.58,4.45,89.8,14.0,-12.93,C0M800
里佳,23.389125,120.716647,0.31,20.77,4.76,92.89,18.67,-16.5,C0M810
達邦,23.453994,120.749517,0.94,22.97,5.07,90.7,12.0,-20.19,C0M820
表湖,23.24186,120.64166,-0.63,23.75,5.58,90.5,13.0,-1.82,C0M850
新美,23.338017,120.683169,0.29,25.21,10.98,89.4,17.95,13.95,C0M860
北寮,23.079561,120.495008,-0.25,27.59,9.59,92.2,28.85,18.66,C0O830
王爺宮,23.222064,120.40085,1.99,29.66,-1.7,81.3,16.1,4.98,C0O840
大內,23.11885,120.36083,0.67,29.47,5.98,87.5,18.9,10.19,C0O860
善化,23.112883,120.297219,0.8,28.5,9.56,93.0,17.55,4.55,C0O900
崎頂,22.959547,120.369317,0.77,28.62,4.47,88.6,16.5,7.7,C0O960
虎頭埤,23.021375,120.347878,-0.07,27.91,0.43,83.7,21.0,9.64,C0O970
新市,23.061614,120.298197,0.58,29.19,-0.37,83.2,17.95,10.31,C0O980
媽廟,22.99175,120.293525,0.28,28.92,3.79,86.2,15.25,4.55,C0O990
尾寮山,22.833111,120.683889,1.52,22.91,4.66,97.1,27.3,-6.27,C0R100
阿禮,22.742908,120.743678,0.32,22.63,1.19,87.6,11.7,-4.1,C0R130
瑪家,22.682903,120.686639,-0.55,23.69,14.23,98.2,17.25,-6.13,C0R140
三地門,22.709889,120.639944,0.97,28.46,3.93,81.3,18.0,-5.17,C0R150
鹽埔,22.739558,120.530778,0.26,28.58,1.73,87.9,13.5,2.73,C0R160
赤山,22.592333,120.614306,0.16,28.69,8.58,91.1,13.0,-2.86,C0R190
潮州,22.534361,120.54,0.96,29.05,4.34,81.9,14.6,-2.58,C0R220
來義,22.527306,120.625111,-0.6,27.39,10.55,91.6,14.45,0.28,C0R240
春日,22.370361,120.628306,-1.39,27.17,8.94,88.5,17.85,8.2,C0R260
琉球嶼,22.332244,120.362236,0.86,28.75,-1.91,83.8,7.0,-3.48,C0R270
車城,22.0744,120.716247,0.02,28.79,2.97,85.8,10.85,7.27,C0R320
牡丹,22.130036,120.792639,-0.13,26.65,10.67,95.0,12.6,7.64,C0R341
貓鼻頭,21.921774,120.7358,0.83,28.64,0.02,85.1,8.7,-0.88,C0R350
大漢山,22.405264,120.753181,0.9,18.74,3.95,98.2,35.5,29.12,C0R440
高樹,22.826389,120.600806,-0.3,28.3,2.46,79.2,18.05,4.87,C0R470
長治,22.693128,120.542622,0.67,29.45,3.21,82.8,14.9,2.92,C0R480
九如,22.7405,120.490503,0.63,29.27,-0.38,82.0,14.75,3.33,C0R490
崁頂,22.514781,120.506914,-0.27,28.69,3.96,86.0,11.15,-0.32,C0R520
佳冬,22.419456,120.552375,-0.09,28.75,3.33,84.5,15.05,5.06,C0R540
新埤,22.467947,120.582894,-0.15,28.5,-1.81,80.9,17.35,7.24,C0R550
新園,22.5434,120.461558,0.83,29.72,-3.43,79.3,13.8,2.87,C0R560
麟洛,22.65078,120.52719,0.79,29.78,5.91,84.8,15.7,4.87,C0R570
南州,22.48591,120.50274,-0.27,28.47,8.47,88.8,12.05,2.19,C0R580
里港,22.77919,120.49459,0.09,28.57,4.41,85.6,13.4,3.0,C0R590
舊泰武,22.588194,120.664944,-0.25,24.14,7.38,91.5,22.95,0.62,C0R600
墾雷,21.900836,120.855269,-0.71,28.2,10.3,93.8,14.0,11.1,C0R620
東港,22.46247,120.44074,-0.07,28.86,1.49,85.7,12.65,9.68,C0R640
竹田,22.58486,120.54344,-0.13,28.95,1.06,82.6,13.15,7.13,C0R650
枋寮,22.367722,120.590647,-0.04,28.59,9.88,88.8,14.95,13.08,C0R660
楓港,22.190131,120.692156,-0.55,28.23,2.08,81.5,15.85,13.48,C0R670
佳樂水,21.993578,120.861633,-0.71,28.39,8.55,88.3,7.7,5.74,C0R680
墾丁,21.966756,120.810269,-0.1,26.86,3.22,91.8,8.5,5.71,C0R690
枋山,22.246844,120.661086,0.66,28.93,0.93,81.6,46.5,44.75,C0R700
龍磐,21.931672,120.838942,-0.64,27.7,5.58,91.0,9.4,7.69,C0R710
旭海,22.205403,120.887614,-0.8,26.88,8.28,87.7,8.6,6.89,C0R720
大坪頂,22.024633,120.69355,-0.1,27.69,6.75,94.0,6.1,4.35,C0R730
四林格山,22.076989,120.802439,0.06,24.76,2.02,96.6,15.85,2.52,C0R750
南仁湖,22.084681,120.863353,-0.81,25.58,13.15,97.9,15.7,5.07,C0R760
保力,22.071122,120.764111,0.24,27.55,3.17,89.5,12.25,3.75,C0R770
滿州,22.024403,120.839892,-0.38,27.95,5.2,86.2,9.05,3.93,C0R780
九棚,22.14195,120.889281,-1.1,27.69,11.45,86.7,9.45,3.82,C0R790
丹路,22.204481,120.750989,0.11,27.85,3.95,86.2,24.55,21.68,C0R800
內獅,22.305064,120.642986,0.04,28.77,20.23,96.9,21.9,19.65,C0R810
白鷺,22.454275,120.666219,0.15,25.37,8.12,90.7,27.85,25.64,C0R820
高士,22.121825,120.836781,-0.72,25.47,10.75,94.5,12.7,4.2,C0R830
牡丹池山,22.168389,120.841225,-0.63,24.6,10.68,96.6,14.65,9.94,C0R840
下馬,23.150427,121.070312,0.89,24.32,7.6,88.1,9.2,7.43,C0S660
太麻里,22.60902,120.98533,0.86,24.81,11.39,94.44,1.56,-6.81,C0S690
知本,22.684866,121.005642,1.44,25.57,8.74,92.8,18.5,9.53,C0S700
鹿野,22.917711,121.122994,1.4,25.91,8.08,91.3,9.95,2.7,C0S710
綠島,22.6672,121.47533,1.11,27.89,0.21,86.6,5.2,0.89,C0S730
池上,23.119628,121.209469,1.18,26.38,5.01,90.4,10.95,5.67,C0S740
向陽,23.248397,120.986133,1.95,16.91,16.06,92.5,10.05,-10.12,C0S750
大溪山,22.478475,120.943325,1.21,25.86,4.77,90.6,6.75,-3.49,C0S770
金崙,22.538122,120.966875,1.36,27.72,5.71,85.6,5.15,-3.11,C0S790
東河,22.972672,121.303986,0.12,27.69,5.56,91.0,10.25,3.74,C0S810
長濱,23.286817,121.411975,0.84,26.63,5.71,90.1,15.55,9.9,C0S830
南田,22.279725,120.889208,0.96,28.56,2.11,81.0,7.15,-3.22,C0S840
關山,23.0395,121.175017,0.25,26.91,6.27,90.1,10.2,3.69,C0S890
蘭嶼高中,22.04909,121.51214,-0.65,28.71,9.43,88.6,12.05,10.01,C0S900
蘭嶼燈塔,22.081197,121.503117,-0.51,27.25,10.75,94.0,17.75,16.33,C0S910
金峰嘉蘭,22.594789,120.960825,-0.4,27.88,9.18,86.1,9.3,4.18,C0S920
延平,22.902581,121.084058,-0.55,26.66,12.72,88.3,11.5,9.44,C0S930
石寧山,23.223772,121.406639,-0.53,27.65,6.97,89.8,19.45,17.87,C0S940
七塊厝,22.954453,121.229922,0.25,26.47,0.57,86.9,10.85,1.72,C0S950
香蘭,22.587569,120.993375,-0.16,28.56,13.62,87.7,8.4,6.02,C0S960
加津林,22.416211,120.926942,0.03,28.37,7.03,83.7,5.45,3.01,C0S970
勝林山,22.430439,120.8938,-1.3,22.99,12.42,94.5,9.5,6.5,C0S980
山豬窟,22.318619,120.857372,-1.22,26.01,12.87,89.2,9.5,7.79,C0S990
歷坵,22.520969,120.89185,0.27,25.71,5.05,90.8,8.0,5.06,C0SA00
檳榔四格山,22.810031,121.109308,-0.65,25.69,10.12,93.2,7.3,5.32,C0SA10
金崙山,22.567419,120.959667,0.25,24.14,5.05,90.3,12.5,10.54,C0SA20
都歷,23.020333,121.323642,-0.47,27.55,4.32,84.4,8.95,2.87,C0SA30
瑞和,22.974361,121.156697,-0.58,26.92,6.83,87.0,10.85,6.31,C0SA40
知本（水試所）,22.702394,121.082761,-0.42,28.15,9.12,87.7,7.4,6.02,C0SA60
土坂,22.453108,120.887572,0.2,28.02,9.92,86.1,8.55,5.55,C0SA80
達仁林場,22.264347,120.823972,-0.74,25.19,13.1,92.6,16.5,13.75,C0SA90
大禹嶺,24.186117,121.316086,1.57,14.16,5.1,89.9,10.65,-3.62,C0T790
天祥,24.179597,121.495639,1.26,24.51,4.29,86.9,5.65,-0.41,C0T820
鯉魚潭,23.935639,121.508944,0.74,25.78,1.72,91.6,11.7,4.05,C0T870
西林,23.8119,121.441458,0.77,26.58,8.65,90.3,7.95,-0.42,C0T900
光復,23.660694,121.424964,1.54,27.33,-1.37,87.3,8.45,0.63,C0T960
月眉山,23.809928,121.539828,1.67,25.11,-0.53,93.2,4.45,-2.27,C0T9A0
水源,23.991861,121.537169,1.13,24.11,1.41,93.9,14.4,6.47,C0T9B0
和中,24.26676,121.74103,0.89,27.23,9.81,100.0,11.45,1.69,C0T9D0
大坑,23.880628,121.581981,1.22,25.32,4.11,93.3,13.2,5.13,C0T9E0
水璉,23.797131,121.542514,0.79,26.39,4.43,91.9,3.85,-2.96,C0T9F0
鳳林山,23.735269,121.420131,0.25,24.28,2.45,95.4,10.9,1.46,C0T9G0
加路蘭山,23.682947,121.5274,1.61,24.52,5.12,98.7,6.2,-2.43,C0T9H0
豐濱,23.583897,121.514806,1.4,26.73,-2.88,87.7,5.45,-2.0,C0T9I0
靜浦,23.455167,121.495028,1.09,27.08,7.41,94.3,10.85,5.08,C0T9M0
富里,23.171639,121.249378,-0.29,26.9,17.9,99.4,6.6,4.31,C0T9N0
雙連埤,24.753033,121.641303,-0.07,23.27,-1.2,94.3,5.2,-7.43,C0U520
礁溪,24.817539,121.765608,1.06,27.11,-2.97,85.0,3.5,-8.12,C0U600
玉蘭,24.675286,121.587061,1.16,25.0,-1.38,85.7,10.2,-2.13,C0U650
太平山,24.505486,121.525656,1.62,18.23,2.0,95.1,8.1,-3.5,C0U710
南山,24.43742,121.38167,0.3,21.71,-1.72,88.7,6.4,-0.14,C0U720
龜山島,24.841667,121.953133,-0.02,24.17,-1.18,93.6,2.5,-3.19,C0U750
東澳,24.52196,121.83318,0.96,27.36,-4.02,84.9,5.05,-6.63,C0U760
南澳,24.44935,121.81022,0.57,27.23,1.16,88.1,0.6,-7.47,C0U770
五結,24.68637,121.79794,-0.19,27.09,-1.36,84.7,3.3,-4.15,C0U780
頭城,24.85323,121.8308,-0.24,27.0,-0.53,89.3,3.75,-6.24,C0U860
大礁溪,24.791042,121.675047,-0.01,24.39,6.61,94.5,6.25,-4.17,C0U870
三星,24.66812,121.65302,-0.0,26.4,-5.44,84.2,4.85,-2.37,C0U890
內城,24.71813,121.68766,0.46,26.98,-1.88,86.7,5.2,-4.33,C0U900
冬山,24.63373,121.7937,0.51,27.45,-0.13,82.2,7.0,-2.47,C0U910
羅東,24.68184,121.74934,0.61,27.46,0.37,84.9,3.15,-5.14,C0U940
鶯子嶺,24.89754,121.79244,0.52,21.44,-1.88,94.2,8.55,-3.41,C0U950
翠峰湖,24.510856,121.608044,1.24,18.1,2.36,95.0,12.65,3.84,C0U960
大福,24.80064,121.81389,-0.18,26.58,1.97,86.3,3.1,-6.22,C0U970
坪林石牌,24.86478,121.77396,0.33,23.76,1.68,95.6,6.35,-5.41,C0U980
員山,24.74435,121.72247,0.03,27.02,3.26,87.9,4.3,-5.17,C0U990
土場,24.576533,121.495333,-0.05,25.1,-2.71,87.4,5.35,-1.28,C0UA00
鴛鴦湖,24.590269,121.412228,0.87,18.61,3.6,97.6,21.05,10.47,C0UA10
白嶺,24.527819,121.519031,0.69,20.68,-0.29,94.4,11.75,2.12,C0UA30
西德山,24.560647,121.752608,0.71,21.66,2.31,95.5,7.35,-0.51,C0UA40
西帽山,24.555361,121.802628,0.42,23.01,-3.82,89.9,7.95,-2.31,C0UA50
樟樹山,24.41393,121.78325,0.54,24.79,2.08,88.89,1.61,-4.5,C0UA60
桃源谷,24.962606,121.888875,0.26,23.89,-0.15,96.1,8.3,-2.62,C0UA70
復興,23.222403,120.806089,0.95,24.8,5.18,86.5,9.75,-10.14,C0V210
溪埔,22.738578,120.446797,0.02,28.46,6.91,88.3,14.35,3.66,C0V350
內門,22.975481,120.466769,1.14,28.63,3.9,87.1,32.65,19.6,C0V360
古亭坑,22.893178,120.401947,-0.13,26.92,7.28,91.75,42.5,26.58,C0V370
阿公店,22.804194,120.355528,-0.16,28.15,4.59,87.4,13.7,3.99,C0V400
鳳山,22.646653,120.356122,-0.72,28.36,12.01,89.0,1.43,-7.48,C0V440
鳳森,22.545064,120.392592,-0.19,28.38,2.15,85.1,13.85,3.12,C0V450
新興,22.627422,120.298803,0.21,29.21,0.62,80.5,16.7,7.11,C0V490
阿蓮,22.883208,120.327508,-0.17,28.73,5.07,85.6,25.17,14.86,C0V530
梓官,22.760558,120.267211,-0.25,28.75,2.97,83.9,13.95,3.88,C0V610
永安,22.82315,120.236856,-0.26,28.59,0.44,84.4,11.5,1.6,C0V620
茄萣,22.906642,120.182608,0.19,29.2,6.27,84.8,20.25,11.79,C0V630
湖內,22.887139,120.2445,-0.59,28.28,2.84,83.8,15.2,6.66,C0V640
彌陀,22.783806,120.246361,-0.03,28.78,1.39,86.5,13.05,3.6,C0V650
岡山,22.797078,120.294958,0.18,29.51,4.42,83.1,16.35,5.89,C0V660
仁武,22.701083,120.347722,0.01,29.49,4.25,83.0,14.3,3.91,C0V680
鼓山,22.623325,120.275575,-0.27,28.79,2.97,84.3,15.5,7.39,C0V690
三民,22.645017,120.311233,-0.32,29.3,6.71,79.9,16.75,7.77,C0V700
苓雅,22.622742,120.330669,0.03,29.39,12.4,85.0,18.44,10.07,C0V710
林園,22.507747,120.394511,0.15,29.72,7.3,84.0,13.35,3.62,C0V720
大寮,22.605614,120.395717,-0.53,28.79,10.73,87.6,14.05,4.46,C0V730
旗山,22.888614,120.483597,1.02,29.29,1.74,81.0,26.6,15.66,C0V740
路竹,22.854997,120.259439,0.37,29.49,2.68,82.0,14.65,2.99,C0V750
橋頭,22.757806,120.30575,0.24,29.53,-0.45,79.4,14.45,5.33,C0V760
大社,22.730306,120.346639,0.1,29.41,7.67,84.5,15.55,6.13,C0V770
萬山,22.905944,120.688056,0.73,26.51,7.29,88.6,14.86,-1.94,C0V790
六龜,22.997889,120.633583,0.3,27.44,6.51,85.6,22.85,3.23,C0V800
左營,22.67491,120.28491,-0.43,28.58,2.55,83.2,15.2,3.77,C0V810
小林,23.148408,120.63325,0.17,25.96,10.99,90.7,16.35,4.6,C0V820
東莒,25.9652,119.98069,0.73,24.95,-1.88,87.0,3.1,-4.71,C0W110
西嶼,23.5626,119.468436,0.4,26.58,-0.88,92.25,24.0,19.7,C0W120
花嶼,23.40007,119.32276,0.5,27.03,0.88,90.8,6.7,1.83,C0W130
金沙,24.488292,118.408778,0.1,26.53,-4.08,83.3,0.85,-2.72,C0W140
金寧,24.457703,118.328989,-0.79,26.41,-6.67,82.2,0.55,-3.17,C0W150
東河,23.296598,120.385608,-0.52,27.98,3.03,84.4,15.7,5.28,C0X050
下營,23.22695,120.256261,-0.01,28.45,0.38,83.1,11.65,1.23,C0X060
佳里,23.173039,120.145086,0.75,28.71,5.9,90.0,19.1,8.12,C0X080
臺南市北區,23.010394,120.194228,-0.38,29.2,9.46,84.2,13.2,4.87,C0X100
臺南市南區,22.961189,120.188378,-0.22,29.07,4.72,85.4,15.6,7.66,C0X110
麻豆,23.183289,120.248611,0.27,29.36,4.49,86.4,13.8,5.19,C0X120
官田,23.193217,120.315422,-0.14,28.81,11.75,90.7,13.05,4.58,C0X130
西港,23.125608,120.203108,-0.55,28.69,3.47,82.7,18.15,10.43,C0X140
安定,23.102614,120.227839,-0.05,29.0,6.67,87.3,23.2,15.92,C0X150
仁德,22.968258,120.257689,0.16,29.2,5.71,84.5,15.25,6.61,C0X160
關廟,22.963017,120.327797,-0.21,28.97,10.45,85.8,14.5,4.35,C0X170
山上,23.0757,120.363253,0.05,28.44,4.3,84.9,17.75,8.57,C0X180
安平,22.993161,120.152181,-0.27,28.91,0.4,82.7,14.25,6.47,C0X190
左鎮,23.056758,120.408522,0.89,28.72,1.27,85.2,22.2,11.74,C0X200
白河,23.347466,120.414427,-0.35,28.01,6.33,86.2,14.0,3.33,C0X210
學甲,23.230367,120.182187,-0.15,28.35,5.61,85.1,12.25,6.11,C0X220
鹽水,23.272621,120.247641,-0.25,28.11,4.28,86.4,9.85,2.17,C0X230
關子嶺,23.331169,120.508025,-0.06,25.94,7.27,91.7,25.0,5.74,C0X240
新營,23.310689,120.316681,-0.49,28.53,6.51,84.1,13.55,4.65,C0X250
後壁,23.366358,120.362326,-0.2,28.28,3.81,84.3,10.85,2.66,C0X260
將軍,23.214999,120.13577,-0.2,28.26,3.95,85.8,11.65,4.09,C0X280
北門,23.267772,120.125481,-0.15,28.37,0.2,85.3,11.2,4.44,C0X290
鹿寮,23.386047,120.477331,-0.17,27.47,2.88,87.2,14.7,2.82,C0X300
柳營,23.253328,120.375253,-0.29,28.03,8.58,86.5,13.6,11.43,C0X320
明里,23.208717,121.262342,0.48,26.51,2.56,91.7,7.55,1.0,C0Z020
佳心,23.34567,121.21316,1.28,23.14,12.07,97.4,15.1,8.07,C0Z050
玉里,23.3215,121.339656,1.24,27.47,6.71,95.6,14.1,6.38,C0Z061
舞鶴,23.46811,121.37407,1.68,26.54,8.42,99.7,16.4,11.0,C0Z070
富源,23.587642,121.378225,0.96,26.56,0.43,90.4,11.65,2.32,C0Z080
東華,23.89525,121.549833,0.73,27.76,2.98,89.1,1.35,-3.82,C0Z100
吉安光華,23.930925,121.595153,0.27,27.2,-1.85,85.8,12.0,6.2,C0Z150
鳳林,23.746114,121.453411,0.2,26.8,-0.31,84.2,7.45,-3.43,C0Z160
卓溪,23.3443,121.3029,-0.16,27.1,0.76,82.9,18.0,10.92,C0Z170
新城,24.040486,121.604878,0.23,27.26,14.8,98.8,7.95,1.12,C0Z180
富世,24.14743,121.6297,-0.07,27.05,0.94,88.3,15.05,6.4,C0Z190
萬榮,23.709219,121.420106,0.45,26.68,-1.72,85.7,7.8,-1.84,C0Z200
瑞穗,23.5239,121.39021,0.94,27.33,1.83,88.3,11.2,4.91,C0Z210
和平林道,24.343922,121.656317,0.22,24.24,-2.72,89.7,7.15,3.4,C0Z220
和平,24.30717,121.77007,-0.75,26.49,-0.54,83.9,8.8,1.16,C0Z230
瑞穗林道,23.49284,121.30688,0.52,21.92,4.31,98.5,14.3,4.22,C0Z250
蕃薯寮,23.73835,121.540108,0.35,25.49,-2.33,90.6,4.5,-4.46,C0Z270
德武,23.47426,121.41071,0.56,26.81,1.33,88.8,18.3,13.7,C0Z280
赤柯山,23.36893,121.38293,0.61,23.0,2.22,93.0,15.1,10.49,C0Z290
東里,23.26853,121.30547,0.41,27.2,-1.33,86.2,16.5,12.89,C0Z300
清水斷崖,24.218294,121.689142,-0.39,26.5,-0.78,89.0,9.45,-0.13,C0Z310
清水林道,23.27125,121.188272,0.44,24.52,2.27,87.3,13.4,7.9,C0Z320
安通山,23.290728,121.348528,0.1,25.28,5.97,91.8,16.25,13.82,C0Z330
口湖工作站,23.589978,120.180394,0.01,28.01,2.55,80.2,5.6,1.58,12J990
東港工作站,22.479997,120.466058,-0.19,28.86,3.58,73.2,10.45,7.01,12Q970
恆春工作站,22.079678,120.714425,0.92,28.72,-2.9,80.1,10.0,10.0,12Q980
萬大發電廠,23.978875,121.139639,1.49,22.79,-6.6,85.2,11.9,-6.07,42HA10
桃改樹林分場,24.944503,121.386972,-0.86,26.9,1.03,81.7,8.05,6.22,72AI40
桃園農改場,24.950944,121.030583,0.81,27.16,2.88,87.4,2.5,-8.8,72C440
桃改五峰分場,24.612194,121.157167,1.52,22.68,4.47,93.2,1.29,-10.76,72D080
臺中農改場,24.003028,120.534389,0.71,27.98,5.53,89.2,12.95,2.33,72G600
中改埔里分場,23.903208,120.963364,0.97,24.33,2.12,92.7,18.7,-7.59,72HA00
南改斗南分場,23.634556,120.477333,1.02,28.42,2.95,86.4,5.3,-8.05,72K220
南改義竹分場,23.360694,120.279361,0.25,27.97,-1.12,84.8,11.65,0.42,72M360
南改鹿草分場,23.416869,120.283061,0.01,28.15,6.15,88.5,9.4,-0.14,72M700
臺南農改場,23.0605,120.342194,0.46,28.18,6.05,89.1,17.3,7.81,72N100
七股研究中心,23.081672,120.062894,0.12,28.76,3.57,86.4,20.3,13.03,72N240
高雄農改場,22.709333,120.525889,0.45,28.6,7.39,88.0,15.05,-3.0,72Q010
東改班鳩分場,22.829528,121.077694,0.79,26.34,2.08,86.89,3.78,-3.95,72S200
東改賓朗果園,22.813889,121.071278,-23.98,1.17,-2.09,88.33,7.55,0.06,72S590
花蓮農改場,23.975222,121.563889,1.25,27.26,-0.52,84.5,11.94,5.41,72T250
花改蘭陽分場,24.686306,121.716583,1.04,27.01,-0.62,86.0,3.7,-4.9,72U480
高改旗南分場,22.857861,120.516667,-0.45,28.1,9.63,86.2,5.86,-12.55,72V140
茶改北部分場,24.955778,121.631222,1.47,24.96,2.01,88.6,4.65,-11.27,82A750
茶改場,24.908472,121.185333,0.66,26.44,0.5,84.5,2.75,-8.64,82C160
茶改中部分場,23.875611,120.913583,-0.02,22.88,4.32,93.56,23.22,1.78,82H320
茶改南部分場,23.762528,120.7405,0.19,25.41,3.39,91.6,0.3,-19.4,82H840
茶改東部分場,22.907694,121.130139,0.53,26.92,2.84,87.0,9.95,2.69,82S580
農工中心,24.985917,121.239833,0.99,27.11,6.24,82.5,3.2,-7.08,A2C560
水試臺西試驗場,23.717231,120.190522,0.09,28.18,6.68,90.7,0.0,-5.85,A2K360
臺大雲林校區,23.730628,120.423903,0.05,27.78,4.18,87.1,10.75,5.42,A2K630
臺南蘭花園區,23.340258,120.379661,0.17,28.01,5.35,88.6,10.2,6.03,A2N290
畜產試驗所,23.058972,120.336406,0.26,27.82,4.3,88.6,18.2,2.8,B2N890
畜試南區分所,21.945583,120.802167,0.09,28.09,0.11,83.1,8.2,-1.21,B2Q810
畜試東區分所,24.669039,121.832561,0.05,27.11,4.67,91.5,5.05,-0.95,B2U990
蓮華池,23.918333,120.885278,-0.29,24.1,7.59,91.6,26.2,5.72,E2H360
林試畢祿溪站,24.226944,121.308522,0.77,16.19,11.75,92.0,8.05,7.55,E2HA20
四湖植物園,23.676986,120.163433,0.16,28.02,9.08,96.6,8.2,-0.87,E2K600
林試六龜中心,22.991703,120.645722,-0.28,26.48,13.15,90.4,21.2,19.24,E2P980
林試太麻里2,22.598,120.99775,-0.08,28.19,6.38,82.8,1.4,-0.02,E2S960
林試太麻里1,22.598922,120.980044,-0.0,27.78,7.83,85.0,8.8,6.3,E2S980
農試所(霧峰),24.031261,120.688133,1.84,29.07,2.37,85.89,13.35,0.24,G2F820
農試嘉義分所,23.485028,120.473806,0.18,27.62,7.33,88.2,23.0,14.39,G2L020
農試溪口農場,23.58565,120.408111,0.67,28.1,3.48,86.0,5.4,-0.99,G2M350
農試鳳山分所,22.646611,120.356083,-0.06,28.47,6.44,84.4,12.9,-0.43,G2P820
苗栗農改場,24.495722,120.829111,0.33,27.14,3.61,83.7,4.3,-7.29,K2E360
苗改生物防治研究中心,24.422861,120.871833,-0.09,25.95,3.81,85.7,5.1,-1.03,K2E710
種苗改良場,24.225972,120.800917,0.88,25.81,10.92,93.0,8.8,-10.28,K2F750
臺大和社,23.590856,120.888864,2.23,24.28,1.59,90.5,7.1,-5.47,U2HA30
臺大內茅埔,23.689722,120.851117,1.39,25.27,1.15,88.3,7.7,-7.95,U2HA40
臺大竹山,23.756972,120.681556,0.21,27.41,5.02,85.8,14.75,-1.79,U2HA50
