站名,緯度,經度,平均溫距平,本年度平均溫,平均溼度距平,本年度日均相對溼度,本年度日均降水量,日均降水量距平,站號
淡水,25.164889,121.448906,0.93,28.03,1.3,81.74,3.02,-7.13,466900
鞍部,25.182586,121.529731,0.67,22.6,4.56,92.78,3.88,-9.83,466910
臺北,25.037658,121.514853,1.02,29.03,0.92,76.52,4.71,-7.58,466920
竹子湖,25.162078,121.544547,0.87,24.33,2.36,87.87,3.66,-8.52,466930
基隆,25.133314,121.740475,1.02,28.24,1.21,79.22,3.45,-8.39,466940
花蓮,23.975128,121.613275,0.49,27.75,3.76,84.57,11.62,5.45,466990
新屋,25.006725,121.047492,0.14,27.96,-0.47,83.26,1.45,-9.44,467050
宜蘭,24.763975,121.756528,0.73,27.78,3.89,85.7,4.94,-3.19,467080
金門,24.407306,118.289281,0.84,27.07,2.19,89.26,2.08,-3.58,467110
田中,23.873803,120.581286,-0.79,28.53,1.09,81.04,7.36,5.84,467270
澎湖,23.565503,119.563094,0.6,28.27,1.77,87.22,4.88,-1.28,467350
臺南,22.99328,120.20492,0.41,29.17,0.65,77.7,13.83,-0.47,467410
永康,23.038386,120.2367,0.62,29.1,3.41,78.09,15.25,0.85,467420
嘉義,23.495925,120.432906,0.35,28.6,3.55,80.7,14.86,2.63,467480
臺中,24.145736,120.684075,0.95,28.88,0.21,76.39,5.36,-7.69,467490
阿里山,23.508208,120.813242,0.45,14.79,2.54,93.13,18.23,-8.77,467530
大武,22.35572,120.90374,0.54,28.72,1.51,78.74,13.09,-0.41,467540
玉山,23.48718,120.95943,1.45,8.77,4.1,86.09,12.57,-5.92,467550
新竹,24.827853,121.014219,0.91,28.73,0.4,77.3,1.95,-7.62,467571
恆春,22.003897,120.746339,0.42,28.9,2.4,82.35,12.05,0.75,467590
成功,23.097486,121.373428,0.47,27.64,3.83,86.09,13.89,7.89,467610
日月潭,23.881325,120.90805,0.7,22.87,6.03,91.57,18.61,1.45,467650
臺東,22.752211,121.154586,0.53,28.68,3.11,81.0,9.09,1.23,467660
馬祖,26.169467,119.923158,1.4,25.94,1.9,89.91,5.08,-1.94,467990
山佳,24.974944,121.402008,1.69,29.23,-1.15,79.61,2.35,-8.23,C0A520
坪林,24.938183,121.70975,2.7,27.35,-2.95,89.26,5.83,-6.69,C0A530
泰平,24.971197,121.823711,1.21,24.96,-0.28,94.22,6.83,-6.34,C0A550
桶後,24.848222,121.597992,1.98,26.15,-5.27,87.28,9.72,-3.35,C0A570
石碇,24.993969,121.662917,1.18,26.43,-4.53,86.83,3.11,-12.84,C0A640
大坪,25.165914,121.632969,2.15,26.99,-3.73,84.67,5.31,-8.3,C0A860
五指山,25.132153,121.608692,2.56,25.28,-2.87,90.43,3.87,-7.88,C0A870
雙溪,25.036003,121.864242,2.23,28.23,-2.91,86.0,4.85,-6.72,C0A890
三和,25.233153,121.595236,0.51,26.5,-2.04,89.17,6.91,-10.05,C0A931
金山,25.223628,121.643967,0.88,27.43,-2.83,82.61,5.3,-6.17,C0A940
鼻頭角,25.129036,121.923372,1.42,27.89,-2.64,87.04,3.07,-4.12,C0A950
三貂角,25.007606,122.002058,1.03,27.19,2.04,89.48,6.13,-1.23,C0A970
社子,25.109508,121.469681,1.84,29.76,-0.41,78.74,2.43,-6.91,C0A980
天母,25.117494,121.537169,1.02,28.85,-4.18,72.87,2.48,-7.44,C0A9C0
內湖,25.079422,121.57545,1.71,29.71,-0.67,77.65,4.11,-7.21,C0A9F0
大屯山,25.175675,121.522408,2.31,23.12,2.3,97.65,3.93,-8.5,C0AC40
三峽,24.939025,121.369728,1.65,29.51,-0.69,80.57,4.07,-8.11,C0AC60
信義,25.037822,121.564597,1.44,29.33,-2.29,78.04,4.7,-8.18,C0AC70
文山,25.00235,121.575728,0.54,27.82,-3.57,81.3,4.74,-9.36,C0AC80
新莊,25.051478,121.446756,-0.01,28.62,0.58,75.09,2.43,-8.6,C0ACA0
八里,25.150211,121.403947,1.63,29.59,7.65,86.17,2.83,-5.77,C0AD10
蘆洲,25.086594,121.472331,1.05,29.84,0.4,76.22,2.41,-7.23,C0AD30
土城,24.973208,121.445169,0.45,27.93,-0.63,82.09,8.72,-4.73,C0AD40
鶯歌,24.951533,121.346294,1.41,29.23,0.74,82.83,2.22,-8.23,C0AD50
汐止,25.066881,121.658778,0.59,28.32,-3.87,79.59,2.86,-10.1,C0AH00
永和,25.01125,121.508111,1.24,29.64,1.7,77.35,8.46,-4.02,C0AH10
五分山,25.07125,121.780794,2.36,24.97,-1.63,92.22,5.3,-9.71,C0AH30
平等,25.129142,121.577086,0.53,26.21,-1.0,81.65,3.07,-9.56,C0AH40
林口,25.072181,121.38084,1.61,28.24,0.05,84.84,2.78,-8.45,C0AH50
松山,25.04871,121.55042,0.34,28.89,9.33,78.87,5.74,-0.51,C0AH70
深坑,25.002703,121.628328,1.14,27.98,-0.69,83.83,2.8,-6.49,C0AH80
福山植物園,24.760717,121.58135,0.69,23.64,1.46,93.74,8.59,1.13,C0AH90
五股,25.07445,121.42728,1.15,28.59,0.41,82.17,2.78,-6.67,C0AI00
屈尺,24.92184,121.54475,2.01,29.13,0.89,85.26,7.28,-3.44,C0AI10
白沙灣,25.283128,121.519058,0.37,27.6,7.24,85.52,2.96,-4.61,C0AI20
三重,25.057328,121.500629,-0.88,29.48,8.04,84.0,2.07,-0.61,C0AI30
石牌,25.115597,121.513139,0.52,29.97,7.03,76.61,2.26,-6.06,C0AI40
七堵,25.094819,121.71713,1.4,29.08,-1.73,82.3,3.5,-7.2,C0B010
基隆嶼,25.19141,121.78391,-0.02,27.14,6.92,95.52,1.22,-8.58,C0B020
復興,24.820208,121.352281,0.34,24.68,-7.96,78.39,7.54,-8.14,C0C460
桃園,24.992425,121.323172,0.78,28.8,1.21,74.96,3.11,-7.31,C0C480
八德,24.928708,121.283289,0.2,27.95,-2.59,76.48,3.26,-7.1,C0C490
觀音,25.027072,121.153317,0.32,27.27,6.5,88.17,4.15,-5.56,C0C590
蘆竹,25.084275,121.265767,0.67,28.42,-1.24,80.04,1.98,-7.41,C0C620
大溪,24.882853,121.265547,0.53,26.9,2.65,80.57,4.65,-5.54,C0C630
平鎮,24.897503,121.214636,0.79,27.2,0.48,80.74,3.85,-5.68,C0C650
楊梅,24.912375,121.143047,0.04,27.72,3.44,79.17,2.39,-7.32,C0C660
龍潭,24.870056,121.221389,0.15,26.87,1.94,80.0,6.09,-2.89,C0C670
龜山,25.02846,121.38656,-0.64,25.92,-1.6,78.13,2.89,-9.11,C0C680
中壢,24.977661,121.256375,0.41,28.08,1.1,75.57,2.35,-4.36,C0C700
大溪永福,24.892936,121.324975,0.71,27.35,0.32,84.22,4.09,-6.4,C0C710
梅花,24.678347,121.208558,0.57,24.5,2.08,89.87,7.52,-2.86,C0D360
峨眉,24.6905,121.017189,0.26,27.34,2.37,88.57,4.15,-5.09,C0D430
打鐵坑,24.849664,121.150789,0.2,25.85,-1.77,84.26,1.13,-8.63,C0D480
橫山,24.71116,121.11693,0.13,25.95,10.68,96.26,5.0,-5.07,C0D540
雪霸,24.526972,121.11605,0.49,18.34,1.08,85.48,5.34,-7.61,C0D550
竹東,24.767147,121.057881,1.54,28.39,-0.7,75.13,4.83,-3.49,C0D560
寶山,24.735006,121.025192,0.52,26.73,1.38,86.04,3.61,-5.46,C0D580
新豐,24.87068,120.97721,0.49,27.12,5.82,89.17,2.2,-7.88,C0D590
湖口,24.904794,121.043628,0.34,28.04,-2.64,76.91,1.98,-7.66,C0D650
新竹市東區,24.798681,120.986942,0.04,28.03,1.81,77.0,2.37,-7.06,C0D660
竹南,24.708978,120.888897,1.89,29.43,3.74,82.09,2.87,-6.48,C0E420
南庄,24.601775,121.000214,0.47,26.14,2.92,86.04,5.41,-5.98,C0E430
明德,24.583486,120.885411,0.65,28.51,-0.87,78.35,3.33,-4.98,C0E550
通霄,24.471892,120.704622,0.2,28.1,0.04,82.61,3.72,-4.56,C0E590
馬都安,24.451272,120.930192,0.7,23.54,5.08,87.3,7.43,-5.04,C0E610
頭份,24.688247,120.912206,1.49,29.79,1.3,75.3,4.2,-4.85,C0E730
造橋,24.637056,120.864778,0.24,28.5,-1.48,79.48,3.11,-5.52,C0E740
苗栗,24.564569,120.824575,-0.1,28.56,-2.59,71.74,2.74,-5.85,C0E750
銅鑼,24.489681,120.790853,0.22,27.98,-3.0,78.3,3.54,-5.78,C0E780
西湖,24.562947,120.7485,0.4,27.84,-2.16,84.39,3.3,-5.65,C0E810
獅潭,24.539133,120.920042,0.03,26.97,-2.8,80.61,3.8,-6.32,C0E820
苑裡,24.439714,120.653053,-0.11,28.33,-0.37,78.61,2.54,-6.35,C0E830
大河,24.618069,120.948578,-1.19,26.27,1.32,81.26,3.91,-7.18,C0E850
高鐵苗栗,24.60725,120.826094,0.19,28.48,9.76,83.52,3.35,-4.24,C0E870
石岡,24.276061,120.777644,0.62,27.38,0.36,81.39,8.52,-8.19,C0F0B0
中坑,24.248517,120.903319,-0.35,21.97,-0.78,89.78,12.63,-9.78,C0F0C0
審馬陣,24.381675,121.4203,0.48,11.56,5.41,87.17,10.13,3.28,C0F0D0
東勢,24.246428,120.833047,1.21,27.65,-1.63,78.3,8.17,-6.99,C0F850
大坑,24.173142,120.722289,1.29,29.51,1.02,76.7,4.85,-7.19,C0F970
神岡,24.272481,120.658314,-0.02,27.64,-4.1,79.04,4.33,-4.0,C0F9I0
大安,24.345061,120.588025,-0.14,28.04,-1.27,81.87,3.54,-3.56,C0F9K0
后里,24.310436,120.729725,0.66,28.38,-2.77,78.3,6.02,-4.5,C0F9L0
豐原,24.254322,120.720692,1.61,29.42,-3.3,74.3,5.2,-6.63,C0F9M0
大里,24.092464,120.701378,0.99,30.09,3.15,77.48,5.54,-5.66,C0F9N0
潭子,24.213106,120.703933,0.47,29.16,2.29,78.43,5.02,-6.81,C0F9O0
清水,24.312297,120.562242,-0.07,28.58,-2.76,79.91,3.2,-3.56,C0F9P0
外埔,24.347817,120.705686,0.11,27.7,-1.92,82.26,5.41,-3.31,C0F9Q0
龍井,24.184536,120.528972,0.23,28.78,-7.88,79.0,5.04,-2.77,C0F9R0
烏日,24.107058,120.624103,0.2,28.89,-0.76,75.61,6.09,-3.51,C0F9S0
西屯,24.179494,120.641275,0.17,28.9,-2.25,74.35,5.28,-4.5,C0F9T0
南屯,24.137006,120.637969,0.02,29.03,-0.45,75.3,5.76,-3.69,C0F9U0
新社,24.200172,120.815806,0.45,25.86,-3.14,82.22,10.83,-5.17,C0F9V0
大雅(中科園區),24.21528,120.62445,0.19,27.73,1.26,81.09,3.87,-7.97,C0F9X0
桃山,24.432739,121.303808,0.5,10.92,4.78,88.09,10.93,-4.45,C0F9Y0
雪山東峰,24.388792,121.268675,0.64,11.8,3.58,85.39,9.48,-7.75,C0F9Z0
芬園,24.015678,120.6213,-0.51,27.27,8.28,90.78,8.24,-2.54,C0G620
員林,23.946503,120.585597,2.6,30.67,-3.31,79.04,8.78,-2.36,C0G650
溪湖,23.94835,120.479122,0.93,29.18,-5.58,81.14,8.24,-1.77,C0G660
溪州,23.851589,120.499093,0.93,28.84,-6.82,75.65,11.38,-1.52,C0G720
二林,23.903325,120.376081,0.32,28.32,-0.32,87.61,10.48,-2.17,C0G730
大城,23.852487,120.320935,0.26,28.15,0.29,83.48,6.0,-5.49,C0G740
福興,24.041289,120.437669,0.08,29.23,-5.66,78.04,5.85,-2.63,C0G770
秀水,24.03405,120.503869,0.46,29.22,-1.26,81.83,8.35,-0.33,C0G780
埔鹽,24.000394,120.431683,0.8,29.02,-7.21,79.35,6.72,-1.94,C0G800
埔心,23.947633,120.525456,1.48,30.39,-1.55,78.35,8.22,-2.04,C0G810
田尾,23.901669,120.509389,0.52,29.1,1.33,85.78,9.57,-1.42,C0G820
埤頭,23.866003,120.452806,0.13,28.6,2.64,90.35,8.43,-1.55,C0G830
社頭,23.897647,120.5862,0.36,29.52,8.33,83.13,7.35,-3.75,C0G860
二水,23.810742,120.6173,1.11,29.55,0.53,81.62,7.52,-4.12,C0G880
伸港,24.148933,120.484403,-0.01,28.64,-4.66,78.83,5.26,-2.12,C0G890
線西,24.143358,120.443536,-0.83,28.61,0.22,80.7,4.87,-2.66,C0G900
花壇,24.032076,120.549461,1.33,30.73,11.61,86.13,8.48,6.18,C0G910
埔里,23.972169,120.952425,0.52,26.14,0.79,85.78,16.43,-4.3,C0H890
草屯,23.973672,120.68085,0.03,28.22,1.21,79.48,7.93,-4.06,C0H960
昆陽,24.121322,121.273642,1.07,11.61,0.85,90.09,10.41,-2.78,C0H990
神木村,23.532742,120.843667,0.72,19.71,0.79,91.74,14.3,-7.14,C0H9A0
合歡山,24.143442,121.272547,1.3,10.76,6.16,93.43,14.89,-10.77,C0H9C0
廬山,24.033311,121.181808,0.96,20.29,-1.83,84.91,10.37,-7.94,C0I010
信義,23.689694,120.851036,0.51,25.09,0.63,87.39,8.5,-8.43,C0I080
竹山,23.761225,120.688156,0.83,27.69,1.33,84.48,15.04,0.42,C0I110
水里,23.812553,120.849792,0.5,26.69,-0.94,81.43,14.43,-6.5,C0I360
魚池,23.895703,120.94135,0.49,24.76,-2.24,84.43,15.39,-6.01,C0I370
集集,23.828206,120.801467,0.08,26.91,1.39,85.17,13.89,-9.23,C0I380
仁愛,24.022122,121.132206,0.89,22.12,-4.46,84.48,9.7,-16.08,C0I390
名間,23.837053,120.701447,-0.11,27.11,5.69,85.78,11.28,-4.97,C0I410
國姓,24.037803,120.855072,0.43,26.61,-1.15,85.26,12.57,-12.33,C0I420
南投,23.911469,120.687331,0.16,28.43,6.87,84.52,8.3,-9.63,C0I460
梅峰,24.085272,121.173572,1.05,16.75,-2.71,88.61,12.98,-15.73,C0I480
萬大林道,23.928228,121.091411,0.73,19.87,-5.57,85.74,10.93,-8.85,C0I490
小奇萊,24.131764,121.295717,1.15,11.6,0.74,89.48,6.17,-12.82,C0I530
崙背,23.75555,120.318925,0.1,28.0,-0.91,85.09,10.46,-4.04,C0K250
四湖,23.630414,120.227125,0.79,28.53,-2.66,82.87,12.13,1.03,C0K280
宜梧,23.536281,120.169329,0.07,28.57,-1.67,82.3,11.72,1.0,C0K291
虎尾,23.719183,120.442036,0.69,28.8,5.25,84.17,10.41,-1.3,C0K330
土庫,23.679029,120.395574,0.16,28.4,-2.79,79.48,10.33,-3.2,C0K390
斗六,23.720583,120.541127,0.21,28.42,-3.53,77.13,7.33,-7.05,C0K400
北港,23.573957,120.292802,0.11,28.45,-2.59,80.17,10.35,1.21,C0K410
西螺,23.800407,120.467394,0.21,28.63,-2.1,79.3,9.07,-3.3,C0K420
褒忠,23.690938,120.303634,0.19,28.25,-1.33,82.48,10.39,-1.37,C0K430
二崙,23.772797,120.408944,0.48,28.63,5.88,88.96,9.02,-5.86,C0K440
大埤,23.646074,120.431537,0.3,28.52,-1.35,79.78,8.93,-5.4,C0K450
斗南,23.678734,120.478359,0.24,28.51,2.06,79.7,8.74,-6.12,C0K460
林內,23.748675,120.609642,0.2,27.73,-0.79,81.74,11.17,-4.2,C0K470
莿桐,23.761192,120.502372,0.23,28.27,0.01,79.78,7.17,-7.65,C0K480
元長,23.64981,120.315024,0.31,28.66,-0.08,81.22,11.96,-1.83,C0K500
水林,23.572924,120.24597,0.36,28.73,1.33,82.57,12.17,0.23,C0K510
臺西,23.701547,120.197559,0.01,28.17,0.66,83.43,12.63,-1.04,C0K530
蔦松,23.514319,120.229736,0.27,28.64,-0.26,83.13,11.96,2.16,C0K550
棋山,23.68645,120.603417,0.16,27.8,4.16,85.78,12.63,-6.22,C0K560
高鐵雲林,23.737456,120.417944,-0.31,28.05,-0.88,83.52,10.54,1.76,C0K580
東後寮,23.369908,120.248065,0.21,28.23,0.19,85.17,11.72,0.16,C0M520
奮起湖,23.493903,120.699253,0.73,20.47,2.2,94.35,20.04,-4.81,C0M530
中埔,23.42538,120.5229,-0.01,27.84,-1.11,76.61,12.83,-3.25,C0M640
朴子,23.43463,120.23902,-0.47,27.73,2.47,85.39,11.41,1.14,C0M650
溪口,23.604131,120.403569,0.11,28.29,-1.58,80.39,7.15,-4.26,C0M660
大林,23.600616,120.45841,0.25,28.76,0.11,78.43,9.48,-5.32,C0M670
太保,23.455062,120.331455,0.01,28.37,-2.76,80.61,11.39,-0.93,C0M680
水上,23.419734,120.388909,0.23,28.34,-1.14,80.39,15.48,2.58,C0M690
竹崎,23.526178,120.555508,-0.06,27.41,1.99,82.96,15.39,-0.16,C0M700
東石,23.458927,120.15385,-0.15,28.64,-2.8,79.96,12.65,2.75,C0M710
番路,23.464657,120.554156,0.24,27.5,1.83,79.78,16.39,-2.07,C0M720
嘉義市東區,23.457673,120.460531,0.07,28.78,2.36,79.74,14.43,1.33,C0M730
六腳,23.492871,120.290625,0.04,28.49,1.91,81.39,12.0,2.69,C0M740
布袋,23.380878,120.167789,0.2,28.79,-2.57,80.39,11.09,-0.87,C0M750
民雄,23.551754,120.428457,0.11,28.68,-0.77,79.3,9.54,-4.01,C0M760
嘉義梅山,23.585398,120.555587,-0.2,27.8,2.7,81.17,17.63,1.73,C0M770
鹿草,23.41134,120.30835,0.27,28.68,0.55,81.52,13.35,-0.47,C0M780
新港,23.553269,120.345728,-0.05,28.37,-0.81,80.09,8.98,-2.3,C0M790
茶山,23.299075,120.664767,0.2,25.45,0.96,87.0,16.15,-6.48,C0M800
里佳,23.389125,120.716647,0.5,20.9,-0.38,87.87,21.22,-10.16,C0M810
達邦,23.453994,120.749517,0.72,22.78,2.62,87.91,13.13,-12.41,C0M820
表湖,23.24186,120.64166,-0.55,23.75,1.32,87.83,14.3,-1.17,C0M850
新美,23.338017,120.683169,-0.28,25.1,9.86,87.22,16.72,12.92,C0M860
北寮,23.079561,120.495008,-0.14,27.7,7.06,89.61,21.52,10.12,C0O830
王爺宮,23.222064,120.40085,2.02,29.74,-4.58,78.52,14.76,2.29,C0O840
大內,23.11885,120.36083,0.69,29.5,3.95,85.74,15.37,4.2,C0O860
善化,23.112883,120.297219,0.57,28.54,8.2,91.52,15.07,0.82,C0O900
崎頂,22.959547,120.369317,0.9,28.68,-0.33,85.48,14.35,3.33,C0O960
虎頭埤,23.021375,120.347878,-0.18,27.87,-1.58,82.17,16.7,4.88,C0O970
新市,23.061614,120.298197,0.53,29.23,-1.94,81.35,14.54,4.46,C0O980
媽廟,22.99175,120.293525,0.25,28.92,0.65,83.17,13.22,1.93,C0O990
尾寮山,22.833111,120.683889,1.12,22.75,1.77,93.91,27.83,-1.69,C0R100
阿禮,22.742908,120.743678,0.23,22.59,-2.36,84.48,16.24,0.34,C0R130
瑪家,22.682903,120.686639,-0.49,23.8,10.65,95.09,23.63,0.8,C0R140
三地門,22.709889,120.639944,0.7,28.43,1.35,78.74,22.5,1.36,C0R150
鹽埔,22.739558,120.530778,0.34,28.73,-0.57,85.52,16.22,3.15,C0R160
赤山,22.592333,120.614306,-0.01,28.59,6.57,88.7,17.15,1.3,C0R190
潮州,22.534361,120.54,0.89,29.13,1.01,78.87,18.35,1.62,C0R220
來義,22.527306,120.625111,-0.82,27.25,9.3,90.26,18.07,2.5,C0R240
春日,22.370361,120.628306,-1.29,27.18,5.82,86.3,17.96,6.27,C0R260
琉球嶼,22.332244,120.362236,0.82,28.87,-4.44,81.74,8.3,-1.79,C0R270
車城,22.0744,120.716247,-0.53,28.71,3.62,85.22,13.33,9.77,C0R320
牡丹,22.130036,120.792639,-0.48,26.63,9.83,93.35,16.04,10.6,C0R341
貓鼻頭,21.921774,120.7358,0.57,28.59,0.69,84.61,12.63,3.13,C0R350
大漢山,22.405264,120.753181,0.29,18.26,3.47,97.91,35.61,22.81,C0R440
高樹,22.826389,120.600806,-0.28,28.39,0.63,77.35,19.2,4.23,C0R470
長治,22.693128,120.542622,0.64,29.5,-0.89,78.52,17.41,3.45,C0R480
九如,22.7405,120.490503,0.65,29.42,-2.05,79.48,18.7,5.34,C0R490
崁頂,22.514781,120.506914,-0.19,28.85,0.47,82.13,11.13,-1.16,C0R520
佳冬,22.419456,120.552375,-0.08,28.87,0.52,81.04,16.35,4.26,C0R540
新埤,22.467947,120.582894,-0.13,28.56,-4.25,78.09,18.07,6.77,C0R550
新園,22.5434,120.461558,0.93,29.85,-6.43,75.61,16.04,3.37,C0R560
麟洛,22.65078,120.52719,0.76,29.8,3.07,82.26,19.61,7.71,C0R570
南州,22.48591,120.50274,-0.2,28.6,5.18,84.65,15.2,3.72,C0R580
里港,22.77919,120.49459,0.2,28.72,1.79,83.3,17.74,5.99,C0R590
舊泰武,22.588194,120.664944,-0.13,24.33,2.65,86.7,11.27,-10.33,C0R600
墾雷,21.900836,120.855269,-0.4,28.3,8.55,92.74,13.65,5.92,C0R620
東港,22.46247,120.44074,-0.11,29.06,-0.71,82.39,12.3,9.46,C0R640
竹田,22.58486,120.54344,-0.33,28.99,-0.02,80.48,17.67,12.35,C0R650
枋寮,22.367722,120.590647,-0.11,28.83,6.8,85.04,12.91,11.61,C0R660
楓港,22.190131,120.692156,-0.82,28.33,0.73,79.57,17.37,14.57,C0R670
佳樂水,21.993578,120.861633,-0.95,28.51,7.17,86.09,13.24,11.42,C0R680
墾丁,21.966756,120.810269,-0.43,26.77,3.44,91.52,14.39,12.61,C0R690
枋山,22.246844,120.661086,0.21,28.9,0.53,80.17,46.5,45.14,C0R700
龍磐,21.931672,120.838942,-0.87,27.77,4.98,89.7,12.11,10.91,C0R710
旭海,22.205403,120.887614,-0.94,27.0,6.16,84.96,11.74,8.16,C0R720
大坪頂,22.024633,120.69355,-0.66,27.57,8.57,94.17,8.43,7.15,C0R730
四林格山,22.076989,120.802439,-0.27,24.54,0.91,96.43,17.09,9.27,C0R750
南仁湖,22.084681,120.863353,-0.95,25.75,12.1,96.26,21.28,13.24,C0R760
保力,22.071122,120.764111,-0.31,27.42,3.89,89.13,14.09,7.09,C0R770
滿州,22.024403,120.839892,-0.85,27.94,5.36,85.0,14.67,11.33,C0R780
九棚,22.14195,120.889281,-1.19,27.9,9.69,83.89,6.69,0.93,C0R790
丹路,22.204481,120.750989,-0.27,27.77,2.81,84.65,24.59,18.29,C0R800
內獅,22.305064,120.642986,-0.07,28.88,14.8,91.52,20.26,18.14,C0R810
白鷺,22.454275,120.666219,0.05,25.23,3.7,87.7,24.5,22.62,C0R820
高士,22.121825,120.836781,-0.88,25.54,8.64,92.0,18.09,10.41,C0R830
牡丹池山,22.168389,120.841225,-0.73,24.66,8.43,94.43,15.67,9.29,C0R840
下馬,23.150427,121.070312,0.26,24.06,5.28,85.61,9.3,7.89,C0S660
太麻里,22.60902,120.98533,0.88,25.39,4.27,88.55,8.32,-0.71,C0S690
知本,22.684866,121.005642,0.92,25.62,4.25,89.96,15.7,6.13,C0S700
鹿野,22.917711,121.122994,1.26,26.19,4.88,88.22,12.24,4.39,C0S710
綠島,22.6672,121.47533,1.05,28.14,-1.53,85.17,14.39,8.22,C0S730
池上,23.119628,121.209469,0.82,26.56,4.57,87.52,12.04,5.87,C0S740
向陽,23.248397,120.986133,0.98,16.29,12.8,89.96,12.87,-3.43,C0S750
大溪山,22.478475,120.943325,0.81,25.92,5.82,87.87,11.37,-0.29,C0S770
金崙,22.538122,120.966875,1.05,27.9,0.47,81.57,9.74,0.29,C0S790
東河,22.972672,121.303986,0.13,28.1,2.79,87.57,14.54,8.2,C0S810
長濱,23.286817,121.411975,0.78,27.1,3.07,87.04,13.37,8.0,C0S830
南田,22.279725,120.889208,0.56,28.46,1.26,80.17,13.3,0.9,C0S840
關山,23.0395,121.175017,0.28,27.11,5.42,88.22,11.39,5.98,C0S890
蘭嶼高中,22.04909,121.51214,-0.48,28.83,7.71,87.17,18.78,17.04,C0S900
蘭嶼燈塔,22.081197,121.503117,-0.31,27.33,8.55,92.43,17.5,16.08,C0S910
金峰嘉蘭,22.594789,120.960825,-0.61,27.83,3.76,80.52,12.41,7.59,C0S920
延平,22.902581,121.084058,-1.07,26.84,10.93,84.57,12.35,9.58,C0S930
石寧山,23.223772,121.406639,-0.75,28.03,6.53,87.09,14.5,13.0,C0S940
七塊厝,22.954453,121.229922,-0.12,26.51,-1.8,83.52,14.64,9.13,C0S950
香蘭,22.587569,120.993375,-0.4,28.64,10.39,84.11,11.41,8.69,C0S960
加津林,22.416211,120.926942,-0.04,28.45,3.98,80.7,12.39,9.01,C0S970
勝林山,22.430439,120.8938,-1.78,23.0,11.9,91.3,13.09,8.65,C0S980
山豬窟,22.318619,120.857372,-1.53,26.09,12.04,86.16,15.7,11.04,C0S990
歷坵,22.520969,120.89185,0.07,25.77,1.52,87.0,12.0,7.43,C0SA00
檳榔四格山,22.810031,121.109308,-0.96,25.9,7.45,89.65,9.61,7.45,C0SA10
金崙山,22.567419,120.959667,-0.13,24.23,2.03,86.43,13.67,10.12,C0SA20
都歷,23.020333,121.323642,-0.23,28.12,0.86,79.78,13.26,9.56,C0SA30
瑞和,22.974361,121.156697,-0.98,27.12,6.02,84.78,11.7,8.37,C0SA40
知本（水試所）,22.702394,121.082761,-0.68,28.3,6.92,84.96,10.54,8.86,C0SA60
土坂,22.453108,120.887572,0.01,27.96,7.99,83.65,13.76,8.86,C0SA80
達仁林場,22.264347,120.823972,-0.8,25.33,11.1,89.74,21.7,13.68,C0SA90
大禹嶺,24.186117,121.316086,0.56,13.52,2.78,87.43,10.2,-0.42,C0T790
天祥,24.179597,121.495639,0.91,24.51,5.0,86.87,9.59,4.36,C0T820
鯉魚潭,23.935639,121.508944,0.52,26.08,1.51,90.7,11.46,4.93,C0T870
西林,23.8119,121.441458,0.79,27.04,7.14,87.52,8.59,2.48,C0T900
光復,23.660694,121.424964,1.23,27.63,-1.69,85.52,10.37,3.11,C0T960
月眉山,23.809928,121.539828,1.22,25.24,-1.02,92.48,7.87,2.01,C0T9A0
水源,23.991861,121.537169,0.94,24.54,0.07,91.87,13.61,6.54,C0T9B0
和中,24.26676,121.74103,0.66,27.56,10.45,100.0,10.33,2.97,C0T9D0
大坑,23.880628,121.581981,0.9,25.57,4.05,92.65,15.13,8.68,C0T9E0
水璉,23.797131,121.542514,0.51,26.63,4.19,91.17,7.61,1.82,C0T9F0
鳳林山,23.735269,121.420131,0.1,24.71,0.88,93.43,12.65,4.91,C0T9G0
加路蘭山,23.682947,121.5274,1.26,24.76,6.3,98.39,9.54,1.84,C0T9H0
豐濱,23.583897,121.514806,1.21,27.04,-3.07,85.87,8.43,1.89,C0T9I0
靜浦,23.455167,121.495028,0.91,27.38,6.7,93.04,12.74,7.05,C0T9M0
富里,23.171639,121.249378,-0.85,26.99,19.66,98.78,10.2,8.54,C0T9N0
雙連埤,24.753033,121.641303,0.12,23.85,-2.29,93.09,7.37,-2.95,C0U520
礁溪,24.817539,121.765608,1.02,27.68,-2.81,84.09,4.09,-4.57,C0U600
玉蘭,24.675286,121.587061,1.17,25.67,-1.88,83.65,8.13,-1.67,C0U650
太平山,24.505486,121.525656,1.1,18.14,-0.37,92.22,13.87,1.61,C0U710
南山,24.43742,121.38167,0.44,22.13,-5.54,84.57,5.3,-0.41,C0U720
龜山島,24.841667,121.953133,-0.15,24.58,-1.01,93.43,3.07,-1.17,C0U750
東澳,24.52196,121.83318,0.86,27.9,-4.02,83.57,5.35,-3.51,C0U760
南澳,24.44935,121.81022,0.29,27.43,2.19,88.7,2.93,-3.35,C0U770
五結,24.68637,121.79794,0.07,27.74,-1.4,83.17,5.0,-1.19,C0U780
頭城,24.85323,121.8308,0.11,27.69,-1.05,88.43,4.5,-2.78,C0U860
大礁溪,24.791042,121.675047,0.35,25.0,6.1,93.26,8.26,1.11,C0U870
三星,24.66812,121.65302,0.27,27.02,-6.31,82.3,6.78,0.16,C0U890
內城,24.71813,121.68766,0.77,27.64,-2.21,84.87,5.2,-1.7,C0U900
冬山,24.63373,121.7937,0.85,28.2,-0.49,80.04,6.15,-1.43,C0U910
羅東,24.68184,121.74934,0.85,28.1,0.95,83.52,3.98,-2.27,C0U940
鶯子嶺,24.89754,121.79244,0.69,21.95,-3.99,91.17,8.76,-1.44,C0U950
翠峰湖,24.510856,121.608044,1.11,18.03,1.21,93.35,12.85,4.73,C0U960
大福,24.80064,121.81389,-0.09,27.18,1.52,85.78,3.91,-2.15,C0U970
坪林石牌,24.86478,121.77396,0.47,24.15,2.1,95.52,6.91,-1.35,C0U980
員山,24.74435,121.72247,0.31,27.67,3.4,86.48,4.35,-2.27,C0U990
土場,24.576533,121.495333,-0.01,25.5,-2.71,86.17,5.85,-0.66,C0UA00
鴛鴦湖,24.590269,121.412228,0.69,18.61,2.53,96.43,14.93,3.01,C0UA10
白嶺,24.527819,121.519031,0.55,20.81,-1.88,92.48,15.87,6.11,C0UA30
西德山,24.560647,121.752608,0.7,21.99,1.84,94.22,9.8,2.12,C0UA40
西帽山,24.555361,121.802628,0.5,23.48,-4.78,87.78,10.09,0.41,C0UA50
樟樹山,24.41393,121.78325,0.39,24.86,2.98,89.09,4.61,-2.8,C0UA60
桃源谷,24.962606,121.888875,0.46,24.39,-0.39,95.74,8.0,-2.47,C0UA70
復興,23.222403,120.806089,0.59,24.52,3.04,84.83,15.46,-1.14,C0V210
溪埔,22.738578,120.446797,0.02,28.53,4.38,85.61,19.22,6.55,C0V350
內門,22.975481,120.466769,0.97,28.52,1.79,85.57,23.07,8.51,C0V360
古亭坑,22.893178,120.401947,0.29,27.58,2.02,86.59,20.65,3.83,C0V370
阿公店,22.804194,120.355528,-0.25,28.17,2.06,84.09,14.11,2.62,C0V400
鳳山,22.646653,120.356122,-0.56,28.55,7.68,85.7,12.05,1.14,C0V440
鳳森,22.545064,120.392592,-0.21,28.4,-0.49,82.74,14.78,2.92,C0V450
新興,22.627422,120.298803,0.47,29.56,-2.45,76.61,15.26,3.77,C0V490
阿蓮,22.883208,120.327508,0.01,28.99,0.66,81.87,15.18,1.62,C0V530
梓官,22.760558,120.267211,-0.2,28.97,-0.73,80.3,15.65,3.94,C0V610
永安,22.82315,120.236856,-0.22,28.74,-2.81,81.3,12.8,1.34,C0V620
茄萣,22.906642,120.182608,0.22,29.37,3.52,81.83,17.35,6.42,C0V630
湖內,22.887139,120.2445,-0.56,28.45,-0.67,80.61,13.35,2.53,C0V640
彌陀,22.783806,120.246361,0.01,28.91,-2.88,81.87,13.8,2.64,C0V650
岡山,22.797078,120.294958,0.29,29.72,0.46,78.96,18.33,5.77,C0V660
仁武,22.701083,120.347722,0.14,29.72,1.12,78.96,15.0,3.24,C0V680
鼓山,22.623325,120.275575,-0.15,29.06,-0.04,80.91,13.04,3.06,C0V690
三民,22.645017,120.311233,-0.06,29.61,3.03,76.22,15.98,4.14,C0V700
苓雅,22.622742,120.330669,0.51,29.9,6.26,79.9,16.12,5.04,C0V710
林園,22.507747,120.394511,0.41,30.07,3.25,79.91,13.0,1.67,C0V720
大寮,22.605614,120.395717,-0.29,29.07,6.22,83.13,19.02,7.85,C0V730
旗山,22.888614,120.483597,1.02,29.37,-1.08,78.61,21.96,8.57,C0V740
路竹,22.854997,120.259439,0.43,29.63,-0.7,78.57,13.8,0.92,C0V750
橋頭,22.757806,120.30575,0.34,29.76,-3.86,75.52,15.76,4.51,C0V760
大社,22.730306,120.346639,0.21,29.61,3.74,80.43,16.76,4.6,C0V770
萬山,22.905944,120.688056,0.45,26.3,3.95,85.48,17.23,1.53,C0V790
六龜,22.997889,120.633583,0.28,27.44,3.77,83.17,23.57,5.09,C0V800
左營,22.67491,120.28491,-0.16,28.87,-1.04,79.7,15.54,2.4,C0V810
小林,23.148408,120.63325,-0.09,25.97,7.59,87.17,14.43,3.81,C0V820
東莒,25.9652,119.98069,1.16,25.99,-1.13,87.41,1.78,-5.89,C0W110
西嶼,23.5626,119.468436,0.67,26.92,-1.31,92.24,9.52,4.21,C0W120
花嶼,23.40007,119.32276,0.48,27.14,0.46,90.52,3.24,-3.05,C0W130
金沙,24.488292,118.408778,0.99,27.42,-3.19,84.17,1.67,-3.53,C0W140
金寧,24.457703,118.328989,0.07,27.28,-4.9,83.65,1.37,-3.2,C0W150
東河,23.296598,120.385608,-0.19,28.2,-2.79,79.0,14.11,0.12,C0X050
下營,23.22695,120.256261,0.4,28.67,-3.77,79.83,14.43,1.64,C0X060
佳里,23.173039,120.145086,0.72,28.9,2.55,87.35,17.39,5.41,C0X080
臺南市北區,23.010394,120.194228,-0.08,29.51,5.0,79.91,11.83,2.01,C0X100
臺南市南區,22.961189,120.188378,-0.05,29.27,0.52,81.78,13.09,3.34,C0X110
麻豆,23.183289,120.248611,0.59,29.67,1.15,82.52,15.07,4.82,C0X120
官田,23.193217,120.315422,0.07,29.0,7.56,87.17,12.8,2.48,C0X130
西港,23.125608,120.203108,-0.3,28.98,-0.51,78.91,17.89,8.2,C0X140
安定,23.102614,120.227839,0.24,29.33,2.7,83.3,16.39,7.24,C0X150
仁德,22.968258,120.257689,0.24,29.3,2.15,81.52,14.2,3.53,C0X160
關廟,22.963017,120.327797,-0.16,29.08,6.88,82.57,13.09,1.35,C0X170
山上,23.0757,120.363253,0.06,28.47,1.74,82.74,16.2,5.05,C0X180
安平,22.993161,120.152181,-0.03,29.2,-5.22,77.0,13.13,4.25,C0X190
左鎮,23.056758,120.408522,0.88,28.73,-1.2,83.09,16.02,4.94,C0X200
白河,23.347466,120.414427,0.03,28.26,1.39,81.57,13.22,-0.11,C0X210
學甲,23.230367,120.182187,0.17,28.7,1.82,81.3,13.35,4.61,C0X220
鹽水,23.272621,120.247641,0.13,28.37,0.14,83.0,13.39,2.7,C0X230
關子嶺,23.331169,120.508025,0.0,26.04,3.69,87.57,22.61,3.25,C0X240
新營,23.310689,120.316681,-0.18,28.79,2.01,79.83,15.76,4.67,C0X250
後壁,23.366358,120.362326,-0.03,28.48,-0.38,79.96,13.93,3.32,C0X260
將軍,23.214999,120.13577,0.17,28.57,-0.36,81.7,13.04,2.89,C0X280
北門,23.267772,120.125481,-0.19,28.67,-2.18,82.0,11.93,1.38,C0X290
鹿寮,23.386047,120.477331,0.04,27.59,-0.97,83.52,15.79,1.67,C0X300
柳營,23.253328,120.375253,-0.63,28.23,6.64,82.48,12.43,10.99,C0X320
明里,23.208717,121.262342,0.29,26.56,1.62,89.74,11.54,5.2,C0Z020
佳心,23.34567,121.21316,0.91,23.27,10.03,94.78,13.5,6.61,C0Z050
玉里,23.3215,121.339656,0.86,27.54,7.91,96.17,14.98,7.86,C0Z061
舞鶴,23.46811,121.37407,1.23,26.66,9.46,99.43,16.78,11.36,C0Z070
富源,23.587642,121.378225,0.76,26.72,-0.27,88.83,11.46,3.81,C0Z080
東華,23.89525,121.549833,0.6,27.91,3.25,89.04,4.24,0.06,C0Z100
吉安光華,23.930925,121.595153,0.44,27.38,-2.31,85.22,13.7,9.51,C0Z150
鳳林,23.746114,121.453411,0.34,27.08,-0.52,82.83,8.35,1.92,C0Z160
卓溪,23.3443,121.3029,-0.14,27.26,-0.65,80.7,15.26,9.19,C0Z170
新城,24.040486,121.604878,0.34,27.6,15.83,98.7,9.83,4.86,C0Z180
富世,24.14743,121.6297,0.28,27.56,-2.34,85.43,11.72,5.26,C0Z190
萬榮,23.709219,121.420106,0.61,27.02,-2.11,84.0,11.15,5.18,C0Z200
瑞穗,23.5239,121.39021,0.85,27.49,1.44,86.78,12.52,7.48,C0Z210
和平林道,24.343922,121.656317,0.28,24.57,-3.04,88.39,9.48,6.1,C0Z220
和平,24.30717,121.77007,-0.7,26.8,-1.55,83.09,10.15,3.47,C0Z230
瑞穗林道,23.49284,121.30688,0.52,22.15,2.78,96.43,14.67,6.49,C0Z250
蕃薯寮,23.73835,121.540108,0.64,25.85,-2.89,89.22,8.09,0.99,C0Z270
德武,23.47426,121.41071,0.6,26.99,0.26,87.3,17.37,13.34,C0Z280
赤柯山,23.36893,121.38293,0.69,23.23,-0.84,89.39,16.61,12.16,C0Z290
東里,23.26853,121.30547,0.37,27.3,-3.14,84.26,17.57,14.05,C0Z300
清水斷崖,24.218294,121.689142,-0.19,26.91,-2.54,87.39,7.89,0.64,C0Z310
清水林道,23.27125,121.188272,0.16,24.45,0.15,84.87,12.54,7.36,C0Z320
安通山,23.290728,121.348528,0.17,25.57,4.02,89.22,17.13,13.48,C0Z330
口湖工作站,23.589978,120.180394,0.05,28.29,0.57,77.0,10.93,7.91,12J990
東港工作站,22.479997,120.466058,-0.27,29.06,1.42,70.0,12.61,9.62,12Q970
恆春工作站,22.079678,120.714425,-0.3,28.77,3.53,78.96,12.11,5.14,12Q980
萬大發電廠,23.978875,121.139639,0.69,22.64,-7.34,82.78,9.33,-0.86,42HA10
桃改樹林分場,24.944503,121.386972,-1.05,27.63,1.41,78.61,4.83,0.39,72AI40
桃園農改場,24.950944,121.030583,1.11,28.07,-0.36,82.52,1.43,-6.97,72C440
桃改五峰分場,24.612194,121.157167,1.09,22.67,1.21,89.48,4.92,-5.12,72D080
臺中農改場,24.003028,120.534389,0.57,28.26,4.52,87.39,9.48,-0.15,72G600
中改埔里分場,23.903208,120.963364,0.38,24.24,1.83,91.13,13.82,-3.35,72HA00
南改斗南分場,23.634556,120.477333,0.75,28.51,0.55,83.17,6.7,-4.35,72K220
南改義竹分場,23.360694,120.279361,0.18,28.19,-4.4,81.43,13.22,1.49,72M360
南改鹿草分場,23.416869,120.283061,-0.05,28.4,3.82,84.39,10.07,3.26,72M700
臺南農改場,23.0605,120.342194,0.18,28.18,3.61,86.61,15.48,3.92,72N100
七股研究中心,23.081672,120.062894,0.1,29.07,1.92,83.26,17.39,12.06,72N240
高雄農改場,22.709333,120.525889,0.37,28.7,3.41,84.3,16.15,-0.86,72Q010
東改班鳩分場,22.829528,121.077694,0.46,26.51,0.78,84.36,8.68,0.6,72S200
東改賓朗果園,22.813889,121.071278,-5.82,19.79,2.92,93.0,10.83,3.56,72S590
花蓮農改場,23.975222,121.563889,1.03,27.58,-1.09,83.04,12.48,7.01,72T250
花改蘭陽分場,24.686306,121.716583,1.02,27.61,-1.86,84.3,5.48,-1.71,72U480
高改旗南分場,22.857861,120.516667,-0.59,28.16,6.36,83.0,2.31,-15.03,72V140
茶改北部分場,24.955778,121.631222,1.52,25.69,1.03,87.0,5.39,-8.77,82A750
茶改場,24.908472,121.185333,0.86,27.27,-4.28,79.17,3.02,-6.33,82C160
茶改中部分場,23.875611,120.913583,0.11,23.26,1.81,90.93,19.54,2.86,82H320
茶改南部分場,23.762528,120.7405,-0.19,25.37,0.17,88.7,18.53,3.14,82H840
茶改東部分場,22.907694,121.130139,0.18,27.03,3.16,85.39,12.39,4.45,82S580
農工中心,24.985917,121.239833,1.19,28.14,1.42,76.74,2.22,-5.95,A2C560
水試臺西試驗場,23.717231,120.190522,0.24,28.56,2.49,87.43,11.61,4.67,A2K360
臺大雲林校區,23.730628,120.423903,-0.33,28.08,3.39,83.35,9.78,7.2,A2K630
臺南蘭花園區,23.340258,120.379661,-0.19,28.1,4.53,85.65,12.2,9.56,A2N290
畜試北區分所,24.527806,120.770972,2.2,29.31,-4.01,77.93,2.84,-5.74,B2E890
畜產試驗所,23.058972,120.336406,0.03,27.83,1.69,86.09,16.24,1.12,B2N890
畜試南區分所,21.945583,120.802167,-0.07,28.07,-1.86,82.09,13.87,4.1,B2Q810
畜試東區分所,24.669039,121.832561,-0.27,27.69,7.1,90.78,6.39,3.39,B2U990
蓮華池,23.918333,120.885278,-0.7,24.09,5.79,89.39,17.76,0.46,E2H360
林試畢祿溪站,24.226944,121.308522,-0.06,15.71,12.78,90.78,9.57,9.37,E2HA20
四湖植物園,23.676986,120.163433,0.07,28.37,9.86,95.0,13.65,7.22,E2K600
林試六龜中心,22.991703,120.645722,-0.74,26.43,11.22,87.7,20.8,18.7,E2P980
林試太麻里2,22.598,120.99775,-0.4,28.13,3.71,80.43,0.61,-1.95,E2S960
林試太麻里1,22.598922,120.980044,-0.27,27.79,5.28,82.48,12.74,9.64,E2S980
農試所(霧峰),24.031261,120.688133,1.09,28.67,-0.81,82.0,8.57,-3.03,G2F820
農試嘉義分所,23.485028,120.473806,0.09,27.81,1.63,82.04,16.43,6.68,G2L020
農試溪口農場,23.58565,120.408111,0.94,28.46,0.52,82.0,7.65,2.7,G2M350
農試鳳山分所,22.646611,120.356083,0.02,28.7,2.37,80.57,15.2,1.35,G2P820
苗栗農改場,24.495722,120.829111,0.44,27.81,-0.9,78.13,3.2,-6.67,K2E360
苗改生物防治研究中心,24.422861,120.871833,0.04,26.21,0.54,82.0,6.48,-3.59,K2E710
種苗改良場,24.225972,120.800917,0.73,26.06,5.76,87.7,8.5,-7.17,K2F750
臺大和社,23.590856,120.888864,1.23,23.93,2.85,89.43,9.52,-1.02,U2HA30
臺大內茅埔,23.689722,120.851117,0.41,25.06,1.94,86.78,7.61,-3.28,U2HA40
臺大竹山,23.756972,120.681556,0.12,27.45,1.47,82.39,14.2,0.62,U2HA50
