站名,緯度,經度,平均溫距平,本年度平均溫,平均溼度距平,本年度日均相對溼度,本年度日均降水量,日均降水量距平,站號
淡水,25.164889,121.448906,1.0,27.61,2.57,83.62,4.02,-8.59,466900
鞍部,25.182586,121.529731,0.89,22.39,5.03,94.06,5.14,-11.34,466910
臺北,25.037658,121.514853,1.1,28.58,2.22,78.81,5.85,-7.94,466920
竹子湖,25.162078,121.544547,1.06,24.09,3.25,89.44,5.0,-9.63,466930
基隆,25.133314,121.740475,1.07,27.72,2.28,81.25,4.67,-9.62,466940
花蓮,23.975128,121.613275,0.59,27.49,4.36,85.62,16.2,9.71,466990
新屋,25.006725,121.047492,0.23,27.68,0.52,84.81,2.01,-11.14,467050
宜蘭,24.763975,121.756528,0.91,27.49,3.99,86.44,5.42,-4.73,467080
金門,24.407306,118.289281,1.06,26.78,2.09,88.5,1.23,-4.73,467110
田中,23.873803,120.581286,-0.46,28.42,0.94,83.06,9.1,6.92,467270
澎湖,23.565503,119.563094,0.66,28.02,2.86,88.38,7.01,0.47,467350
臺南,22.99328,120.20492,0.4,28.92,2.81,80.31,19.85,4.01,467410
永康,23.038386,120.2367,0.65,28.88,5.49,80.62,21.91,6.28,467420
嘉義,23.495925,120.432906,0.59,28.51,3.95,82.12,19.98,6.35,467480
臺中,24.145736,120.684075,1.07,28.71,1.86,78.69,7.47,-7.8,467490
阿里山,23.508208,120.813242,0.87,15.02,2.52,93.56,24.19,-7.59,467530
大武,22.35572,120.90374,0.94,28.82,0.62,78.5,18.32,3.65,467540
玉山,23.48718,120.95943,1.87,8.94,5.34,88.94,15.89,-5.94,467550
新竹,24.827853,121.014219,1.05,28.42,2.0,79.56,2.64,-9.29,467571
恆春,22.003897,120.746339,0.51,28.79,3.64,83.38,16.57,3.8,467590
成功,23.097486,121.373428,0.51,27.38,4.9,87.44,19.96,13.33,467610
日月潭,23.881325,120.90805,0.91,22.88,7.33,93.06,23.69,3.47,467650
臺東,22.752211,121.154586,0.58,28.4,4.64,83.06,13.05,5.01,467660
馬祖,26.169467,119.923158,1.42,25.36,3.18,91.19,7.27,0.33,467990
山佳,24.974944,121.402008,1.7,28.78,0.3,81.62,3.28,-8.5,C0A520
坪林,24.938183,121.70975,2.84,27.08,-2.96,89.56,7.44,-6.69,C0A530
泰平,24.971197,121.823711,1.33,24.64,0.21,95.06,9.66,-6.2,C0A550
桶後,24.848222,121.597992,2.41,26.19,-5.35,87.36,13.34,-0.59,C0A570
石碇,24.993969,121.662917,1.23,26.17,-4.21,87.44,3.81,-12.71,C0A640
大坪,25.165914,121.632969,2.54,26.82,-2.92,86.14,7.93,-8.51,C0A860
五指山,25.132153,121.608692,2.67,24.88,-2.19,91.69,5.5,-7.93,C0A870
雙溪,25.036003,121.864242,2.4,27.9,-2.6,86.88,6.72,-7.23,C0A890
三和,25.233153,121.595236,0.49,26.06,-2.38,90.38,9.47,-11.28,C0A931
金山,25.223628,121.643967,0.91,26.89,-1.13,85.38,7.31,-6.77,C0A940
鼻頭角,25.129036,121.923372,1.4,27.45,-1.77,88.44,4.41,-4.59,C0A950
三貂角,25.007606,122.002058,1.16,26.88,3.01,89.88,7.91,-1.02,C0A970
社子,25.109508,121.469681,1.87,29.26,0.88,80.69,3.34,-7.97,C0A980
天母,25.117494,121.537169,1.14,28.49,-3.16,74.25,3.22,-8.55,C0A9C0
內湖,25.079422,121.57545,1.72,29.16,1.07,80.19,5.31,-7.51,C0A9F0
大屯山,25.175675,121.522408,2.49,22.94,2.98,98.19,5.38,-9.16,C0AC40
三峽,24.939025,121.369728,1.68,29.21,0.7,82.62,5.38,-7.93,C0AC60
信義,25.037822,121.564597,1.35,28.84,-0.57,80.5,6.19,-7.94,C0AC70
文山,25.00235,121.575728,0.58,27.53,-3.15,82.12,6.34,-7.98,C0AC80
新莊,25.051478,121.446756,0.0,28.24,2.87,78.38,3.47,-8.58,C0ACA0
八里,25.150211,121.403947,1.6,29.17,9.34,88.88,3.97,-6.0,C0AD10
蘆洲,25.086594,121.472331,0.99,29.38,1.49,78.12,3.41,-7.51,C0AD30
土城,24.973208,121.445169,0.45,27.61,0.59,83.62,11.97,-2.21,C0AD40
鶯歌,24.951533,121.346294,1.4,28.86,1.91,85.0,3.12,-8.61,C0AD50
汐止,25.066881,121.658778,0.52,27.89,-2.54,81.69,3.72,-10.24,C0AH00
永和,25.01125,121.508111,1.27,29.3,2.74,79.06,8.56,-5.71,C0AH10
五分山,25.07125,121.780794,2.55,24.69,-1.58,93.62,7.09,-10.28,C0AH30
平等,25.129142,121.577086,0.7,25.88,-0.82,83.56,4.31,-11.76,C0AH40
林口,25.072181,121.38084,1.63,27.73,1.46,88.25,3.84,-9.09,C0AH50
松山,25.04871,121.55042,0.4,28.47,10.08,81.0,6.59,-0.44,C0AH70
深坑,25.002703,121.628328,1.23,27.72,-0.51,84.44,3.81,-4.39,C0AH80
福山植物園,24.760717,121.58135,0.76,23.44,2.03,94.44,9.19,1.85,C0AH90
五股,25.07445,121.42728,1.06,28.12,-0.38,84.12,3.84,-4.45,C0AI00
屈尺,24.92184,121.54475,2.17,28.93,0.88,85.56,8.03,-2.42,C0AI10
白沙灣,25.283128,121.519058,0.34,27.24,8.15,87.12,4.06,-3.3,C0AI20
三重,25.057328,121.500629,-0.87,28.91,9.08,87.69,2.56,-1.16,C0AI30
石牌,25.115597,121.513139,0.67,29.66,7.85,78.62,3.16,-4.69,C0AI40
七堵,25.094819,121.71713,1.44,28.62,-1.3,84.31,4.78,-5.44,C0B010
基隆嶼,25.19141,121.78391,-0.12,26.67,7.13,96.44,1.72,-7.56,C0B020
復興,24.820208,121.352281,-0.08,23.95,-8.71,78.06,6.72,-9.94,C0C460
桃園,24.992425,121.323172,0.66,28.24,3.78,78.62,4.44,-7.77,C0C480
八德,24.928708,121.283289,0.18,27.56,-0.77,79.19,4.59,-6.78,C0C490
觀音,25.027072,121.153317,0.41,26.94,7.26,89.75,5.94,-5.36,C0C590
蘆竹,25.084275,121.265767,0.57,27.98,0.52,82.62,2.81,-7.72,C0C620
大溪,24.882853,121.265547,0.61,26.59,3.75,82.75,5.38,-6.27,C0C630
平鎮,24.897503,121.214636,0.87,26.87,1.73,82.88,5.25,-5.54,C0C650
楊梅,24.912375,121.143047,0.09,27.39,5.01,82.0,3.25,-8.36,C0C660
龍潭,24.870056,121.221389,0.29,26.64,3.13,82.19,5.81,-5.17,C0C670
龜山,25.02846,121.38656,-0.33,25.72,-0.15,81.31,4.12,-10.15,C0C680
中壢,24.977661,121.256375,0.42,27.62,2.67,78.38,3.28,-4.44,C0C700
大溪永福,24.892936,121.324975,0.8,27.1,0.7,85.56,4.94,-5.76,C0C710
梅花,24.678347,121.208558,0.89,24.49,2.55,90.62,8.09,-3.03,C0D360
峨眉,24.6905,121.017189,0.42,27.28,2.76,89.44,5.09,-4.72,C0D430
打鐵坑,24.849664,121.150789,0.34,25.66,-0.87,85.75,1.34,-10.27,C0D480
橫山,24.71116,121.11693,0.28,25.81,10.22,96.75,4.75,-6.59,C0D540
雪霸,24.526972,121.11605,0.87,18.46,1.01,86.06,6.0,-8.84,C0D550
竹東,24.767147,121.057881,1.62,28.11,-0.43,76.19,3.38,-6.52,C0D560
寶山,24.735006,121.025192,0.77,26.68,1.82,86.94,3.84,-6.51,C0D580
新豐,24.87068,120.97721,0.6,26.84,6.96,90.88,2.97,-8.97,C0D590
湖口,24.904794,121.043628,0.38,27.69,-1.15,79.19,2.41,-9.11,C0D650
新竹市東區,24.798681,120.986942,0.09,27.76,2.96,79.0,3.31,-7.6,C0D660
竹南,24.708978,120.888897,2.22,29.32,5.19,84.44,3.97,-7.37,C0E420
南庄,24.601775,121.000214,0.9,26.22,2.74,86.44,3.59,-9.73,C0E430
明德,24.583486,120.885411,0.78,28.41,-0.26,79.69,4.69,-3.84,C0E550
通霄,24.471892,120.704622,0.24,27.87,0.76,84.25,5.34,-3.79,C0E590
馬都安,24.451272,120.930192,0.95,23.54,7.61,88.81,7.78,-6.23,C0E610
頭份,24.688247,120.912206,1.62,29.53,2.49,77.5,5.56,-4.63,C0E730
造橋,24.637056,120.864778,0.31,28.27,-0.7,81.12,4.44,-5.31,C0E740
苗栗,24.564569,120.824575,0.03,28.39,-2.3,73.06,3.84,-5.68,C0E750
銅鑼,24.489681,120.790853,0.23,27.74,-2.12,80.38,5.06,-5.16,C0E780
西湖,24.562947,120.7485,0.47,27.65,-1.24,85.94,4.72,-5.0,C0E810
獅潭,24.539133,120.920042,0.19,26.91,-2.52,81.75,4.78,-6.36,C0E820
苑裡,24.439714,120.653053,-0.07,28.08,1.08,80.5,3.66,-6.47,C0E830
大河,24.618069,120.948578,-1.07,26.0,0.98,82.44,4.38,-9.8,C0E850
高鐵苗栗,24.60725,120.826094,0.31,28.28,11.29,85.94,4.78,-3.04,C0E870
石岡,24.276061,120.777644,0.94,27.48,0.04,82.12,11.22,-8.37,C0F0B0
中坑,24.248517,120.903319,-0.21,22.02,-0.87,90.69,13.56,-12.33,C0F0C0
審馬陣,24.381675,121.4203,0.67,11.65,7.3,90.06,12.19,4.16,C0F0D0
東勢,24.246428,120.833047,1.38,27.69,-1.37,79.19,9.75,-6.4,C0F850
大坑,24.173142,120.722289,1.42,29.47,2.07,78.44,6.62,-6.87,C0F970
神岡,24.272481,120.658314,-0.05,27.43,-2.16,81.44,6.12,-2.46,C0F9I0
大安,24.345061,120.588025,-0.1,27.84,-0.36,83.5,4.62,-3.1,C0F9K0
后里,24.310436,120.729725,0.75,28.24,-1.05,81.0,8.38,-3.33,C0F9L0
豐原,24.254322,120.720692,1.55,29.17,-1.94,76.62,7.44,-5.59,C0F9M0
大里,24.092464,120.701378,1.02,29.95,4.13,79.31,7.38,-5.68,C0F9N0
潭子,24.213106,120.703933,0.12,28.61,4.06,80.94,7.03,-6.35,C0F9O0
清水,24.312297,120.562242,-0.04,28.33,-1.77,81.75,4.59,-2.88,C0F9P0
外埔,24.347817,120.705686,0.28,27.63,-1.41,83.81,6.75,-2.96,C0F9Q0
龍井,24.184536,120.528972,0.23,28.55,-6.62,80.88,7.25,-1.2,C0F9R0
烏日,24.107058,120.624103,0.28,28.79,0.34,77.31,8.56,-2.14,C0F9S0
西屯,24.179494,120.641275,0.14,28.65,-0.81,76.75,7.53,-3.31,C0F9T0
南屯,24.137006,120.637969,0.04,28.88,0.86,77.19,8.06,-2.44,C0F9U0
新社,24.200172,120.815806,0.72,25.99,-3.19,82.75,12.19,-5.05,C0F9V0
大雅(中科園區),24.21528,120.62445,0.2,27.54,2.84,83.19,5.31,-8.38,C0F9X0
桃山,24.432739,121.303808,0.87,11.09,6.21,91.12,13.22,-6.43,C0F9Y0
雪山東峰,24.388792,121.268675,0.98,11.98,4.78,87.94,11.56,-10.09,C0F9Z0
芬園,24.015678,120.6213,-0.36,27.28,9.18,92.0,9.69,-2.61,C0G620
員林,23.946503,120.585597,2.82,30.52,-2.4,80.75,11.19,-2.26,C0G650
溪湖,23.94835,120.479122,1.02,29.08,-5.3,82.5,11.59,-0.02,C0G660
溪州,23.851589,120.499093,0.97,28.68,-5.34,78.0,10.22,-5.98,C0G720
二林,23.903325,120.376081,0.41,28.16,0.28,88.81,13.19,-2.65,C0G730
大城,23.852487,120.320935,0.32,27.99,1.47,84.94,8.25,-5.94,C0G740
福興,24.041289,120.437669,0.06,29.03,-4.24,79.62,8.34,-1.15,C0G770
秀水,24.03405,120.503869,0.47,29.02,0.0,83.69,11.97,1.86,C0G780
埔鹽,24.000394,120.431683,0.81,28.83,-6.46,80.77,9.56,-0.41,C0G800
埔心,23.947633,120.525456,1.54,30.23,-0.71,80.25,11.72,-0.4,C0G810
田尾,23.901669,120.509389,0.59,28.97,1.73,87.0,12.0,-0.95,C0G820
埤頭,23.866003,120.452806,0.24,28.48,3.77,92.25,10.88,-1.1,C0G830
社頭,23.897647,120.5862,0.43,29.38,8.92,84.88,9.62,-3.4,C0G860
伸港,24.148933,120.484403,-0.0,28.41,-3.56,80.62,7.56,-0.5,C0G890
線西,24.143358,120.443536,-0.75,28.39,0.97,82.25,7.0,-2.89,C0G900
花壇,24.032076,120.549461,1.27,30.35,11.55,87.44,12.12,8.93,C0G910
埔里,23.972169,120.952425,0.53,26.05,2.08,87.69,22.0,-3.89,C0H890
草屯,23.973672,120.68085,0.23,28.27,1.84,80.75,9.81,-3.67,C0H960
昆陽,24.121322,121.273642,1.42,11.69,2.41,93.12,12.25,-3.6,C0H990
神木村,23.532742,120.843667,1.17,19.96,0.12,91.56,15.56,-10.0,C0H9A0
合歡山,24.143442,121.272547,1.46,10.68,8.68,96.5,18.41,-12.22,C0H9C0
廬山,24.033311,121.181808,1.3,20.38,-2.13,85.69,13.0,-9.44,C0I010
信義,23.689694,120.851036,0.78,25.2,1.08,88.38,9.75,-11.11,C0I080
竹山,23.761225,120.688156,1.22,27.82,1.41,85.62,13.97,-2.78,C0I110
水里,23.812553,120.849792,0.69,26.71,-0.07,83.25,18.38,-6.9,C0I360
魚池,23.895703,120.94135,0.59,24.73,-1.58,85.81,18.03,-7.85,C0I370
集集,23.828206,120.801467,0.3,26.92,2.12,86.94,16.0,-11.34,C0I380
仁愛,24.022122,121.132206,1.1,22.27,-4.56,85.19,11.97,-20.96,C0I390
名間,23.837053,120.701447,0.15,27.17,5.85,86.94,12.38,-7.26,C0I410
國姓,24.037803,120.855072,0.52,26.61,-0.35,86.62,15.88,-13.97,C0I420
南投,23.911469,120.687331,0.47,28.54,6.84,85.38,7.22,-15.15,C0I460
梅峰,24.085272,121.173572,1.3,16.94,-2.97,89.0,15.25,-21.05,C0I480
萬大林道,23.928228,121.091411,1.0,19.97,-5.65,86.69,13.31,-10.8,C0I490
小奇萊,24.131764,121.295717,1.18,11.58,3.52,93.0,6.17,-16.01,C0I530
崙背,23.75555,120.318925,0.26,27.95,-0.12,86.56,14.56,-3.23,C0K250
四湖,23.630414,120.227125,0.91,28.36,-1.49,84.38,16.81,4.04,C0K280
宜梧,23.536281,120.169329,-0.0,28.38,-1.02,83.81,16.34,5.09,C0K291
虎尾,23.719183,120.442036,0.81,28.59,6.96,86.62,13.97,0.35,C0K330
土庫,23.679029,120.395574,0.17,28.24,-1.44,81.56,14.09,-2.78,C0K390
斗六,23.720583,120.541127,0.36,28.38,-2.71,78.81,7.44,-10.59,C0K400
北港,23.573957,120.292802,0.14,28.31,-1.44,81.75,13.5,2.71,C0K410
西螺,23.800407,120.467394,0.32,28.52,-0.76,81.25,11.47,-3.98,C0K420
褒忠,23.690938,120.303634,0.22,28.07,0.31,84.94,14.69,0.73,C0K430
二崙,23.772797,120.408944,0.23,28.14,10.51,94.38,11.97,-6.33,C0K440
大埤,23.646074,120.431537,0.33,28.36,0.06,82.06,11.62,-6.15,C0K450
斗南,23.678734,120.478359,0.33,28.41,2.95,81.56,10.34,-8.27,C0K460
林內,23.748675,120.609642,0.36,27.69,-0.07,83.5,11.56,-7.28,C0K470
莿桐,23.761192,120.502372,0.34,28.15,1.24,82.0,9.72,-8.52,C0K480
元長,23.64981,120.315024,0.32,28.46,0.97,83.19,16.09,-0.78,C0K500
水林,23.572924,120.24597,0.35,28.52,2.8,84.56,16.47,2.56,C0K510
臺西,23.701547,120.197559,0.02,27.99,1.91,85.06,17.97,1.72,C0K530
蔦松,23.514319,120.229736,0.26,28.46,0.93,84.69,15.06,4.05,C0K550
棋山,23.68645,120.603417,0.32,27.79,4.47,87.06,11.38,-11.52,C0K560
高鐵雲林,23.737456,120.417944,-0.36,27.91,1.12,85.25,13.25,4.87,C0K580
東後寮,23.369908,120.248065,0.23,28.12,1.33,86.5,15.28,2.83,C0M520
奮起湖,23.493903,120.699253,1.08,20.65,1.62,94.38,25.22,-4.29,C0M530
中埔,23.42538,120.5229,0.08,27.79,-0.51,78.19,13.91,-4.03,C0M640
朴子,23.43463,120.23902,-0.5,27.55,3.77,86.94,15.09,4.06,C0M650
溪口,23.604131,120.403569,0.16,28.14,-0.53,82.25,9.41,-4.36,C0M660
大林,23.600616,120.45841,0.29,28.61,1.47,80.69,11.22,-6.93,C0M670
太保,23.455062,120.331455,0.02,28.21,-0.93,83.12,13.16,-0.24,C0M680
水上,23.419734,120.388909,0.23,28.24,0.1,82.19,19.62,5.9,C0M690
竹崎,23.526178,120.555508,0.1,27.44,2.99,84.19,16.47,0.4,C0M700
東石,23.458927,120.15385,-0.17,28.41,-1.45,81.69,16.84,6.21,C0M710
番路,23.464657,120.554156,0.32,27.42,2.81,81.88,16.62,-4.05,C0M720
嘉義市東區,23.457673,120.460531,0.03,28.63,3.84,82.0,19.59,5.28,C0M730
六腳,23.492871,120.290625,0.1,28.38,2.93,82.69,13.41,2.87,C0M740
布袋,23.380878,120.167789,0.18,28.61,-0.83,82.31,14.84,2.59,C0M750
民雄,23.551754,120.428457,0.09,28.49,0.69,81.38,10.97,-4.69,C0M760
嘉義梅山,23.585398,120.555587,-0.04,27.78,3.57,83.0,18.75,0.24,C0M770
鹿草,23.41134,120.30835,0.25,28.54,1.91,83.5,16.59,1.78,C0M780
新港,23.553269,120.345728,-0.08,28.19,0.72,82.06,11.38,-1.84,C0M790
茶山,23.299075,120.664767,0.22,25.39,2.39,88.88,20.66,-6.74,C0M800
里佳,23.389125,120.716647,0.63,20.95,-0.01,89.06,22.09,-14.15,C0M810
達邦,23.453994,120.749517,0.9,22.85,2.69,88.94,16.16,-15.66,C0M820
表湖,23.24186,120.64166,-0.61,23.68,2.62,89.12,18.91,2.99,C0M850
新美,23.338017,120.683169,-0.15,25.04,10.49,88.44,21.09,16.95,C0M860
北寮,23.079561,120.495008,-0.09,27.62,7.42,90.62,26.53,13.38,C0O830
王爺宮,23.222064,120.40085,2.07,29.63,-3.24,80.12,20.06,5.94,C0O840
大內,23.11885,120.36083,0.73,29.41,4.6,86.94,21.91,9.65,C0O860
善化,23.112883,120.297219,0.68,28.4,8.86,92.81,21.66,5.62,C0O900
崎頂,22.959547,120.369317,0.64,28.34,3.43,88.75,20.62,8.51,C0O960
虎頭埤,23.021375,120.347878,-0.1,27.8,-0.87,83.25,24.0,10.56,C0O970
新市,23.061614,120.298197,0.56,29.08,-1.03,83.0,20.81,9.94,C0O980
媽廟,22.99175,120.293525,0.17,28.69,2.87,86.0,19.0,6.81,C0O990
尾寮山,22.833111,120.683889,1.33,22.79,1.87,94.5,35.72,2.97,C0R100
阿禮,22.742908,120.743678,0.18,22.44,-1.23,85.62,22.94,4.5,C0R130
瑪家,22.682903,120.686639,-0.48,23.7,10.94,95.69,32.28,5.95,C0R140
三地門,22.709889,120.639944,0.85,28.36,1.61,80.0,23.91,-0.14,C0R150
鹽埔,22.739558,120.530778,0.3,28.53,0.3,87.0,23.31,7.96,C0R160
赤山,22.592333,120.614306,0.02,28.48,8.01,90.81,24.31,5.78,C0R190
潮州,22.534361,120.54,0.88,28.91,2.76,81.12,25.81,6.82,C0R220
來義,22.527306,120.625111,-0.74,27.19,9.65,91.19,25.88,8.28,C0R240
春日,22.370361,120.628306,-1.32,27.04,6.99,87.69,25.81,13.26,C0R260
琉球嶼,22.332244,120.362236,0.83,28.69,-2.57,83.56,10.28,-1.45,C0R270
車城,22.0744,120.716247,-0.27,28.63,3.86,86.25,17.88,14.65,C0R320
牡丹,22.130036,120.792639,-0.18,26.56,9.62,94.62,21.03,13.67,C0R341
貓鼻頭,21.921774,120.7358,0.68,28.49,1.05,85.44,17.88,6.96,C0R350
大漢山,22.405264,120.753181,0.39,18.35,4.58,98.25,48.94,33.16,C0R440
高樹,22.826389,120.600806,-0.27,28.26,0.91,78.44,25.72,8.8,C0R470
長治,22.693128,120.542622,0.67,29.36,1.25,81.56,23.88,8.12,C0R480
九如,22.7405,120.490503,0.64,29.22,-1.51,81.31,26.88,11.45,C0R490
崁頂,22.514781,120.506914,-0.22,28.68,1.93,84.38,15.88,1.94,C0R520
佳冬,22.419456,120.552375,-0.13,28.68,2.19,83.44,23.5,10.53,C0R540
新埤,22.467947,120.582894,-0.13,28.43,-3.0,80.06,25.69,12.76,C0R550
新園,22.5434,120.461558,0.91,29.67,-5.23,78.31,22.59,8.78,C0R560
麟洛,22.65078,120.52719,0.74,29.63,4.31,84.06,24.78,11.33,C0R570
南州,22.48591,120.50274,-0.24,28.44,6.75,87.25,21.84,8.99,C0R580
里港,22.77919,120.49459,0.1,28.48,3.28,85.25,25.5,12.03,C0R590
舊泰武,22.588194,120.664944,-0.2,24.16,4.09,88.62,16.5,-8.14,C0R600
墾雷,21.900836,120.855269,-0.41,28.16,9.4,93.69,19.56,10.56,C0R620
東港,22.46247,120.44074,-0.13,28.9,1.19,84.69,17.06,13.66,C0R640
竹田,22.58486,120.54344,-0.36,28.85,1.33,82.25,23.84,17.02,C0R650
枋寮,22.367722,120.590647,-0.13,28.64,9.3,87.19,18.56,16.78,C0R660
楓港,22.190131,120.692156,-0.74,28.13,2.56,81.5,24.94,22.24,C0R670
佳樂水,21.993578,120.861633,-0.81,28.34,8.05,87.94,17.88,15.82,C0R680
墾丁,21.966756,120.810269,-0.32,26.68,3.75,92.25,18.84,16.45,C0R690
枋山,22.246844,120.661086,0.43,28.8,1.69,81.69,46.5,44.61,C0R700
龍磐,21.931672,120.838942,-0.76,27.67,5.64,90.75,16.75,15.28,C0R710
旭海,22.205403,120.887614,-0.88,26.79,6.63,86.69,15.97,11.0,C0R720
大坪頂,22.024633,120.69355,-0.41,27.51,8.08,94.75,11.84,10.48,C0R730
四林格山,22.076989,120.802439,-0.17,24.51,2.14,97.25,23.16,12.71,C0R750
南仁湖,22.084681,120.863353,-0.87,25.58,12.62,97.56,27.88,16.71,C0R760
保力,22.071122,120.764111,-0.01,27.4,3.88,89.88,18.69,9.85,C0R770
滿州,22.024403,120.839892,-0.62,27.84,5.64,86.25,19.12,14.93,C0R780
九棚,22.14195,120.889281,-1.18,27.64,11.12,86.73,7.75,-0.25,C0R790
丹路,22.204481,120.750989,-0.07,27.65,4.3,86.69,33.53,25.25,C0R800
內獅,22.305064,120.642986,-0.09,28.67,19.67,96.06,29.09,26.15,C0R810
白鷺,22.454275,120.666219,0.13,25.24,6.12,89.12,34.78,32.42,C0R820
高士,22.121825,120.836781,-0.75,25.44,9.64,93.75,23.03,12.42,C0R830
牡丹池山,22.168389,120.841225,-0.73,24.49,9.24,95.69,21.16,12.3,C0R840
下馬,23.150427,121.070312,0.69,24.03,4.99,87.38,12.97,11.04,C0S660
太麻里,22.60902,120.98533,1.08,25.19,3.97,89.27,11.13,1.51,C0S690
知本,22.684866,121.005642,1.23,25.51,4.65,90.69,21.94,12.11,C0S700
鹿野,22.917711,121.122994,1.3,25.87,5.1,90.06,17.56,9.52,C0S710
綠島,22.6672,121.47533,0.99,27.81,0.22,86.75,18.91,12.3,C0S730
池上,23.119628,121.209469,0.92,26.21,4.48,90.25,16.94,10.91,C0S740
向陽,23.248397,120.986133,1.5,16.52,10.31,90.31,16.88,-2.31,C0S750
大溪山,22.478475,120.943325,1.14,25.91,3.03,87.5,16.34,4.07,C0S770
金崙,22.538122,120.966875,1.2,27.68,0.79,82.69,14.0,4.24,C0S790
東河,22.972672,121.303986,0.12,27.76,3.91,89.31,20.88,13.65,C0S810
長濱,23.286817,121.411975,0.89,26.79,3.48,88.31,18.69,12.3,C0S830
南田,22.279725,120.889208,0.78,28.41,0.3,80.44,18.06,4.97,C0S840
關山,23.0395,121.175017,0.38,26.78,5.13,90.06,16.38,9.39,C0S890
蘭嶼高中,22.04909,121.51214,-0.43,28.72,8.67,88.31,26.53,24.42,C0S900
蘭嶼燈塔,22.081197,121.503117,-0.43,27.13,9.99,93.94,24.91,23.17,C0S910
金峰嘉蘭,22.594789,120.960825,-0.47,27.83,6.01,83.56,17.22,11.16,C0S920
延平,22.902581,121.084058,-0.88,26.58,11.22,86.94,17.53,14.48,C0S930
石寧山,23.223772,121.406639,-0.81,27.62,6.92,88.81,20.75,18.74,C0S940
七塊厝,22.954453,121.229922,-0.01,26.32,0.14,86.53,20.47,12.94,C0S950
香蘭,22.587569,120.993375,-0.3,28.54,11.33,85.5,16.22,12.44,C0S960
加津林,22.416211,120.926942,0.01,28.36,4.61,81.5,17.78,13.48,C0S970
勝林山,22.430439,120.8938,-1.61,22.79,10.11,92.0,18.81,13.22,C0S980
山豬窟,22.318619,120.857372,-1.32,25.95,11.03,87.31,21.84,16.4,C0S990
歷坵,22.520969,120.89185,0.29,25.8,0.88,86.88,16.59,11.11,C0SA00
檳榔四格山,22.810031,121.109308,-0.86,25.64,7.76,91.31,13.75,11.44,C0SA10
金崙山,22.567419,120.959667,0.22,24.22,0.22,86.5,19.62,15.03,C0SA20
都歷,23.020333,121.323642,-0.5,27.7,2.86,82.25,19.06,13.97,C0SA30
瑞和,22.974361,121.156697,-0.88,26.81,6.23,86.56,16.78,12.64,C0SA40
知本（水試所）,22.702394,121.082761,-0.76,27.99,8.61,87.0,15.09,12.71,C0SA60
土坂,22.453108,120.887572,0.43,27.97,5.9,83.75,19.53,12.73,C0SA80
達仁林場,22.264347,120.823972,-0.76,25.13,11.28,91.06,29.91,18.77,C0SA90
大禹嶺,24.186117,121.316086,1.03,13.69,2.89,88.31,12.53,-0.35,C0T790
天祥,24.179597,121.495639,1.1,24.39,5.62,87.94,12.62,6.88,C0T820
鯉魚潭,23.935639,121.508944,0.65,25.84,1.57,91.69,15.44,7.76,C0T870
西林,23.8119,121.441458,0.81,26.73,7.37,89.62,11.31,4.15,C0T900
光復,23.660694,121.424964,1.48,27.42,-1.87,86.81,13.41,5.0,C0T960
月眉山,23.809928,121.539828,1.51,25.16,-1.38,92.94,10.91,4.36,C0T9A0
水源,23.991861,121.537169,1.13,24.34,-0.24,92.88,18.78,11.14,C0T9B0
和中,24.26676,121.74103,0.77,27.28,10.43,100.0,13.53,4.44,C0T9D0
大坑,23.880628,121.581981,1.06,25.34,3.82,93.31,17.62,10.23,C0T9E0
水璉,23.797131,121.542514,0.67,26.4,3.83,91.88,10.53,3.89,C0T9F0
鳳林山,23.735269,121.420131,0.31,24.51,0.93,94.81,15.31,6.15,C0T9G0
加路蘭山,23.682947,121.5274,1.48,24.56,4.75,98.75,13.19,4.32,C0T9H0
豐濱,23.583897,121.514806,1.42,26.88,-3.87,86.75,12.0,4.01,C0T9I0
靜浦,23.455167,121.495028,1.05,27.12,6.36,93.62,18.28,11.67,C0T9M0
富里,23.171639,121.249378,-0.79,26.67,18.38,99.38,14.06,11.83,C0T9N0
雙連埤,24.753033,121.641303,0.15,23.58,-1.68,93.88,7.03,-4.27,C0U520
礁溪,24.817539,121.765608,1.18,27.38,-1.58,85.12,4.97,-5.62,C0U600
玉蘭,24.675286,121.587061,1.31,25.33,-1.02,85.31,9.56,-2.0,C0U650
太平山,24.505486,121.525656,1.6,18.32,-0.89,92.5,11.62,-0.57,C0U710
南山,24.43742,121.38167,0.9,22.15,-6.24,85.81,5.53,-1.81,C0U720
龜山島,24.841667,121.953133,0.04,24.41,-1.48,93.38,4.16,-1.12,C0U750
東澳,24.52196,121.83318,0.96,27.57,-2.58,84.81,7.5,-3.87,C0U760
南澳,24.44935,121.81022,0.41,27.22,2.72,89.12,3.91,-3.97,C0U770
五結,24.68637,121.79794,0.03,27.38,-0.37,84.69,5.66,-1.62,C0U780
頭城,24.85323,121.8308,-0.06,27.24,0.81,89.81,6.16,-3.02,C0U860
大礁溪,24.791042,121.675047,0.41,24.72,6.72,94.0,6.69,-1.81,C0U870
三星,24.66812,121.65302,0.35,26.74,-5.19,83.75,5.94,-1.33,C0U890
內城,24.71813,121.68766,0.8,27.34,-1.26,86.19,5.81,-2.42,C0U900
冬山,24.63373,121.7937,0.79,27.78,0.59,81.62,7.44,-1.56,C0U910
羅東,24.68184,121.74934,0.91,27.77,1.53,84.81,4.97,-2.61,C0U940
鶯子嶺,24.89754,121.79244,1.0,21.82,-3.97,92.25,11.72,0.68,C0U950
翠峰湖,24.510856,121.608044,1.3,18.06,1.62,94.44,14.69,5.56,C0U960
大福,24.80064,121.81389,-0.05,26.84,3.14,86.5,4.81,-3.06,C0U970
坪林石牌,24.86478,121.77396,0.6,23.98,2.11,95.69,7.91,-1.68,C0U980
員山,24.74435,121.72247,0.32,27.36,4.35,87.62,4.75,-3.35,C0U990
土場,24.576533,121.495333,0.22,25.39,-2.46,87.19,6.47,-1.64,C0UA00
鴛鴦湖,24.590269,121.412228,1.03,18.7,2.38,96.62,16.31,5.13,C0UA10
白嶺,24.527819,121.519031,1.04,20.9,-2.54,92.81,12.41,1.51,C0UA30
西德山,24.560647,121.752608,0.95,21.81,1.19,94.69,8.59,-1.02,C0UA40
西帽山,24.555361,121.802628,0.76,23.28,-4.77,88.88,11.09,-1.54,C0UA50
樟樹山,24.41393,121.78325,0.57,24.71,2.73,89.4,5.97,-3.13,C0UA60
桃源谷,24.962606,121.888875,0.66,24.15,-0.67,95.81,11.22,-0.64,C0UA70
復興,23.222403,120.806089,0.75,24.56,3.62,85.94,20.84,0.64,C0V210
溪埔,22.738578,120.446797,-0.03,28.31,5.64,88.0,27.59,13.25,C0V350
內門,22.975481,120.466769,0.99,28.41,2.93,86.88,31.97,15.27,C0V360
古亭坑,22.893178,120.401947,0.03,27.1,4.68,89.7,35.1,16.36,C0V370
阿公店,22.804194,120.355528,-0.13,28.12,2.86,85.81,19.53,7.59,C0V400
鳳山,22.646653,120.356122,-0.62,28.34,9.77,87.88,17.81,6.23,C0V440
鳳森,22.545064,120.392592,-0.19,28.28,1.02,84.62,21.25,8.29,C0V450
新興,22.627422,120.298803,0.27,29.26,-0.72,79.25,21.94,10.75,C0V490
阿蓮,22.883208,120.327508,-0.06,28.74,2.96,84.19,25.75,11.38,C0V530
梓官,22.760558,120.267211,-0.2,28.79,0.92,82.5,21.94,10.24,C0V610
永安,22.82315,120.236856,-0.24,28.55,-0.95,83.44,18.25,5.98,C0V620
茄萣,22.906642,120.182608,0.17,29.13,5.34,84.12,24.94,13.54,C0V630
湖內,22.887139,120.2445,-0.5,28.34,1.03,82.31,19.19,7.35,C0V640
彌陀,22.783806,120.246361,0.0,28.75,-0.53,84.81,19.28,7.27,C0V650
岡山,22.797078,120.294958,0.26,29.51,2.19,81.44,25.91,12.53,C0V660
仁武,22.701083,120.347722,0.08,29.52,2.3,81.56,20.94,8.11,C0V680
鼓山,22.623325,120.275575,-0.24,28.79,1.95,83.5,18.75,8.79,C0V690
三民,22.645017,120.311233,-0.17,29.34,4.71,78.5,22.84,11.03,C0V700
苓雅,22.622742,120.330669,0.27,29.51,9.13,83.0,24.18,12.72,C0V710
林園,22.507747,120.394511,0.33,29.83,5.3,82.5,18.69,6.34,C0V720
大寮,22.605614,120.395717,-0.41,28.79,8.68,86.25,25.91,13.92,C0V730
旗山,22.888614,120.483597,1.0,29.19,0.25,80.31,31.47,16.27,C0V740
路竹,22.854997,120.259439,0.41,29.44,0.92,80.94,19.75,5.6,C0V750
橋頭,22.757806,120.30575,0.36,29.61,-2.53,77.75,21.62,9.99,C0V760
大社,22.730306,120.346639,0.18,29.39,5.52,82.94,22.28,9.39,C0V770
萬山,22.905944,120.688056,0.53,26.25,4.83,86.88,25.77,8.35,C0V790
六龜,22.997889,120.633583,0.29,27.35,5.05,84.75,32.91,11.94,C0V800
左營,22.67491,120.28491,-0.27,28.62,0.8,82.0,21.97,8.61,C0V810
小林,23.148408,120.63325,-0.16,25.78,9.61,89.75,19.19,5.12,C0V820
東莒,25.9652,119.98069,0.7,25.08,0.51,88.64,2.58,-5.61,C0W110
西嶼,23.5626,119.468436,0.5,26.67,0.66,93.43,14.29,7.61,C0W120
花嶼,23.40007,119.32276,0.54,27.09,1.33,90.94,4.66,-3.18,C0W130
金沙,24.488292,118.408778,1.02,27.22,-2.65,83.44,1.06,-4.32,C0W140
金寧,24.457703,118.328989,0.13,27.1,-4.57,82.75,0.91,-4.07,C0W150
東河,23.296598,120.385608,-0.25,28.06,-0.72,81.56,17.69,3.47,C0X050
下營,23.22695,120.256261,0.3,28.48,-2.11,81.69,20.75,7.06,C0X060
佳里,23.173039,120.145086,0.8,28.73,3.95,88.81,25.0,12.19,C0X080
臺南市北區,23.010394,120.194228,-0.16,29.28,7.09,82.56,17.0,6.68,C0X100
臺南市南區,22.961189,120.188378,-0.11,29.09,2.75,84.0,18.81,9.21,C0X110
麻豆,23.183289,120.248611,0.49,29.44,2.34,84.75,21.66,11.23,C0X120
官田,23.193217,120.315422,-0.01,28.79,9.54,89.44,18.38,8.05,C0X130
西港,23.125608,120.203108,-0.35,28.77,0.95,80.94,25.69,16.46,C0X140
安定,23.102614,120.227839,0.15,29.08,4.28,85.5,23.56,14.47,C0X150
仁德,22.968258,120.257689,0.17,29.11,4.06,83.69,20.34,9.32,C0X160
關廟,22.963017,120.327797,-0.34,28.74,9.29,85.53,18.81,5.4,C0X170
山上,23.0757,120.363253,0.06,28.34,2.93,84.44,23.28,10.84,C0X180
安平,22.993161,120.152181,-0.17,28.92,-1.43,81.38,18.88,9.72,C0X190
左鎮,23.056758,120.408522,0.91,28.64,-0.1,84.62,23.03,10.0,C0X200
白河,23.347466,120.414427,0.03,28.14,2.7,83.44,16.88,2.76,C0X210
學甲,23.230367,120.182187,0.07,28.45,3.55,83.44,19.19,10.34,C0X220
鹽水,23.272621,120.247641,0.09,28.21,1.61,84.62,19.03,7.9,C0X230
關子嶺,23.331169,120.508025,0.3,26.22,2.98,87.5,26.34,4.23,C0X240
新營,23.310689,120.316681,-0.21,28.6,3.69,82.0,20.84,9.36,C0X250
後壁,23.366358,120.362326,-0.02,28.34,1.25,82.06,18.03,6.73,C0X260
將軍,23.214999,120.13577,0.09,28.36,1.69,84.0,18.59,8.44,C0X280
北門,23.267772,120.125481,0.04,28.44,-1.04,83.81,16.97,6.67,C0X290
鹿寮,23.386047,120.477331,0.16,27.63,-0.67,84.19,13.95,-1.31,C0X300
柳營,23.253328,120.375253,-0.54,28.06,7.55,84.44,16.31,14.56,C0X320
明里,23.208717,121.262342,0.32,26.28,1.9,91.75,15.12,8.05,C0Z020
佳心,23.34567,121.21316,1.17,23.14,8.44,95.0,18.75,11.47,C0Z050
玉里,23.3215,121.339656,1.02,27.32,6.0,95.88,20.44,12.54,C0Z061
舞鶴,23.46811,121.37407,1.47,26.46,8.1,99.56,23.47,17.85,C0Z070
富源,23.587642,121.378225,0.87,26.54,0.11,90.19,15.34,6.32,C0Z080
東華,23.89525,121.549833,0.68,27.68,3.31,89.94,5.66,0.76,C0Z100
吉安光華,23.930925,121.595153,0.51,27.17,-3.43,84.75,18.22,12.9,C0Z150
鳳林,23.746114,121.453411,0.49,26.87,-0.48,84.38,11.09,2.28,C0Z160
卓溪,23.3443,121.3029,-0.08,26.98,-0.05,82.75,21.09,14.07,C0Z170
新城,24.040486,121.604878,0.33,27.29,15.0,98.69,12.75,7.05,C0Z180
富世,24.14743,121.6297,0.22,27.2,-1.1,87.44,16.69,9.16,C0Z190
萬榮,23.709219,121.420106,0.75,26.77,-2.09,85.56,13.19,5.15,C0Z200
瑞穗,23.5239,121.39021,1.05,27.31,1.45,87.88,16.28,10.12,C0Z210
和平林道,24.343922,121.656317,0.34,24.34,-2.79,89.56,13.0,9.49,C0Z220
和平,24.30717,121.77007,-0.7,26.51,-0.12,84.44,12.41,4.4,C0Z230
瑞穗林道,23.49284,121.30688,0.79,22.06,2.26,96.88,19.59,9.34,C0Z250
蕃薯寮,23.73835,121.540108,0.8,25.64,-3.52,89.62,10.66,2.66,C0Z270
德武,23.47426,121.41071,0.78,26.82,0.2,88.31,23.94,18.83,C0Z280
赤柯山,23.36893,121.38293,0.88,23.03,-0.68,91.19,23.28,17.7,C0Z290
東里,23.26853,121.30547,0.53,27.06,-2.52,86.19,23.44,18.69,C0Z300
清水斷崖,24.218294,121.689142,-0.21,26.6,-1.34,88.75,10.66,1.89,C0Z310
清水林道,23.27125,121.188272,0.34,24.29,1.31,87.0,17.25,10.99,C0Z320
安通山,23.290728,121.348528,0.25,25.21,4.6,91.06,22.59,17.65,C0Z330
口湖工作站,23.589978,120.180394,0.14,28.16,1.54,78.31,15.41,12.46,12J990
東港工作站,22.479997,120.466058,-0.26,28.88,2.99,72.12,17.94,13.91,12Q970
恆春工作站,22.079678,120.714425,0.52,28.66,3.75,80.12,16.25,2.19,12Q980
萬大發電廠,23.978875,121.139639,0.96,22.75,-7.76,83.31,11.81,-1.67,42HA10
桃改樹林分場,24.944503,121.386972,-0.72,27.45,0.9,80.12,6.5,0.33,72AI40
桃園農改場,24.950944,121.030583,1.24,27.74,0.36,84.44,1.75,-8.98,72C440
桃改五峰分場,24.612194,121.157167,1.49,22.77,1.43,90.12,3.0,-8.42,72D080
臺中農改場,24.003028,120.534389,0.74,28.08,4.47,88.19,13.44,1.73,72G600
中改埔里分場,23.903208,120.963364,0.77,24.35,1.35,91.69,16.13,-6.07,72HA00
南改斗南分場,23.634556,120.477333,0.99,28.43,1.05,84.62,8.06,-5.14,72K220
南改義竹分場,23.360694,120.279361,0.38,28.1,-3.61,82.62,16.91,3.84,72M360
南改鹿草分場,23.416869,120.283061,0.07,28.24,4.63,86.31,12.59,4.24,72M700
臺南農改場,23.0605,120.342194,0.3,28.08,5.18,88.5,22.25,10.55,72N100
七股研究中心,23.081672,120.062894,0.07,28.82,3.76,85.62,24.94,18.88,72N240
高雄農改場,22.709333,120.525889,0.39,28.48,5.45,86.75,22.91,3.03,72Q010
東改班鳩分場,22.829528,121.077694,0.61,26.27,1.34,86.07,12.63,4.4,72S200
東改賓朗果園,22.813889,121.071278,-10.22,15.02,2.95,93.56,15.34,7.55,72S590
花蓮農改場,23.975222,121.563889,1.14,27.28,-0.31,84.62,18.25,12.09,72T250
花改蘭陽分場,24.686306,121.716583,1.23,27.34,-1.41,85.5,4.88,-3.75,72U480
高改旗南分場,22.857861,120.516667,-0.65,27.92,8.89,85.75,3.73,-16.47,72V140
茶改北部分場,24.955778,121.631222,1.82,25.46,0.86,87.44,4.19,-11.86,82A750
茶改場,24.908472,121.185333,1.0,26.89,-2.55,81.94,4.06,-7.23,82C160
茶改中部分場,23.875611,120.913583,0.33,23.26,1.46,90.93,19.54,-0.42,82H320
茶改南部分場,23.762528,120.7405,0.13,25.51,0.18,89.56,7.7,-10.0,82H840
茶改東部分場,22.907694,121.130139,0.32,26.77,3.83,86.88,17.66,9.81,82S580
農工中心,24.985917,121.239833,1.31,27.69,3.31,79.75,2.91,-6.5,A2C560
水試臺西試驗場,23.717231,120.190522,0.25,28.32,4.56,88.81,18.25,10.04,A2K360
臺大雲林校區,23.730628,120.423903,-0.04,27.98,2.87,84.81,12.5,8.92,A2K630
臺南蘭花園區,23.340258,120.379661,-0.09,28.02,5.52,87.19,16.22,13.02,A2N290
畜試北區分所,24.527806,120.770972,3.77,30.61,-8.75,73.75,4.1,-4.17,B2E890
畜產試驗所,23.058972,120.336406,0.12,27.68,3.35,88.25,23.34,5.76,B2N890
畜試南區分所,21.945583,120.802167,-0.01,27.96,-0.73,83.12,18.66,8.03,B2Q810
畜試東區分所,24.669039,121.832561,-0.32,27.35,7.03,91.81,6.91,2.74,B2U990
蓮華池,23.918333,120.885278,-0.37,24.09,6.27,90.75,22.88,3.58,E2H360
林試畢祿溪站,24.226944,121.308522,-0.11,15.95,12.85,91.06,10.84,10.56,E2HA20
四湖植物園,23.676986,120.163433,0.14,28.17,9.82,95.56,19.5,12.67,E2K600
林試六龜中心,22.991703,120.645722,-0.78,26.31,13.39,89.5,28.66,27.35,E2P980
林試太麻里2,22.598,120.99775,-0.34,27.98,4.52,81.69,0.88,-2.68,E2S960
林試太麻里1,22.598922,120.980044,-0.23,27.62,5.85,83.69,16.28,11.98,E2S980
農試所(霧峰),24.031261,120.688133,1.53,28.8,0.14,83.8,11.31,-2.14,G2F820
農試嘉義分所,23.485028,120.473806,0.21,27.76,2.93,84.12,22.66,12.99,G2L020
農試溪口農場,23.58565,120.408111,0.94,28.2,1.05,83.94,9.97,3.98,G2M350
農試鳳山分所,22.646611,120.356083,-0.01,28.47,4.3,83.0,21.28,5.54,G2P820
苗栗農改場,24.495722,120.829111,0.76,27.67,-0.36,79.69,4.56,-7.03,K2E360
苗改生物防治研究中心,24.422861,120.871833,0.2,26.18,0.63,82.81,7.38,-1.22,K2E710
種苗改良場,24.225972,120.800917,1.04,26.09,6.84,89.12,9.34,-7.57,K2F750
臺大和社,23.590856,120.888864,1.62,24.08,2.19,89.94,9.59,-4.11,U2HA30
臺大內茅埔,23.689722,120.851117,0.79,25.14,1.72,87.75,8.5,-5.48,U2HA40
臺大竹山,23.756972,120.681556,0.3,27.49,2.56,83.56,14.25,-1.38,U2HA50
