站名,緯度,經度,平均溫距平,本年度平均溫,平均溼度距平,本年度日均相對溼度,本年度日均降水量,日均降水量距平,站號
淡水,25.164889,121.448906,-0.42,26.03,5.8,85.83,7.86,-5.41,466900
鞍部,25.182586,121.529731,-0.12,21.05,7.87,96.83,8.1,-8.86,466910
臺北,25.037658,121.514853,-0.38,26.9,5.05,80.83,6.25,-5.75,466920
竹子湖,25.162078,121.544547,-0.03,22.72,6.45,92.17,7.42,-7.85,466930
基隆,25.133314,121.740475,-0.58,25.72,4.27,83.4,8.3,-5.85,466940
花蓮,23.975128,121.613275,0.42,27.15,2.85,83.33,4.11,-1.32,466990
新屋,25.006725,121.047492,-1.37,26.1,2.84,88.0,4.6,-6.52,467050
宜蘭,24.763975,121.756528,-0.14,26.12,4.48,87.0,5.83,-5.33,467080
金門,24.407306,118.289281,-0.3,24.92,1.4,87.0,1.61,-2.81,467110
田中,23.873803,120.581286,-1.3,27.36,6.89,88.6,13.1,8.67,467270
澎湖,23.565503,119.563094,-0.02,27.12,4.81,89.5,17.93,14.33,467350
臺南,22.99328,120.20492,-0.35,28.07,8.79,85.33,29.18,19.29,467410
永康,23.038386,120.2367,-0.26,27.93,11.69,86.17,34.75,25.99,467420
嘉義,23.495925,120.432906,-0.3,27.42,10.44,89.0,28.83,19.58,467480
臺中,24.145736,120.684075,0.14,27.72,8.03,83.83,5.6,-7.28,467490
阿里山,23.508208,120.813242,1.11,15.03,6.22,96.83,23.68,-1.88,467530
大武,22.35572,120.90374,0.62,28.37,2.85,80.17,8.18,-2.06,467540
玉山,23.48718,120.95943,2.43,9.35,12.03,94.33,12.26,-2.13,467550
新竹,24.827853,121.014219,-0.26,26.86,5.67,83.0,6.4,-3.65,467571
恆春,22.003897,120.746339,0.06,28.32,6.39,84.67,11.5,2.25,467590
成功,23.097486,121.373428,-0.11,26.65,7.14,89.0,10.68,5.07,467610
日月潭,23.881325,120.90805,0.24,22.14,13.1,98.0,41.0,23.17,467650
臺東,22.752211,121.154586,0.03,27.8,5.96,83.67,4.03,-2.05,467660
馬祖,26.169467,119.923158,0.59,23.7,2.89,90.5,10.7,4.72,467990
山佳,24.974944,121.402008,-0.0,26.95,1.22,82.33,3.67,-6.05,C0A520
坪林,24.938183,121.70975,1.42,25.4,-2.88,89.83,10.33,-2.45,C0A530
泰平,24.971197,121.823711,0.33,23.32,0.41,95.67,10.67,-3.9,C0A550
桶後,24.848222,121.597992,2.03,25.63,-4.4,88.0,18.08,6.71,C0A570
石碇,24.993969,121.662917,-0.01,24.72,-2.62,89.0,6.25,-8.84,C0A640
大坪,25.165914,121.632969,1.98,25.86,-1.49,88.0,15.2,-2.9,C0A860
五指山,25.132153,121.608692,1.22,23.05,-0.39,93.83,9.25,-4.18,C0A870
雙溪,25.036003,121.864242,1.35,26.5,-2.16,88.0,5.08,-7.02,C0A890
三和,25.233153,121.595236,-1.39,24.1,-1.81,92.5,18.58,-4.47,C0A931
金山,25.223628,121.643967,-0.37,25.25,0.72,88.17,14.0,-2.04,C0A940
鼻頭角,25.129036,121.923372,0.53,26.18,-2.66,87.83,2.17,-7.65,C0A950
三貂角,25.007606,122.002058,0.58,26.05,-0.42,86.83,10.17,1.14,C0A970
社子,25.109508,121.469681,0.41,27.6,2.61,82.67,5.17,-6.35,C0A980
天母,25.117494,121.537169,-0.1,27.03,-0.75,76.0,5.0,-6.83,C0A9C0
內湖,25.079422,121.57545,0.26,27.43,3.41,82.5,6.0,-5.74,C0A9F0
大屯山,25.175675,121.522408,1.41,21.57,4.32,99.17,9.17,-7.01,C0AC40
三峽,24.939025,121.369728,0.34,27.8,2.43,84.0,2.58,-5.68,C0AC60
信義,25.037822,121.564597,-0.33,26.97,1.69,83.67,7.42,-2.89,C0AC70
文山,25.00235,121.575728,-0.83,25.93,-1.56,83.67,4.75,-6.28,C0AC80
新莊,25.051478,121.446756,-1.14,26.93,4.3,79.83,5.33,-3.91,C0ACA0
八里,25.150211,121.403947,0.41,27.68,9.42,89.5,6.58,-2.64,C0AD10
蘆洲,25.086594,121.472331,-0.48,27.72,3.78,80.5,5.33,-3.33,C0AD30
土城,24.973208,121.445169,-0.93,26.13,2.12,84.83,7.67,-1.44,C0AD40
鶯歌,24.951533,121.346294,0.14,27.52,3.4,86.5,2.75,-4.72,C0AD50
汐止,25.066881,121.658778,-1.38,25.93,0.4,85.67,7.0,-6.22,C0AH00
永和,25.01125,121.508111,-0.63,27.53,5.66,82.17,6.83,-5.66,C0AH10
五分山,25.07125,121.780794,0.77,23.15,-1.19,94.5,9.08,-6.99,C0AH30
平等,25.129142,121.577086,-1.19,24.33,2.88,86.33,5.33,-10.1,C0AH40
林口,25.072181,121.38084,-0.67,25.85,8.28,96.0,5.5,-6.2,C0AH50
松山,25.04871,121.55042,-1.71,26.7,12.76,83.67,7.25,4.1,C0AH70
深坑,25.002703,121.628328,-0.62,26.15,1.42,86.83,5.67,0.23,C0AH80
福山植物園,24.760717,121.58135,-0.75,22.22,2.29,95.17,10.08,5.08,C0AH90
五股,25.07445,121.42728,-1.13,26.32,-3.0,85.67,6.5,3.25,C0AI00
屈尺,24.92184,121.54475,0.01,27.15,3.62,88.5,5.92,-2.71,C0AI10
白沙灣,25.283128,121.519058,-1.58,25.5,8.88,89.5,8.0,4.16,C0AI20
三重,25.057328,121.500629,-1.97,27.33,7.38,88.5,3.17,-0.21,C0AI30
石牌,25.115597,121.513139,-1.12,28.2,9.56,80.5,5.17,1.7,C0AI40
七堵,25.094819,121.71713,-0.75,26.87,-0.83,87.17,8.17,1.81,C0B010
基隆嶼,25.19141,121.78391,-1.59,25.22,5.12,97.0,3.17,1.35,C0B020
復興,24.820208,121.352281,0.1,23.95,1.78,88.33,8.33,-4.84,C0C460
桃園,24.992425,121.323172,-0.66,26.68,5.67,80.17,5.58,-3.72,C0C480
八德,24.928708,121.283289,-1.44,26.08,1.92,81.17,5.33,-1.99,C0C490
觀音,25.027072,121.153317,-0.72,25.38,10.09,93.17,6.25,-3.21,C0C590
蘆竹,25.084275,121.265767,-0.91,26.43,2.12,84.83,6.08,-3.31,C0C620
大溪,24.882853,121.265547,-0.55,25.18,6.39,85.17,6.25,-1.12,C0C630
平鎮,24.897503,121.214636,-0.34,25.37,4.53,85.83,8.75,1.4,C0C650
楊梅,24.912375,121.143047,-1.56,25.85,8.79,86.83,4.92,-4.27,C0C660
龍潭,24.870056,121.221389,-1.39,25.17,6.88,86.17,7.67,-0.36,C0C670
龜山,25.02846,121.38656,-2.51,24.0,2.67,83.67,7.25,-5.03,C0C680
中壢,24.977661,121.256375,-1.6,26.02,6.17,81.33,4.67,2.19,C0C700
大溪永福,24.892936,121.324975,-0.83,25.77,2.25,87.0,5.17,2.07,C0C710
梅花,24.678347,121.208558,0.39,23.78,4.87,92.5,6.83,-2.77,C0D360
峨眉,24.6905,121.017189,-0.49,26.4,4.97,91.5,5.75,-0.51,C0D430
打鐵坑,24.849664,121.150789,-0.58,24.47,0.94,87.67,3.42,-4.13,C0D480
橫山,24.71116,121.11693,-0.53,24.75,10.71,97.17,9.08,0.97,C0D540
雪霸,24.526972,121.11605,0.52,18.03,10.73,93.17,7.33,-5.08,C0D550
竹東,24.767147,121.057881,0.56,26.75,-1.43,75.33,6.75,-0.26,C0D560
寶山,24.735006,121.025192,-0.03,25.6,4.84,90.17,6.92,-0.58,C0D580
新豐,24.87068,120.97721,-0.47,25.38,10.1,94.5,6.75,-4.44,C0D590
湖口,24.904794,121.043628,-1.35,26.03,1.15,83.83,5.75,-4.06,C0D650
新竹市東區,24.798681,120.986942,-1.48,26.33,6.52,83.17,6.5,1.08,C0D660
竹南,24.708978,120.888897,1.43,28.25,9.84,89.5,9.33,0.24,C0E420
南庄,24.601775,121.000214,0.35,25.47,5.34,89.17,6.5,-4.08,C0E430
明德,24.583486,120.885411,-0.47,27.17,4.68,84.17,9.25,4.46,C0E550
通霄,24.471892,120.704622,-1.03,26.67,6.32,89.17,8.83,2.78,C0E590
馬都安,24.451272,120.930192,0.51,23.0,12.74,92.83,9.08,-3.7,C0E610
頭份,24.688247,120.912206,0.46,28.07,7.55,82.67,13.67,6.45,C0E730
造橋,24.637056,120.864778,-0.96,27.0,3.85,85.5,10.0,4.01,C0E740
苗栗,24.564569,120.824575,-1.39,27.07,3.28,78.17,7.67,2.01,C0E750
銅鑼,24.489681,120.790853,-1.09,26.57,4.13,85.83,9.83,2.22,C0E780
西湖,24.562947,120.7485,-0.84,26.43,3.79,90.33,6.5,1.03,C0E810
獅潭,24.539133,120.920042,-0.95,25.85,2.79,86.33,7.67,-0.12,C0E820
苑裡,24.439714,120.653053,-1.44,26.82,5.21,85.0,5.58,-1.08,C0E830
大河,24.618069,120.948578,-2.51,24.87,5.93,86.83,7.42,-1.66,C0E850
高鐵苗栗,24.60725,120.826094,-1.41,26.87,18.62,92.17,8.92,5.9,C0E870
石岡,24.276061,120.777644,-0.24,26.57,6.05,87.33,12.42,0.64,C0F0B0
中坑,24.248517,120.903319,-0.94,21.48,1.86,92.83,18.08,-3.04,C0F0C0
審馬陣,24.381675,121.4203,1.03,11.6,10.67,96.83,9.83,5.17,C0F0D0
東勢,24.246428,120.833047,0.49,26.95,5.03,83.83,15.0,4.8,C0F850
大坑,24.173142,120.722289,0.4,28.58,8.68,83.5,5.33,-3.33,C0F970
神岡,24.272481,120.658314,-1.12,26.38,3.57,86.17,5.75,1.03,C0F9I0
大安,24.345061,120.588025,-1.22,26.77,4.15,87.5,7.08,3.06,C0F9K0
后里,24.310436,120.729725,-0.39,27.2,6.44,87.5,8.83,1.24,C0F9L0
豐原,24.254322,120.720692,0.44,28.18,4.6,82.5,3.42,-4.68,C0F9M0
大里,24.092464,120.701378,-0.49,28.6,12.46,85.83,10.67,2.41,C0F9N0
潭子,24.213106,120.703933,0.03,28.7,10.67,86.0,4.92,-3.33,C0F9O0
清水,24.312297,120.562242,-1.26,27.18,3.21,86.17,7.75,3.51,C0F9P0
外埔,24.347817,120.705686,-0.63,26.78,3.03,87.67,8.75,3.15,C0F9Q0
龍井,24.184536,120.528972,-0.86,27.52,-2.47,85.17,9.5,4.39,C0F9R0
烏日,24.107058,120.624103,-0.8,27.82,6.07,81.67,9.0,1.47,C0F9S0
西屯,24.179494,120.641275,-1.05,27.62,5.61,81.5,5.42,-1.72,C0F9T0
南屯,24.137006,120.637969,-1.08,27.88,7.01,81.83,8.67,1.18,C0F9U0
新社,24.200172,120.815806,-0.17,25.22,3.21,88.0,19.08,7.7,C0F9V0
大雅(中科園區),24.21528,120.62445,-1.07,26.58,8.47,87.5,3.42,-4.65,C0F9X0
桃山,24.432739,121.303808,1.43,11.53,8.74,93.67,19.58,1.4,C0F9Y0
雪山東峰,24.388792,121.268675,1.26,12.12,10.36,93.83,15.33,-2.35,C0F9Z0
芬園,24.015678,120.6213,-1.21,26.47,15.65,97.33,14.92,6.76,C0G620
員林,23.946503,120.585597,1.96,29.58,3.97,85.83,19.25,8.2,C0G650
溪湖,23.94835,120.479122,0.32,28.43,0.69,88.0,15.75,6.14,C0G660
溪州,23.851589,120.499093,-0.33,27.55,2.02,84.67,17.42,3.03,C0G720
二林,23.903325,120.376081,-0.7,27.23,3.98,92.33,11.75,-2.26,C0G730
大城,23.852487,120.320935,-0.67,27.17,5.58,89.0,9.83,-1.92,C0G740
福興,24.041289,120.437669,-0.89,28.03,0.29,83.67,5.83,-0.97,C0G770
秀水,24.03405,120.503869,-0.52,28.08,5.21,88.0,15.58,9.08,C0G780
埔鹽,24.000394,120.431683,0.02,28.07,-1.46,85.33,7.92,1.35,C0G800
埔心,23.947633,120.525456,0.5,29.28,6.25,85.5,19.5,9.57,C0G810
田尾,23.901669,120.509389,-0.43,27.98,6.72,91.33,19.58,8.42,C0G820
埤頭,23.866003,120.452806,-0.71,27.5,8.35,96.67,16.83,5.7,C0G830
社頭,23.897647,120.5862,-0.82,28.23,14.95,89.83,15.5,5.68,C0G860
伸港,24.148933,120.484403,-1.0,27.48,0.58,84.17,9.33,4.72,C0G890
線西,24.143358,120.443536,-1.51,27.4,4.46,85.83,8.5,1.75,C0G900
花壇,24.032076,120.549461,0.56,29.53,16.17,91.17,17.25,11.12,C0G910
埔里,23.972169,120.952425,-0.42,25.42,8.29,91.67,35.75,10.46,C0H890
草屯,23.973672,120.68085,-1.03,27.15,10.92,88.17,18.67,10.39,C0H960
昆陽,24.121322,121.273642,1.62,11.62,7.72,99.5,16.0,2.2,C0H990
神木村,23.532742,120.843667,1.07,19.67,6.35,97.0,13.75,-6.32,C0H9A0
合歡山,24.143442,121.272547,2.08,10.8,10.21,100.0,20.67,1.01,C0H9C0
廬山,24.033311,121.181808,0.54,19.53,7.17,93.67,19.75,-0.11,C0I010
信義,23.689694,120.851036,-0.09,24.63,6.83,92.83,13.25,-11.15,C0I080
竹山,23.761225,120.688156,0.26,26.9,9.59,91.0,23.5,10.51,C0I110
水里,23.812553,120.849792,-0.23,26.0,6.66,88.33,27.25,-0.79,C0I360
魚池,23.895703,120.94135,-0.33,24.12,4.53,90.0,33.67,7.28,C0I370
集集,23.828206,120.801467,-0.84,26.12,9.88,92.33,28.5,0.94,C0I380
仁愛,24.022122,121.132206,0.32,21.58,2.61,91.33,19.25,-13.85,C0I390
名間,23.837053,120.701447,-1.15,26.18,13.63,92.83,17.92,1.08,C0I410
國姓,24.037803,120.855072,-0.6,25.88,6.27,91.17,19.17,-3.13,C0I420
南投,23.911469,120.687331,-0.94,27.5,16.21,92.33,11.33,-5.12,C0I460
梅峰,24.085272,121.173572,0.76,16.37,4.54,95.67,24.92,-7.38,C0I480
萬大林道,23.928228,121.091411,0.09,19.18,2.88,94.5,23.0,-4.81,C0I490
小奇萊,24.131764,121.295717,1.6,11.53,7.5,99.5,6.17,-8.83,C0I530
崙背,23.75555,120.318925,-0.72,27.23,5.6,91.5,15.67,-0.65,C0K250
四湖,23.630414,120.227125,-0.05,27.33,5.17,90.17,14.33,5.24,C0K280
宜梧,23.536281,120.169329,-0.94,27.47,2.91,87.83,9.42,1.59,C0K291
虎尾,23.719183,120.442036,-0.35,27.38,15.27,93.67,20.17,9.25,C0K330
土庫,23.679029,120.395574,-1.3,27.13,5.48,88.33,23.0,7.01,C0K390
斗六,23.720583,120.541127,-0.95,27.3,6.17,86.67,9.83,-7.87,C0K400
北港,23.573957,120.292802,-0.99,27.32,3.82,87.0,9.17,3.1,C0K410
西螺,23.800407,120.467394,-0.87,27.35,6.5,88.33,17.25,1.97,C0K420
褒忠,23.690938,120.303634,-0.79,27.13,5.62,90.67,15.0,2.53,C0K430
二崙,23.772797,120.408944,-1.05,27.05,14.67,98.17,18.5,1.88,C0K440
大埤,23.646074,120.431537,-1.06,27.23,8.52,89.67,13.33,-4.19,C0K450
斗南,23.678734,120.478359,-1.05,27.27,10.7,88.5,13.67,-3.97,C0K460
林內,23.748675,120.609642,-0.83,26.82,7.88,89.5,17.5,0.07,C0K470
莿桐,23.761192,120.502372,-0.95,27.05,9.17,89.17,13.17,-4.33,C0K480
元長,23.64981,120.315024,-1.05,27.37,7.59,89.17,20.17,6.93,C0K500
水林,23.572924,120.24597,-1.04,27.45,9.45,90.5,15.92,8.53,C0K510
臺西,23.701547,120.197559,-1.08,27.1,6.7,89.5,11.92,-2.8,C0K530
蔦松,23.514319,120.229736,-0.98,27.57,7.01,89.83,10.08,3.76,C0K550
棋山,23.68645,120.603417,-0.63,27.12,10.93,91.83,9.58,-14.25,C0K560
高鐵雲林,23.737456,120.417944,-1.66,26.85,8.79,91.33,18.17,13.94,C0K580
東後寮,23.369908,120.248065,-1.1,27.18,8.35,92.5,19.5,14.61,C0M520
奮起湖,23.493903,120.699253,0.93,20.28,5.69,98.17,28.42,3.16,C0M530
中埔,23.42538,120.5229,-1.08,26.82,7.09,85.17,15.33,3.18,C0M640
朴子,23.43463,120.23902,-1.78,26.62,10.1,92.5,20.08,15.75,C0M650
溪口,23.604131,120.403569,-0.94,27.1,5.71,88.5,8.25,-2.98,C0M660
大林,23.600616,120.45841,-1.12,27.5,10.97,89.0,14.67,-2.86,C0M670
太保,23.455062,120.331455,-1.45,27.13,8.56,91.33,14.17,7.18,C0M680
水上,23.419734,120.388909,-1.15,27.18,8.28,89.5,23.58,16.98,C0M690
竹崎,23.526178,120.555508,-0.77,26.6,10.17,90.5,21.25,7.9,C0M700
東石,23.458927,120.15385,-1.19,27.55,2.55,86.17,10.0,3.7,C0M710
番路,23.464657,120.554156,-0.79,26.52,10.08,88.5,18.5,1.96,C0M720
嘉義市東區,23.457673,120.460531,-1.44,27.53,12.53,88.83,29.75,21.85,C0M730
六腳,23.492871,120.290625,-1.07,27.37,9.0,88.5,14.08,8.07,C0M740
布袋,23.380878,120.167789,-1.04,27.72,6.59,89.17,15.08,10.72,C0M750
民雄,23.551754,120.428457,-1.39,27.32,9.67,89.17,13.08,0.2,C0M760
嘉義梅山,23.585398,120.555587,-0.99,26.87,10.56,90.33,20.33,2.04,C0M770
鹿草,23.41134,120.30835,-1.23,27.4,10.38,91.33,23.25,15.38,C0M780
新港,23.553269,120.345728,-1.51,27.07,8.47,88.67,8.67,-0.73,C0M790
茶山,23.299075,120.664767,-0.64,24.83,8.83,93.5,22.58,-5.58,C0M800
里佳,23.389125,120.716647,-0.25,20.3,8.38,95.83,27.58,-9.15,C0M810
達邦,23.453994,120.749517,0.41,22.48,8.74,93.67,17.67,-17.38,C0M820
表湖,23.24186,120.64166,-1.57,22.93,9.29,93.5,21.67,9.73,C0M850
新美,23.338017,120.683169,-0.33,24.38,14.04,93.17,27.92,21.92,C0M860
北寮,23.079561,120.495008,-1.19,26.77,12.78,94.83,43.58,35.45,C0O830
王爺宮,23.222064,120.40085,0.98,28.73,1.33,84.33,26.83,19.77,C0O840
大內,23.11885,120.36083,-0.32,28.57,8.73,90.0,31.42,26.17,C0O860
善化,23.112883,120.297219,-0.09,27.55,12.03,95.5,29.08,19.94,C0O900
崎頂,22.959547,120.369317,-0.2,27.75,8.14,91.5,27.5,23.57,C0O960
虎頭埤,23.021375,120.347878,-1.04,27.03,2.96,86.0,35.0,27.83,C0O970
新市,23.061614,120.298197,-0.49,28.22,3.09,86.5,29.83,25.43,C0O980
媽廟,22.99175,120.293525,-0.81,27.95,8.69,90.83,25.33,20.28,C0O990
尾寮山,22.833111,120.683889,1.07,22.42,6.37,99.0,45.33,25.26,C0R100
阿禮,22.742908,120.743678,-0.57,21.72,5.04,91.5,18.42,4.98,C0R130
瑪家,22.682903,120.686639,-1.02,23.23,14.52,98.67,26.58,5.79,C0R140
三地門,22.709889,120.639944,0.36,27.87,6.9,84.0,21.17,6.48,C0R150
鹽埔,22.739558,120.530778,-0.51,27.85,3.38,89.5,22.33,14.53,C0R160
赤山,22.592333,120.614306,-0.39,28.18,10.57,93.0,20.58,8.63,C0R190
潮州,22.534361,120.54,0.25,28.33,6.96,84.83,18.17,7.13,C0R220
來義,22.527306,120.625111,-1.1,26.9,12.33,93.33,24.08,16.14,C0R240
春日,22.370361,120.628306,-2.04,26.53,10.65,90.83,29.75,23.9,C0R260
琉球嶼,22.332244,120.362236,0.03,27.88,0.83,87.17,11.67,3.52,C0R270
車城,22.0744,120.716247,-0.78,28.1,5.58,87.83,17.5,15.62,C0R320
牡丹,22.130036,120.792639,-1.0,25.88,15.25,97.0,18.08,16.52,C0R341
貓鼻頭,21.921774,120.7358,0.14,27.9,1.46,86.83,14.33,7.26,C0R350
大漢山,22.405264,120.753181,0.86,18.6,5.46,99.83,51.08,43.65,C0R440
高樹,22.826389,120.600806,-1.14,27.55,5.12,81.0,27.17,17.86,C0R470
長治,22.693128,120.542622,-0.24,28.6,8.74,88.17,24.0,15.89,C0R480
九如,22.7405,120.490503,-0.28,28.4,3.09,85.33,24.58,16.9,C0R490
崁頂,22.514781,120.506914,-0.94,28.02,6.62,89.17,17.17,9.87,C0R520
佳冬,22.419456,120.552375,-0.85,27.93,6.25,88.33,25.08,18.98,C0R540
新埤,22.467947,120.582894,-0.8,27.87,0.9,84.0,28.92,23.67,C0R550
新園,22.5434,120.461558,0.02,28.92,1.17,83.83,23.0,16.01,C0R560
麟洛,22.65078,120.52719,-0.14,28.92,9.05,87.67,25.75,18.9,C0R570
南州,22.48591,120.50274,-0.91,27.83,11.29,92.17,19.67,13.52,C0R580
里港,22.77919,120.49459,-0.78,27.73,7.5,88.5,21.42,14.51,C0R590
舊泰武,22.588194,120.664944,-0.79,23.6,9.63,93.83,31.58,13.54,C0R600
墾雷,21.900836,120.855269,-1.37,27.5,11.66,95.5,22.83,22.15,C0R620
東港,22.46247,120.44074,-0.91,28.03,4.5,89.0,21.08,19.0,C0R640
竹田,22.58486,120.54344,-0.98,28.28,5.15,85.33,21.83,19.4,C0R650
枋寮,22.367722,120.590647,-0.29,27.9,10.12,92.0,24.92,22.1,C0R660
楓港,22.190131,120.692156,-1.13,27.53,4.33,84.83,26.33,24.71,C0R670
佳樂水,21.993578,120.861633,-1.4,27.8,10.71,88.83,10.42,10.35,C0R680
墾丁,21.966756,120.810269,-0.76,26.15,5.25,93.5,12.58,11.96,C0R690
枋山,22.246844,120.661086,-0.0,28.08,3.67,85.67,46.5,44.38,C0R700
龍磐,21.931672,120.838942,-1.32,26.98,7.08,92.33,14.67,14.23,C0R710
旭海,22.205403,120.887614,-1.71,26.15,11.79,88.17,9.08,8.9,C0R720
大坪頂,22.024633,120.69355,-0.68,27.02,8.33,95.83,9.33,8.27,C0R730
四林格山,22.076989,120.802439,-0.39,24.08,2.83,97.83,21.25,6.06,C0R750
南仁湖,22.084681,120.863353,-1.47,25.0,15.67,98.67,19.75,12.44,C0R760
保力,22.071122,120.764111,-0.47,26.92,5.79,91.67,18.0,9.94,C0R770
滿州,22.024403,120.839892,-1.14,27.35,8.0,87.5,9.92,8.48,C0R780
九棚,22.14195,120.889281,-1.99,27.05,15.67,87.17,10.75,8.81,C0R790
丹路,22.204481,120.750989,-0.67,27.03,7.42,89.67,38.83,36.77,C0R800
內獅,22.305064,120.642986,-0.12,28.07,18.67,98.17,36.5,33.12,C0R810
白鷺,22.454275,120.666219,-0.07,24.78,8.46,93.33,45.0,41.69,C0R820
高士,22.121825,120.836781,-1.53,24.77,14.5,96.0,16.17,10.98,C0R830
牡丹池山,22.168389,120.841225,-1.37,23.92,14.29,97.67,19.5,18.12,C0R840
下馬,23.150427,121.070312,0.31,23.95,9.6,90.67,15.17,14.95,C0S660
太麻里,22.60902,120.98533,0.51,24.26,10.6,94.2,1.1,-5.88,C0S690
知本,22.684866,121.005642,0.99,24.92,9.3,94.0,28.58,20.25,C0S700
鹿野,22.917711,121.122994,0.8,25.25,11.37,92.17,12.58,5.7,C0S710
綠島,22.6672,121.47533,0.49,27.15,1.97,87.67,7.42,3.09,C0S730
池上,23.119628,121.209469,0.63,25.77,7.6,91.5,16.75,11.96,C0S740
向陽,23.248397,120.986133,2.12,16.98,22.83,92.83,15.25,-0.5,C0S750
大溪山,22.478475,120.943325,1.0,25.45,3.77,89.67,9.17,0.44,C0S770
金崙,22.538122,120.966875,0.72,27.08,8.37,86.17,7.92,2.09,C0S790
東河,22.972672,121.303986,-0.67,26.9,8.8,92.0,7.92,2.59,C0S810
長濱,23.286817,121.411975,0.32,26.03,7.9,90.5,22.33,16.77,C0S830
南田,22.279725,120.889208,0.4,27.98,5.2,81.0,7.67,-1.8,C0S840
關山,23.0395,121.175017,-0.67,26.25,9.87,91.17,15.5,7.4,C0S890
蘭嶼高中,22.04909,121.51214,-1.2,28.27,11.31,90.0,16.75,15.81,C0S900
蘭嶼燈塔,22.081197,121.503117,-1.31,26.55,13.17,95.67,28.67,27.79,C0S910
金峰嘉蘭,22.594789,120.960825,-1.39,27.23,11.83,87.33,14.67,10.51,C0S920
延平,22.902581,121.084058,-1.48,26.12,14.75,89.5,17.83,17.08,C0S930
石寧山,23.223772,121.406639,-1.36,26.85,7.83,90.83,27.75,27.53,C0S940
七塊厝,22.954453,121.229922,-0.65,25.92,3.29,88.17,14.25,9.62,C0S950
香蘭,22.587569,120.993375,-1.03,27.98,14.71,87.83,12.92,12.79,C0S960
加津林,22.416211,120.926942,-0.65,27.9,8.54,83.67,6.25,6.06,C0S970
勝林山,22.430439,120.8938,-2.05,22.58,15.33,94.83,10.0,9.34,C0S980
山豬窟,22.318619,120.857372,-2.15,25.47,16.25,89.5,8.42,8.32,C0S990
歷坵,22.520969,120.89185,-0.4,25.32,6.62,90.5,12.58,11.77,C0SA00
檳榔四格山,22.810031,121.109308,-1.3,25.35,10.25,92.5,9.25,8.5,C0SA10
金崙山,22.567419,120.959667,-0.34,24.03,6.54,89.17,20.17,19.67,C0SA20
都歷,23.020333,121.323642,-1.41,26.75,6.75,86.0,9.25,5.59,C0SA30
瑞和,22.974361,121.156697,-1.67,26.28,9.96,88.33,14.75,12.91,C0SA40
知本（水試所）,22.702394,121.082761,-1.37,27.48,11.0,88.5,9.0,8.94,C0SA60
土坂,22.453108,120.887572,-0.5,27.55,11.33,86.33,11.25,9.69,C0SA80
達仁林場,22.264347,120.823972,-1.6,24.53,17.0,94.0,22.17,19.98,C0SA90
大禹嶺,24.186117,121.316086,1.25,13.75,9.04,92.5,12.67,1.82,C0T790
天祥,24.179597,121.495639,0.97,24.13,4.54,86.83,6.17,2.08,C0T820
鯉魚潭,23.935639,121.508944,0.29,25.18,2.17,91.83,6.5,-0.41,C0T870
西林,23.8119,121.441458,0.24,25.95,9.17,91.0,6.5,-1.36,C0T900
光復,23.660694,121.424964,0.87,26.53,-0.81,88.0,12.58,5.03,C0T960
月眉山,23.809928,121.539828,1.44,24.73,-2.25,92.0,6.5,0.31,C0T9A0
水源,23.991861,121.537169,0.81,23.6,-0.06,93.5,8.83,2.56,C0T9B0
和中,24.26676,121.74103,0.31,26.58,9.46,100.0,7.0,-1.53,C0T9D0
大坑,23.880628,121.581981,0.56,24.58,3.83,93.17,4.75,-2.16,C0T9E0
水璉,23.797131,121.542514,0.1,25.63,4.48,92.0,5.75,0.11,C0T9F0
鳳林山,23.735269,121.420131,-0.38,23.53,1.83,95.83,10.83,2.26,C0T9G0
加路蘭山,23.682947,121.5274,1.18,24.03,4.15,98.0,9.58,1.68,C0T9H0
豐濱,23.583897,121.514806,0.75,26.02,-2.67,88.33,8.58,1.08,C0T9I0
靜浦,23.455167,121.495028,0.59,26.45,8.63,93.83,16.33,10.88,C0T9M0
富里,23.171639,121.249378,-1.28,26.13,17.88,99.5,10.67,9.76,C0T9N0
雙連埤,24.753033,121.641303,-0.79,22.42,-1.83,94.33,8.25,-4.53,C0U520
礁溪,24.817539,121.765608,0.16,26.08,-2.92,85.5,5.83,-5.85,C0U600
玉蘭,24.675286,121.587061,0.29,23.93,-1.33,86.83,11.75,0.02,C0U650
太平山,24.505486,121.525656,1.55,18.05,0.69,94.5,7.42,-2.53,C0U710
南山,24.43742,121.38167,-0.53,20.93,-1.12,90.33,8.75,3.06,C0U720
龜山島,24.841667,121.953133,-0.57,23.53,-4.5,91.0,2.75,-2.32,C0U750
東澳,24.52196,121.83318,0.13,26.4,-4.21,85.83,5.58,-5.3,C0U760
南澳,24.44935,121.81022,0.04,26.63,-0.5,87.0,0.08,-7.33,C0U770
五結,24.68637,121.79794,-1.43,25.78,0.04,86.5,5.5,-2.33,C0U780
頭城,24.85323,121.8308,-1.44,25.95,0.0,89.83,6.25,-4.12,C0U860
大礁溪,24.791042,121.675047,-0.89,23.58,4.25,93.67,9.83,1.12,C0U870
三星,24.66812,121.65302,-1.24,25.3,-4.88,85.5,7.58,0.06,C0U890
內城,24.71813,121.68766,-0.74,25.9,-1.62,87.83,8.67,-1.52,C0U900
冬山,24.63373,121.7937,-0.92,26.13,1.42,84.5,11.58,0.42,C0U910
羅東,24.68184,121.74934,-0.83,26.23,2.21,86.83,5.25,-3.79,C0U940
鶯子嶺,24.89754,121.79244,-0.37,20.75,-4.17,92.67,12.58,2.17,C0U950
翠峰湖,24.510856,121.608044,0.87,17.85,2.21,95.33,16.58,7.98,C0U960
大福,24.80064,121.81389,-1.24,25.53,1.5,86.5,5.17,-4.69,C0U970
坪林石牌,24.86478,121.77396,-0.62,22.95,0.38,95.0,10.42,0.42,C0U980
員山,24.74435,121.72247,-1.16,25.97,3.71,88.83,7.17,-3.06,C0U990
土場,24.576533,121.495333,-1.16,24.15,-2.25,88.67,7.67,2.54,C0UA00
鴛鴦湖,24.590269,121.412228,0.44,18.3,2.27,97.33,23.25,13.38,C0UA10
白嶺,24.527819,121.519031,0.17,20.2,-1.92,94.0,9.17,-0.08,C0UA30
西德山,24.560647,121.752608,-0.14,20.92,1.62,96.17,10.42,2.44,C0UA40
西帽山,24.555361,121.802628,-0.31,22.45,-5.25,89.5,12.5,1.1,C0UA50
樟樹山,24.41393,121.78325,0.0,24.36,-0.67,87.2,1.4,-3.83,C0UA60
桃源谷,24.962606,121.888875,-0.68,23.17,-2.08,94.67,12.33,2.4,C0UA70
復興,23.222403,120.806089,0.49,24.25,7.49,89.0,15.0,-5.21,C0V210
溪埔,22.738578,120.446797,-0.98,27.5,11.35,92.33,23.92,16.92,C0V350
內門,22.975481,120.466769,0.13,27.67,7.27,90.17,53.67,44.68,C0V360
古亭坑,22.893178,120.401947,-0.11,26.92,7.6,91.75,42.5,31.99,C0V370
阿公店,22.804194,120.355528,-0.88,27.45,7.37,90.33,22.25,17.54,C0V400
鳳山,22.646653,120.356122,-1.67,27.48,15.39,92.33,0.83,-4.92,C0V440
鳳森,22.545064,120.392592,-1.11,27.52,5.46,88.67,23.08,17.54,C0V450
新興,22.627422,120.298803,-0.48,28.48,2.53,83.17,25.33,19.8,C0V490
阿蓮,22.883208,120.327508,-1.05,27.93,7.49,88.0,25.17,18.9,C0V530
梓官,22.760558,120.267211,-1.11,27.95,5.34,86.67,22.83,17.32,C0V610
永安,22.82315,120.236856,-1.06,27.85,3.17,87.17,19.17,12.56,C0V620
茄萣,22.906642,120.182608,-0.66,28.4,9.05,87.67,33.5,27.32,C0V630
湖內,22.887139,120.2445,-1.42,27.5,5.61,86.83,25.17,19.22,C0V640
彌陀,22.783806,120.246361,-0.75,28.13,4.9,89.83,21.67,16.06,C0V650
岡山,22.797078,120.294958,-0.79,28.65,7.89,86.67,25.83,20.5,C0V660
仁武,22.701083,120.347722,-0.66,28.82,7.01,86.5,23.42,16.62,C0V680
鼓山,22.623325,120.275575,-0.96,28.12,4.89,86.5,24.17,19.02,C0V690
三民,22.645017,120.311233,-1.15,28.55,9.09,82.33,25.75,20.1,C0V700
苓雅,22.622742,120.330669,-1.28,28.15,17.43,90.0,36.88,31.71,C0V710
林園,22.507747,120.394511,-0.89,28.72,11.7,88.17,22.25,16.65,C0V720
大寮,22.605614,120.395717,-1.61,27.78,15.66,92.5,23.42,17.56,C0V730
旗山,22.888614,120.483597,0.0,28.32,4.94,84.17,44.17,36.18,C0V740
路竹,22.854997,120.259439,-0.44,28.75,5.66,85.33,24.42,16.04,C0V750
橋頭,22.757806,120.30575,-0.56,28.78,2.83,82.67,23.67,19.03,C0V760
大社,22.730306,120.346639,-0.89,28.52,11.89,88.67,25.33,20.15,C0V770
萬山,22.905944,120.688056,0.03,25.87,11.27,92.17,34.67,21.65,C0V790
六龜,22.997889,120.633583,-0.58,26.67,10.37,89.0,38.08,22.9,C0V800
左營,22.67491,120.28491,-1.26,27.85,4.58,86.0,24.42,17.53,C0V810
小林,23.148408,120.63325,-0.82,25.2,15.6,94.17,24.83,19.99,C0V820
東莒,25.9652,119.98069,-0.18,23.38,-4.69,85.25,5.17,-2.36,C0W110
西嶼,23.5626,119.468436,-0.6,25.43,0.06,93.5,48.0,42.91,C0W120
花嶼,23.40007,119.32276,-0.01,26.4,2.01,92.17,11.17,6.29,C0W130
金沙,24.488292,118.408778,-0.71,25.48,-4.82,83.33,1.42,-1.19,C0W140
金寧,24.457703,118.328989,-1.53,25.42,-8.16,81.5,0.92,-1.99,C0W150
東河,23.296598,120.385608,-1.79,26.93,9.28,89.83,26.17,20.03,C0X050
下營,23.22695,120.256261,-1.12,27.53,4.92,87.0,19.33,13.72,C0X060
佳里,23.173039,120.145086,0.03,28.02,9.99,93.17,31.5,24.28,C0X080
臺南市北區,23.010394,120.194228,-1.23,28.45,13.15,87.5,21.67,17.14,C0X100
臺南市南區,22.961189,120.188378,-0.82,28.55,7.23,87.67,25.83,21.41,C0X110
麻豆,23.183289,120.248611,-0.75,28.43,8.8,90.17,22.92,18.27,C0X120
官田,23.193217,120.315422,-1.29,27.75,16.65,95.33,21.17,16.56,C0X130
西港,23.125608,120.203108,-1.58,27.77,7.97,86.83,30.25,25.55,C0X140
安定,23.102614,120.227839,-1.08,28.07,10.47,91.0,38.67,34.88,C0X150
仁德,22.968258,120.257689,-0.69,28.42,9.23,87.67,25.08,21.07,C0X160
關廟,22.963017,120.327797,-1.28,28.0,15.0,90.0,23.75,19.54,C0X170
山上,23.0757,120.363253,-0.99,27.47,8.28,88.33,29.58,23.79,C0X180
安平,22.993161,120.152181,-1.16,28.1,4.68,86.83,23.5,19.23,C0X190
左鎮,23.056758,120.408522,0.06,27.93,4.41,87.83,36.75,29.18,C0X200
白河,23.347466,120.414427,-1.38,27.1,11.43,90.83,22.67,15.48,C0X210
學甲,23.230367,120.182187,-1.12,27.47,9.97,89.17,20.42,16.69,C0X220
鹽水,23.272621,120.247641,-1.27,27.27,8.89,90.17,16.42,12.04,C0X230
關子嶺,23.331169,120.508025,-0.62,25.38,10.0,94.5,31.92,14.27,C0X240
新營,23.310689,120.316681,-1.53,27.57,11.49,89.0,20.0,13.78,C0X250
後壁,23.366358,120.362326,-1.19,27.32,8.72,89.33,18.0,12.85,C0X260
將軍,23.214999,120.13577,-1.05,27.55,7.79,89.17,19.17,15.18,C0X280
北門,23.267772,120.125481,-1.08,27.6,3.02,88.17,18.67,15.8,C0X290
鹿寮,23.386047,120.477331,-0.86,26.88,5.78,89.5,21.67,13.04,C0X300
柳營,23.253328,120.375253,-1.35,26.98,14.0,91.5,22.67,19.54,C0X320
明里,23.208717,121.262342,-0.25,25.83,3.75,92.83,11.75,4.64,C0Z020
佳心,23.34567,121.21316,0.91,22.65,12.42,98.17,24.33,19.39,C0Z050
玉里,23.3215,121.339656,0.54,26.63,8.12,96.0,22.58,13.84,C0Z061
舞鶴,23.46811,121.37407,0.97,25.7,8.46,99.67,27.0,21.82,C0Z070
富源,23.587642,121.378225,0.07,25.77,1.75,91.67,18.42,8.36,C0Z080
東華,23.89525,121.549833,-0.15,26.92,4.07,90.0,2.17,-3.21,C0Z100
吉安光華,23.930925,121.595153,-0.45,26.55,-3.11,84.67,3.5,-1.25,C0Z150
鳳林,23.746114,121.453411,-0.63,26.05,0.96,85.33,10.08,-1.03,C0Z160
卓溪,23.3443,121.3029,-1.12,26.37,3.12,84.67,25.83,17.67,C0Z170
新城,24.040486,121.604878,-0.65,26.53,15.29,98.67,5.0,-0.06,C0Z180
富世,24.14743,121.6297,-0.67,26.6,0.75,88.17,4.33,-3.52,C0Z190
萬榮,23.709219,121.420106,-0.33,25.98,-0.98,86.83,7.67,-1.47,C0Z200
瑞穗,23.5239,121.39021,-0.12,26.45,3.62,89.67,18.5,13.12,C0Z210
和平林道,24.343922,121.656317,-0.5,23.62,-2.79,90.17,8.17,5.88,C0Z220
和平,24.30717,121.77007,-1.24,26.0,-2.42,82.83,4.5,-3.15,C0Z230
瑞穗林道,23.49284,121.30688,-0.0,21.55,3.5,98.17,22.75,12.75,C0Z250
蕃薯寮,23.73835,121.540108,-0.44,24.75,-2.85,90.67,7.42,-0.12,C0Z270
德武,23.47426,121.41071,-0.32,26.13,2.75,89.5,24.83,21.58,C0Z280
赤柯山,23.36893,121.38293,-0.09,22.47,3.29,94.17,24.33,20.38,C0Z290
東里,23.26853,121.30547,-0.6,26.4,1.21,88.33,26.25,23.0,C0Z300
清水斷崖,24.218294,121.689142,-1.12,25.97,-0.96,88.67,3.42,-5.15,C0Z310
清水林道,23.27125,121.188272,-0.41,23.92,5.42,90.17,22.0,15.44,C0Z320
安通山,23.290728,121.348528,-0.9,24.52,7.46,93.0,25.42,24.76,C0Z330
口湖工作站,23.589978,120.180394,-0.8,27.27,5.65,82.83,9.33,5.68,12J990
東港工作站,22.479997,120.466058,-1.04,28.05,7.23,76.67,17.42,14.52,12Q970
萬大發電廠,23.978875,121.139639,0.67,22.08,-2.5,88.83,19.5,13.85,42HA10
桃改樹林分場,24.944503,121.386972,-1.76,26.07,0.29,80.67,3.5,0.94,72AI40
桃園農改場,24.950944,121.030583,-0.04,26.15,3.88,88.33,4.17,-6.42,72C440
桃改五峰分場,24.612194,121.157167,1.31,22.35,4.7,93.17,0.17,-10.6,72D080
臺中農改場,24.003028,120.534389,-0.05,27.13,8.1,91.5,21.58,12.82,72G600
中改埔里分場,23.903208,120.963364,0.5,23.92,4.5,94.5,29.0,8.81,72HA00
南改斗南分場,23.634556,120.477333,0.12,27.48,6.85,90.17,8.67,-1.56,72K220
南改義竹分場,23.360694,120.279361,-0.54,27.1,3.55,88.67,19.33,10.94,72M360
南改鹿草分場,23.416869,120.283061,-1.09,27.32,11.85,92.67,15.67,8.64,72M700
臺南農改場,23.0605,120.342194,-0.38,27.25,10.16,92.67,28.75,20.74,72N100
七股研究中心,23.081672,120.062894,-0.84,28.0,6.94,89.0,33.83,28.77,72N240
高雄農改場,22.709333,120.525889,-0.43,27.73,10.67,91.0,24.33,12.87,72Q010
東改班鳩分場,22.829528,121.077694,0.42,25.87,2.74,87.5,4.08,-3.01,72S200
東改賓朗果園,22.813889,121.071278,-25.74,-0.77,2.62,93.25,11.42,3.99,72S590
花蓮農改場,23.975222,121.563889,0.73,26.6,-0.04,84.83,6.58,1.52,72T250
花改蘭陽分場,24.686306,121.716583,0.02,25.88,1.61,87.67,6.08,-1.99,72U480
高改旗南分場,22.857861,120.516667,-1.42,27.18,14.81,90.5,8.2,-2.57,72V140
茶改北部分場,24.955778,121.631222,0.56,24.0,2.48,88.83,7.17,-6.39,82A750
茶改場,24.908472,121.185333,-0.32,25.37,2.36,86.0,4.58,-4.04,82C160
茶改中部分場,23.875611,120.913583,-0.48,22.38,6.42,95.33,33.33,14.98,82H320
茶改南部分場,23.762528,120.7405,-0.41,24.78,6.85,94.0,0.0,-16.19,82H840
茶改東部分場,22.907694,121.130139,-0.05,26.3,3.52,88.0,12.25,5.9,82S580
農工中心,24.985917,121.239833,0.12,26.13,7.17,82.83,4.83,-4.16,A2C560
水試臺西試驗場,23.717231,120.190522,-0.77,27.37,9.95,93.0,0.0,-4.17,A2K360
臺大雲林校區,23.730628,120.423903,-0.85,26.93,8.67,90.67,17.92,9.98,A2K630
臺南蘭花園區,23.340258,120.379661,-0.72,27.07,9.75,92.5,17.0,12.44,A2N290
畜產試驗所,23.058972,120.336406,-0.64,26.87,8.89,92.67,30.33,18.71,B2N890
畜試南區分所,21.945583,120.802167,-0.51,27.47,2.21,84.0,12.42,5.1,B2Q810
畜試東區分所,24.669039,121.832561,-1.08,25.93,4.96,92.83,6.92,-1.65,B2U990
蓮華池,23.918333,120.885278,-0.75,23.58,10.2,93.83,32.83,18.61,E2H360
林試畢祿溪站,24.226944,121.308522,-0.25,15.95,18.17,94.17,10.83,10.83,E2HA20
四湖植物園,23.676986,120.163433,-0.89,27.3,11.97,97.83,13.67,7.57,E2K600
林試六龜中心,22.991703,120.645722,-1.18,25.73,17.21,93.83,35.25,32.44,E2P980
林試太麻里2,22.598,120.99775,-0.89,27.65,7.46,82.83,1.58,1.4,E2S960
林試太麻里1,22.598922,120.980044,-0.89,27.18,10.04,86.17,14.25,14.0,E2S980
農試所(霧峰),24.031261,120.688133,0.72,27.92,-13.29,69.83,22.25,12.24,G2F820
農試嘉義分所,23.485028,120.473806,-0.48,26.82,11.46,92.0,38.33,31.65,G2L020
農試溪口農場,23.58565,120.408111,-0.44,27.22,8.26,89.67,9.0,6.44,G2M350
農試鳳山分所,22.646611,120.356083,-1.01,27.48,11.71,88.67,20.33,10.21,G2P820
苗栗農改場,24.495722,120.829111,-0.39,26.37,5.82,85.67,7.17,-2.51,K2E360
苗改生物防治研究中心,24.422861,120.871833,-0.88,25.4,6.54,86.83,7.08,4.73,K2E710
種苗改良場,24.225972,120.800917,0.39,25.25,13.74,95.33,13.33,-1.45,K2F750
臺大和社,23.590856,120.888864,1.59,23.8,5.58,93.83,10.75,5.06,U2HA30
臺大內茅埔,23.689722,120.851117,0.57,24.58,5.78,92.17,12.83,7.26,U2HA40
臺大竹山,23.756972,120.681556,-0.74,26.67,9.96,89.33,21.33,13.12,U2HA50
