站名,緯度,經度,平均溫距平,本年度平均溫,平均溼度距平,本年度日均相對溼度,本年度日均降水量,日均降水量距平,站號
淡水,25.164889,121.448906,0.9,25.71,0.22,78.96,7.57,-0.46,466900
鞍部,25.182586,121.529731,0.43,20.07,3.51,90.72,8.71,-2.1,466910
臺北,25.037658,121.514853,1.04,26.7,-1.58,73.2,12.83,4.89,466920
竹子湖,25.162078,121.544547,0.69,21.9,1.93,86.04,9.3,0.48,466930
基隆,25.133314,121.740475,0.96,25.72,0.53,77.22,9.96,0.51,466940
花蓮,23.975128,121.613275,0.37,25.59,2.55,82.64,9.19,3.47,466990
新屋,25.006725,121.047492,0.72,25.76,-1.72,81.64,10.77,0.41,467050
宜蘭,24.763975,121.756528,0.59,25.3,1.95,83.5,5.42,-1.64,467080
金門,24.407306,118.289281,1.32,24.41,4.85,87.92,3.44,-2.68,467110
田中,23.873803,120.581286,-0.34,27.1,-5.95,76.61,4.23,-3.92,467270
澎湖,23.565503,119.563094,0.76,26.65,-0.89,81.79,0.97,-3.4,467350
臺南,22.99328,120.20492,0.83,28.44,-3.32,71.36,1.43,-4.0,467410
永康,23.038386,120.2367,1.2,28.46,-0.36,72.2,1.89,-3.49,467420
嘉義,23.495925,120.432906,0.8,27.28,-0.56,78.17,2.07,-3.55,467480
臺中,24.145736,120.684075,0.76,27.25,-1.93,73.08,5.46,-2.99,467490
阿里山,23.508208,120.813242,-0.01,13.2,-0.7,88.8,6.0,-10.77,467530
大武,22.35572,120.90374,0.81,27.53,-1.3,75.25,1.39,-3.89,467540
玉山,23.48718,120.95943,0.65,6.56,-0.35,80.6,5.72,-7.45,467550
新竹,24.827853,121.014219,1.04,26.4,-1.59,75.61,7.16,-0.87,467571
恆春,22.003897,120.746339,1.13,28.55,-0.94,74.24,0.94,-3.79,467590
成功,23.097486,121.373428,0.6,26.03,3.02,84.25,8.15,2.96,467610
日月潭,23.881325,120.90805,0.45,21.56,3.69,87.87,9.05,-2.78,467650
臺東,22.752211,121.154586,0.66,27.1,1.55,79.04,6.16,1.52,467660
馬祖,26.169467,119.923158,1.69,22.64,3.75,90.56,4.82,-0.18,467990
山佳,24.974944,121.402008,1.39,26.68,-4.76,75.8,9.8,3.33,C0A520
坪林,24.938183,121.70975,1.84,24.32,-3.97,87.68,12.22,3.6,C0A530
泰平,24.971197,121.823711,0.87,22.21,-1.4,93.56,12.48,2.36,C0A550
桶後,24.848222,121.597992,1.03,23.09,-5.12,87.64,9.28,-0.17,C0A570
石碇,24.993969,121.662917,1.17,23.98,-5.5,84.52,14.58,4.41,C0A640
大坪,25.165914,121.632969,1.66,23.94,-3.99,86.4,14.6,2.52,C0A860
五指山,25.132153,121.608692,2.16,22.42,-4.24,89.96,11.42,2.76,C0A870
雙溪,25.036003,121.864242,1.5,25.09,-3.85,86.36,14.44,5.59,C0A890
三和,25.233153,121.595236,0.8,23.79,-4.64,87.16,15.08,0.41,C0A931
金山,25.223628,121.643967,0.95,24.85,-5.74,80.72,13.28,3.71,C0A940
鼻頭角,25.129036,121.923372,1.8,25.76,-4.47,84.56,6.28,2.01,C0A950
三貂角,25.007606,122.002058,1.47,25.23,2.96,86.12,8.9,1.66,C0A970
社子,25.109508,121.469681,1.21,26.72,-1.67,78.36,8.64,1.58,C0A980
天母,25.117494,121.537169,0.72,26.19,-5.2,71.52,8.88,2.04,C0A9C0
內湖,25.079422,121.57545,1.6,27.2,-3.57,74.64,11.48,4.54,C0A9F0
大屯山,25.175675,121.522408,2.18,20.52,1.79,95.72,9.28,0.27,C0AC40
三峽,24.939025,121.369728,2.08,27.37,-3.83,77.72,9.74,0.89,C0AC60
信義,25.037822,121.564597,3.62,28.78,-5.5,76.0,12.64,3.72,C0AC70
文山,25.00235,121.575728,0.6,25.37,-4.9,78.8,12.58,3.48,C0AC80
新莊,25.051478,121.446756,0.83,26.66,-3.18,72.6,10.66,1.69,C0ACA0
八里,25.150211,121.403947,1.92,27.22,3.85,83.56,8.14,-1.15,C0AD10
蘆洲,25.086594,121.472331,1.46,27.44,-2.99,74.12,8.9,0.49,C0AD30
土城,24.973208,121.445169,0.77,25.73,-2.04,79.72,12.8,4.48,C0AD40
鶯歌,24.951533,121.346294,2.03,27.16,-4.88,79.12,9.16,0.98,C0AD50
汐止,25.066881,121.658778,0.85,25.75,-6.91,78.0,12.42,2.86,C0AH00
永和,25.01125,121.508111,1.63,27.28,-2.14,75.2,12.22,3.54,C0AH10
五分山,25.07125,121.780794,2.22,22.16,-4.13,91.84,13.38,4.49,C0AH30
平等,25.129142,121.577086,0.43,23.55,-6.5,80.64,8.82,1.94,C0AH40
林口,25.072181,121.38084,3.08,27.11,-3.41,82.42,9.38,3.1,C0AH50
松山,25.04871,121.55042,0.71,26.78,1.85,71.12,11.52,5.46,C0AH70
深坑,25.002703,121.628328,1.63,26.18,-1.9,81.58,13.48,7.45,C0AH80
福山植物園,24.760717,121.58135,0.2,20.69,0.15,93.32,8.0,-2.79,C0AH90
五股,25.07445,121.42728,0.33,24.6,-7.81,80.36,10.0,0.36,C0AI00
屈尺,24.92184,121.54475,1.33,26.28,-1.19,82.28,13.86,5.55,C0AI10
白沙灣,25.283128,121.519058,1.21,25.32,2.58,83.12,7.6,-3.94,C0AI20
三重,25.057328,121.500629,0.44,27.14,-5.73,80.12,9.56,1.75,C0AI30
石牌,25.115597,121.513139,1.56,27.66,2.08,74.48,7.78,-1.73,C0AI40
七堵,25.094819,121.71713,2.09,26.48,-6.16,81.76,12.2,0.05,C0B010
基隆嶼,25.19141,121.78391,1.11,24.89,2.41,92.68,8.7,0.58,C0B020
復興,24.820208,121.352281,0.93,23.07,-5.17,80.84,9.78,-0.31,C0C460
桃園,24.992425,121.323172,1.36,26.59,-2.36,71.68,9.48,1.52,C0C480
八德,24.928708,121.283289,0.89,25.82,-7.82,72.92,9.92,0.79,C0C490
觀音,25.027072,121.153317,0.64,24.96,5.12,86.28,11.58,2.23,C0C590
蘆竹,25.084275,121.265767,0.99,26.02,-3.34,78.52,8.6,-0.24,C0C620
大溪,24.882853,121.265547,1.15,24.94,-2.0,76.72,10.34,3.18,C0C630
平鎮,24.897503,121.214636,1.44,25.14,-3.4,77.2,11.9,4.5,C0C650
楊梅,24.912375,121.143047,0.77,25.49,-2.01,76.36,10.94,1.89,C0C660
龍潭,24.870056,121.221389,1.16,24.98,-3.24,77.24,10.02,0.94,C0C670
龜山,25.02846,121.38656,-0.09,23.94,-4.35,75.52,9.7,2.18,C0C680
中壢,24.977661,121.256375,0.74,25.85,-3.91,72.68,8.06,0.21,C0C700
大溪永福,24.892936,121.324975,1.52,25.09,-5.1,81.28,11.02,0.12,C0C710
梅花,24.678347,121.208558,0.48,22.52,-1.04,87.36,9.08,-0.63,C0D360
峨眉,24.6905,121.017189,0.49,25.0,0.19,88.08,9.34,-0.45,C0D430
打鐵坑,24.849664,121.150789,0.65,23.77,-3.82,82.32,7.42,-0.44,C0D480
橫山,24.71116,121.11693,0.43,23.93,9.19,95.16,6.04,-2.78,C0D540
雪霸,24.526972,121.11605,0.31,16.34,-4.47,81.52,15.28,4.94,C0D550
竹東,24.767147,121.057881,2.03,26.3,-16.51,60.12,8.82,1.26,C0D560
寶山,24.735006,121.025192,0.75,24.44,-0.14,85.48,10.3,2.01,C0D580
新豐,24.87068,120.97721,0.85,24.93,3.96,86.76,11.28,2.66,C0D590
湖口,24.904794,121.043628,0.92,25.83,-7.42,75.2,10.32,1.51,C0D650
新竹市東區,24.798681,120.986942,0.52,25.86,-2.03,75.52,9.86,1.53,C0D660
竹南,24.708978,120.888897,1.77,26.84,0.81,81.48,5.4,-2.01,C0E420
南庄,24.601775,121.000214,0.45,23.99,0.01,85.64,11.64,2.73,C0E430
明德,24.583486,120.885411,1.09,26.07,-4.6,80.16,8.26,-0.98,C0E550
通霄,24.471892,120.704622,0.56,25.9,-2.02,82.6,7.62,-1.54,C0E590
馬都安,24.451272,120.930192,0.64,22.12,2.33,83.8,9.72,1.57,C0E610
頭份,24.688247,120.912206,1.87,27.42,-1.36,75.08,8.86,1.01,C0E730
造橋,24.637056,120.864778,0.35,25.97,-3.49,80.76,7.92,-1.87,C0E740
苗栗,24.564569,120.824575,0.52,26.52,-6.45,71.36,8.16,-1.24,C0E750
銅鑼,24.489681,120.790853,0.63,25.92,-5.97,77.12,8.56,-0.77,C0E780
西湖,24.562947,120.7485,0.58,25.52,-2.66,85.24,4.04,-4.99,C0E810
獅潭,24.539133,120.920042,0.31,24.78,-5.54,81.25,11.75,0.79,C0E820
苑裡,24.439714,120.653053,0.42,26.28,-3.67,77.76,5.92,-3.19,C0E830
大河,24.618069,120.948578,-1.24,23.55,-2.77,82.2,9.2,1.32,C0E850
高鐵苗栗,24.60725,120.826094,0.27,26.05,3.55,82.92,7.6,2.63,C0E870
石岡,24.276061,120.777644,0.59,25.42,2.77,86.36,8.38,-0.61,C0F0B0
中坑,24.248517,120.903319,-0.6,20.53,-5.34,86.8,14.74,-1.65,C0F0C0
審馬陣,24.381675,121.4203,-0.07,9.72,-8.78,76.28,5.94,-1.37,C0F0D0
東勢,24.246428,120.833047,1.62,26.22,-6.18,75.68,10.08,-4.2,C0F850
大坑,24.173142,120.722289,1.44,27.76,-2.52,75.04,6.14,-5.86,C0F970
神岡,24.272481,120.658314,0.63,25.94,-9.06,75.96,6.64,-3.07,C0F9I0
大安,24.345061,120.588025,0.27,26.16,-3.78,80.6,4.6,-3.4,C0F9K0
后里,24.310436,120.729725,1.11,26.54,-7.87,76.0,6.46,-4.47,C0F9L0
豐原,24.254322,120.720692,1.95,27.67,-8.16,72.28,9.12,-2.88,C0F9M0
大里,24.092464,120.701378,0.41,27.65,4.68,80.62,8.76,-1.81,C0F9N0
潭子,24.213106,120.703933,0.38,27.0,0.06,78.16,6.48,-5.52,C0F9O0
清水,24.312297,120.562242,0.5,26.71,-5.57,78.8,4.02,-3.8,C0F9P0
外埔,24.347817,120.705686,0.55,25.86,-4.69,81.72,5.6,-3.91,C0F9Q0
龍井,24.184536,120.528972,0.72,27.07,-10.75,76.64,2.98,-5.51,C0F9R0
烏日,24.107058,120.624103,0.55,27.3,-4.69,72.52,5.44,-3.05,C0F9S0
西屯,24.179494,120.641275,0.69,27.26,-6.7,71.56,3.58,-7.11,C0F9T0
南屯,24.137006,120.637969,0.33,27.41,-4.39,72.12,5.2,-4.67,C0F9U0
新社,24.200172,120.815806,0.75,24.46,-6.72,78.6,12.02,-3.59,C0F9V0
大雅(中科園區),24.21528,120.62445,0.28,26.13,-2.07,77.44,5.8,-0.52,C0F9X0
桃山,24.432739,121.303808,0.2,9.18,-6.76,75.32,8.02,-3.47,C0F9Y0
雪山東峰,24.388792,121.268675,0.15,9.9,-6.81,74.56,9.42,-0.06,C0F9Z0
芬園,24.015678,120.6213,-0.09,25.77,3.14,86.4,8.88,0.29,C0G620
員林,23.946503,120.585597,2.6,29.18,-8.8,74.68,5.68,-0.38,C0G650
溪湖,23.94835,120.479122,1.15,27.53,6.8,94.17,9.06,1.4,C0G660
溪州,23.851589,120.499093,0.68,26.94,-7.74,74.36,2.9,-1.5,C0G720
二林,23.903325,120.376081,0.66,26.69,-2.61,85.6,5.96,2.14,C0G730
大城,23.852487,120.320935,0.65,26.69,-1.6,80.0,3.86,-0.28,C0G740
福興,24.041289,120.437669,0.71,27.64,-7.52,75.76,3.14,-4.66,C0G770
秀水,24.03405,120.503869,1.07,27.72,-4.59,78.88,4.36,-2.66,C0G780
埔鹽,24.000394,120.431683,3.2,29.32,-5.47,81.3,2.78,-4.4,C0G800
埔心,23.947633,120.525456,3.71,30.53,-11.24,72.4,12.63,4.62,C0G810
田尾,23.901669,120.509389,0.95,27.56,-1.26,83.76,4.04,-4.45,C0G820
埤頭,23.866003,120.452806,0.77,27.02,-3.09,86.52,2.9,-5.21,C0G830
社頭,23.897647,120.5862,1.05,28.21,2.19,79.92,3.86,-4.9,C0G860
二水,23.810742,120.6173,2.94,29.6,-5.1,78.04,2.88,-5.4,C0G880
伸港,24.148933,120.484403,0.5,26.92,-7.05,76.92,2.32,-5.47,C0G890
線西,24.143358,120.443536,-0.56,26.9,-4.09,78.6,2.08,-3.75,C0G900
花壇,24.032076,120.549461,1.31,28.73,4.04,83.04,5.79,-0.73,C0G910
埔里,23.972169,120.952425,0.37,25.01,-2.74,80.36,7.3,-4.59,C0H890
草屯,23.973672,120.68085,0.37,26.86,-4.19,74.64,7.04,-2.14,C0H960
昆陽,24.121322,121.273642,0.2,9.33,-6.87,81.72,6.46,-4.97,C0H990
神木村,23.532742,120.843667,0.55,18.34,-2.84,88.24,6.54,-6.16,C0H9A0
合歡山,24.143442,121.272547,1.02,8.75,-4.82,84.12,11.08,-11.3,C0H9C0
廬山,24.033311,121.181808,0.57,18.76,-4.99,81.0,10.32,-3.36,C0I010
信義,23.689694,120.851036,0.27,23.99,-4.53,81.24,7.16,-2.25,C0I080
竹山,23.761225,120.688156,0.98,26.57,-5.59,79.84,3.58,-3.44,C0I110
水里,23.812553,120.849792,0.49,25.52,-5.07,77.08,7.38,-2.39,C0I360
魚池,23.895703,120.94135,0.48,23.65,-6.83,79.84,8.78,-3.18,C0I370
集集,23.828206,120.801467,0.26,25.91,-3.85,79.52,9.36,1.3,C0I380
仁愛,24.022122,121.132206,0.52,20.58,-7.58,81.08,9.3,-7.0,C0I390
名間,23.837053,120.701447,0.11,25.99,-1.55,78.64,3.12,-2.35,C0I410
國姓,24.037803,120.855072,0.13,25.46,-4.53,79.96,11.3,-1.03,C0I420
南投,23.911469,120.687331,0.24,27.11,1.48,78.96,3.28,-3.08,C0I460
梅峰,24.085272,121.173572,0.23,14.66,-3.5,87.24,9.3,-7.6,C0I480
萬大林道,23.928228,121.091411,0.62,18.5,-8.85,81.76,15.38,1.45,C0I490
小奇萊,24.131764,121.295717,-0.09,9.26,-5.2,83.36,9.54,-15.33,C0I530
崙背,23.75555,120.318925,0.24,26.31,-2.72,82.16,2.5,-1.24,C0K250
四湖,23.630414,120.227125,1.03,27.3,-4.88,78.08,1.68,-2.83,C0K280
宜梧,23.536281,120.169329,0.9,27.3,-4.34,78.56,1.04,-4.54,C0K291
虎尾,23.719183,120.442036,1.11,27.66,-0.02,79.08,2.16,-2.89,C0K330
土庫,23.679029,120.395574,0.76,27.15,-7.86,75.16,1.24,-2.26,C0K390
斗六,23.720583,120.541127,0.6,27.2,-7.49,73.48,1.72,-2.33,C0K400
北港,23.573957,120.292802,0.75,27.29,-6.79,75.28,1.34,-3.27,C0K410
西螺,23.800407,120.467394,0.68,27.22,-6.07,76.08,2.0,-3.52,C0K420
褒忠,23.690938,120.303634,0.77,26.91,-5.93,78.12,1.76,-3.24,C0K430
二崙,23.772797,120.408944,0.69,26.93,-1.63,81.68,1.74,-1.47,C0K440
大埤,23.646074,120.431537,0.78,27.34,-6.44,75.52,1.42,-2.08,C0K450
斗南,23.678734,120.478359,0.79,27.3,-2.98,75.64,1.44,-2.28,C0K460
林內,23.748675,120.609642,0.51,26.54,-6.13,77.52,3.08,-1.76,C0K470
莿桐,23.761192,120.502372,0.61,26.89,-7.55,76.08,2.38,-1.79,C0K480
元長,23.64981,120.315024,0.84,27.33,-2.27,77.28,1.44,-2.31,C0K500
水林,23.572924,120.24597,0.97,27.55,-4.25,77.0,1.34,-2.49,C0K510
臺西,23.701547,120.197559,0.5,26.74,-1.52,79.92,1.84,-2.58,C0K530
蔦松,23.514319,120.229736,0.76,27.45,-2.99,78.56,1.36,-2.46,C0K550
棋山,23.68645,120.603417,0.6,26.83,-1.11,80.28,2.4,-2.73,C0K560
高鐵雲林,23.737456,120.417944,0.24,26.83,-5.33,79.48,1.48,-3.76,C0K580
東後寮,23.369908,120.248065,0.75,27.17,-3.32,80.0,1.8,-2.42,C0M520
奮起湖,23.493903,120.699253,0.62,19.31,-0.77,91.44,5.18,-9.89,C0M530
中埔,23.42538,120.5229,0.65,26.88,-6.7,73.44,2.02,-4.41,C0M640
朴子,23.43463,120.23902,0.12,26.62,-1.29,80.72,3.08,-0.7,C0M650
溪口,23.604131,120.403569,0.76,27.09,-6.84,76.36,1.62,-3.26,C0M660
大林,23.600616,120.45841,0.85,27.69,-5.58,72.8,2.16,-2.11,C0M670
太保,23.455062,120.331455,0.43,27.31,-5.98,75.8,4.7,0.42,C0M680
水上,23.419734,120.388909,0.67,27.23,-3.86,77.32,2.54,-2.15,C0M690
竹崎,23.526178,120.555508,0.63,26.67,-5.28,77.68,3.13,-4.49,C0M700
東石,23.458927,120.15385,0.67,27.39,-6.84,75.64,1.24,-4.25,C0M710
番路,23.464657,120.554156,0.82,26.55,-4.24,76.28,1.7,-6.52,C0M720
嘉義市東區,23.457673,120.460531,0.72,28.15,-1.75,74.16,2.72,-2.85,C0M730
六腳,23.492871,120.290625,0.69,27.26,-2.4,76.72,3.72,-1.52,C0M740
布袋,23.380878,120.167789,0.76,27.56,-6.6,75.08,1.76,-2.05,C0M750
民雄,23.551754,120.428457,0.66,27.57,-5.58,74.24,2.2,-1.68,C0M760
嘉義梅山,23.585398,120.555587,0.72,26.88,-5.2,76.56,2.22,-4.42,C0M770
鹿草,23.41134,120.30835,0.89,27.67,-4.13,76.2,3.4,-1.37,C0M780
新港,23.553269,120.345728,0.65,27.48,-4.51,75.04,2.14,-1.6,C0M790
茶山,23.299075,120.664767,0.75,25.28,-5.39,78.56,5.0,-5.13,C0M800
里佳,23.389125,120.716647,0.58,19.82,-5.14,83.88,8.1,-6.53,C0M810
達邦,23.453994,120.749517,0.68,21.92,-2.0,81.56,5.84,-6.81,C0M820
表湖,23.24186,120.64166,0.43,23.62,-6.33,81.04,2.88,-11.93,C0M850
新美,23.338017,120.683169,0.61,24.8,-0.81,78.84,6.7,-10.47,C0M860
北寮,23.079561,120.495008,1.0,27.4,1.11,83.72,2.44,-6.75,C0O830
王爺宮,23.222064,120.40085,3.03,29.21,-10.13,73.4,1.32,-6.2,C0O840
大內,23.11885,120.36083,1.77,29.04,-1.61,80.88,1.1,-6.07,C0O860
善化,23.112883,120.297219,1.12,27.88,1.64,85.84,1.22,-3.53,C0O900
崎頂,22.959547,120.369317,1.91,28.24,-3.81,78.68,2.24,-5.65,C0O960
虎頭埤,23.021375,120.347878,0.87,27.45,-5.35,77.0,1.9,-5.11,C0O970
新市,23.061614,120.298197,1.65,28.76,-7.91,76.6,1.92,-5.07,C0O980
媽廟,22.99175,120.293525,0.59,27.67,-11.07,71.67,1.96,-5.69,C0O990
尾寮山,22.833111,120.683889,2.57,23.32,-1.18,89.48,8.18,-7.76,C0R100
阿禮,22.742908,120.743678,0.5,21.67,-6.65,81.4,10.64,-3.84,C0R130
瑪家,22.682903,120.686639,0.48,23.38,4.24,90.12,2.32,-14.03,C0R140
三地門,22.709889,120.639944,1.77,28.95,-11.11,66.4,1.84,-8.35,C0R150
鹽埔,22.739558,120.530778,1.02,28.16,-4.79,81.4,3.36,-5.82,C0R160
赤山,22.592333,120.614306,1.39,28.62,-2.45,80.56,1.22,-8.83,C0R190
潮州,22.534361,120.54,1.68,29.0,-7.77,72.12,0.74,-6.55,C0R220
來義,22.527306,120.625111,0.85,27.57,-1.6,78.72,0.3,-10.94,C0R240
春日,22.370361,120.628306,-0.18,27.14,-1.62,76.84,0.64,-7.09,C0R260
琉球嶼,22.332244,120.362236,1.51,28.73,-10.48,73.64,0.62,-3.9,C0R270
車城,22.0744,120.716247,0.59,28.5,-4.41,76.36,0.48,-7.42,C0R320
牡丹,22.130036,120.792639,0.36,26.36,1.57,85.84,0.38,-10.0,C0R341
貓鼻頭,21.921774,120.7358,1.25,28.14,-7.79,77.48,1.12,-3.11,C0R350
大漢山,22.405264,120.753181,0.07,17.34,-0.92,93.96,2.54,-42.81,C0R440
高樹,22.826389,120.600806,0.92,28.32,-5.21,71.64,2.8,-7.15,C0R470
長治,22.693128,120.542622,1.89,29.44,-9.76,71.6,2.82,-6.27,C0R480
九如,22.7405,120.490503,1.67,29.12,-8.31,74.04,1.84,-6.88,C0R490
崁頂,22.514781,120.506914,0.89,28.36,-7.01,76.0,0.0,-8.18,C0R520
佳冬,22.419456,120.552375,0.85,28.28,-4.38,76.84,0.24,-7.13,C0R540
新埤,22.467947,120.582894,0.98,28.26,-10.31,72.08,0.22,-7.89,C0R550
新園,22.5434,120.461558,1.93,29.4,-11.3,70.88,2.76,-5.44,C0R560
麟洛,22.65078,120.52719,2.2,29.83,-3.38,75.72,1.98,-5.93,C0R570
南州,22.48591,120.50274,0.74,28.02,-1.18,80.08,0.42,-7.44,C0R580
里港,22.77919,120.49459,1.06,28.36,-3.23,76.96,1.92,-6.88,C0R590
舊泰武,22.588194,120.664944,1.06,23.92,-4.77,82.0,0.74,-15.71,C0R600
墾雷,21.900836,120.855269,0.72,27.66,3.99,86.96,0.72,-3.28,C0R620
東港,22.46247,120.44074,1.32,28.48,-10.96,75.12,0.6,-12.58,C0R640
竹田,22.58486,120.54344,1.4,28.68,-12.64,74.36,1.52,-13.95,C0R650
枋寮,22.367722,120.590647,0.55,28.01,-0.22,82.24,0.74,-16.53,C0R660
楓港,22.190131,120.692156,0.06,27.78,-7.24,72.84,0.24,-17.63,C0R670
佳樂水,21.993578,120.861633,0.21,27.88,-3.66,78.76,0.72,-5.2,C0R680
墾丁,21.966756,120.810269,0.79,26.4,-6.53,83.28,0.56,-6.44,C0R690
枋山,22.246844,120.661086,0.84,28.34,-6.07,74.12,0.14,-19.34,C0R700
龍磐,21.931672,120.838942,0.56,27.34,-5.38,82.16,0.38,-6.14,C0R710
旭海,22.205403,120.887614,0.15,26.03,-5.43,80.91,1.76,-10.82,C0R720
大坪頂,22.024633,120.69355,0.49,27.34,1.6,85.6,0.76,-3.72,C0R730
四林格山,22.076989,120.802439,0.52,24.02,-5.5,90.0,1.78,-6.45,C0R750
南仁湖,22.084681,120.863353,0.02,24.87,3.57,92.72,3.18,-5.45,C0R760
保力,22.071122,120.764111,0.61,27.1,-4.1,80.52,0.9,-6.29,C0R770
滿州,22.024403,120.839892,0.22,27.28,-3.82,78.64,0.84,-4.87,C0R780
九棚,22.14195,120.889281,0.49,27.45,-4.02,77.6,1.9,-6.37,C0R790
丹路,22.204481,120.750989,0.93,27.67,-6.45,75.28,0.34,-21.95,C0R800
內獅,22.305064,120.642986,0.91,28.47,11.98,91.6,0.14,-20.26,C0R810
白鷺,22.454275,120.666219,1.06,25.55,-5.02,78.48,0.26,-27.68,C0R820
高士,22.121825,120.836781,0.23,24.92,-2.47,85.68,1.74,-8.28,C0R830
牡丹池山,22.168389,120.841225,0.08,23.89,-1.76,89.32,0.98,-11.85,C0R840
下馬,23.150427,121.070312,0.22,22.78,1.17,85.32,2.53,-1.44,C0S660
太麻里,22.60902,120.98533,1.12,23.63,-0.19,90.12,1.46,-3.27,C0S690
知本,22.684866,121.005642,1.26,23.89,-0.64,90.36,2.44,-3.91,C0S700
鹿野,22.917711,121.122994,1.35,24.4,-0.89,87.84,0.68,-3.82,C0S710
綠島,22.6672,121.47533,1.38,26.76,-8.47,82.76,4.9,-0.17,C0S730
池上,23.119628,121.209469,0.89,24.67,-1.29,87.56,1.72,-1.79,C0S740
向陽,23.248397,120.986133,1.45,15.24,-0.33,85.05,5.89,-4.09,C0S750
大溪山,22.478475,120.943325,0.87,24.18,-1.77,88.92,2.52,-3.48,C0S770
金崙,22.538122,120.966875,1.28,26.64,-4.15,80.16,0.56,-4.5,C0S790
東河,22.972672,121.303986,0.29,26.56,-2.86,85.6,5.12,0.38,C0S810
長濱,23.286817,121.411975,0.94,25.31,-5.31,85.0,4.04,-1.28,C0S830
南田,22.279725,120.889208,1.21,27.72,-10.75,74.6,2.12,-3.94,C0S840
關山,23.0395,121.175017,0.44,25.44,-1.27,86.0,2.66,-1.41,C0S890
蘭嶼高中,22.04909,121.51214,0.89,27.79,4.89,85.04,5.12,-1.87,C0S900
蘭嶼燈塔,22.081197,121.503117,1.15,26.4,5.86,90.12,2.64,-4.51,C0S910
金峰嘉蘭,22.594789,120.960825,0.16,26.62,-2.54,80.88,0.52,-6.2,C0S920
延平,22.902581,121.084058,-0.04,25.22,-0.97,82.88,0.54,-4.02,C0S930
石寧山,23.223772,121.406639,0.42,26.03,-4.07,86.24,6.68,-0.19,C0S940
七塊厝,22.954453,121.229922,1.15,25.27,-10.09,81.37,17.29,11.09,C0S950
香蘭,22.587569,120.993375,0.49,27.34,1.74,83.16,0.86,-5.79,C0S960
加津林,22.416211,120.926942,0.3,27.11,-2.66,78.76,2.72,-6.73,C0S970
勝林山,22.430439,120.8938,-0.68,21.65,-0.72,90.24,1.94,-9.51,C0S980
山豬窟,22.318619,120.857372,0.19,25.25,-4.18,81.4,2.4,-10.7,C0S990
歷坵,22.520969,120.89185,0.43,24.37,-4.3,86.28,0.72,-8.4,C0SA00
檳榔四格山,22.810031,121.109308,-0.22,24.13,1.15,90.96,1.78,-6.14,C0SA10
金崙山,22.567419,120.959667,0.2,22.1,-2.71,89.64,1.46,-6.64,C0SA20
都歷,23.020333,121.323642,0.56,26.21,-7.71,78.79,1.7,-4.9,C0SA30
瑞和,22.974361,121.156697,-0.03,25.39,-3.8,82.31,1.9,-2.97,C0SA40
知本（水試所）,22.702394,121.082761,0.22,26.92,-1.91,82.4,2.8,-4.24,C0SA60
土坂,22.453108,120.887572,0.75,26.71,-1.38,80.92,0.76,-12.07,C0SA80
達仁林場,22.264347,120.823972,0.4,24.56,-2.98,84.4,2.58,-23.21,C0SA90
大禹嶺,24.186117,121.316086,0.1,11.78,-6.1,78.36,7.2,-1.17,C0T790
天祥,24.179597,121.495639,0.73,22.48,-0.64,83.92,2.98,-1.22,C0T820
鯉魚潭,23.935639,121.508944,0.2,23.57,0.29,91.0,7.42,0.68,C0T870
西林,23.8119,121.441458,0.96,24.74,4.68,87.12,11.54,5.83,C0T900
光復,23.660694,121.424964,1.08,25.24,-2.92,86.6,15.64,9.66,C0T960
月眉山,23.809928,121.539828,1.02,22.89,-2.14,92.72,2.61,-2.89,C0T9A0
水源,23.991861,121.537169,0.86,22.32,-1.82,90.64,12.5,4.39,C0T9B0
和中,24.26676,121.74103,0.31,25.04,9.63,99.68,22.24,14.33,C0T9D0
大坑,23.880628,121.581981,0.88,23.24,1.36,92.32,9.06,1.97,C0T9E0
水璉,23.797131,121.542514,0.45,24.44,1.12,89.8,7.32,1.33,C0T9F0
鳳林山,23.735269,121.420131,-0.02,22.36,-2.39,92.2,12.84,5.2,C0T9G0
加路蘭山,23.682947,121.5274,1.17,22.35,3.7,98.56,9.52,1.36,C0T9H0
豐濱,23.583897,121.514806,1.05,24.78,-5.51,86.08,15.86,7.89,C0T9I0
靜浦,23.455167,121.495028,0.83,25.35,-0.47,90.84,13.7,7.75,C0T9M0
富里,23.171639,121.249378,0.67,25.63,11.06,98.53,4.5,-2.97,C0T9N0
雙連埤,24.753033,121.641303,0.3,21.36,-3.93,91.28,8.24,-1.44,C0U520
礁溪,24.817539,121.765608,0.81,25.22,-5.35,82.32,6.32,-2.1,C0U600
玉蘭,24.675286,121.587061,1.15,23.16,-5.06,82.44,8.36,-0.17,C0U650
太平山,24.505486,121.525656,0.49,15.74,-1.22,91.4,7.62,0.38,C0U710
南山,24.43742,121.38167,0.3,19.4,-8.54,85.28,5.16,-1.54,C0U720
龜山島,24.841667,121.953133,0.07,22.54,-4.98,89.24,3.76,-0.07,C0U750
東澳,24.52196,121.83318,0.19,24.92,-2.7,86.2,10.18,1.7,C0U760
南澳,24.44935,121.81022,0.04,25.03,-0.08,86.16,4.7,-1.7,C0U770
五結,24.68637,121.79794,0.36,25.09,-2.28,83.36,4.68,-1.61,C0U780
頭城,24.85323,121.8308,0.44,25.38,-1.53,86.44,6.02,-1.38,C0U860
大礁溪,24.791042,121.675047,0.51,22.64,1.51,90.52,8.02,-0.48,C0U870
三星,24.66812,121.65302,0.36,24.56,-8.56,81.16,5.44,-1.16,C0U890
內城,24.71813,121.68766,0.84,25.16,-4.98,83.92,5.34,-0.92,C0U900
冬山,24.63373,121.7937,0.65,25.48,-2.32,80.04,6.78,1.09,C0U910
羅東,24.68184,121.74934,0.91,25.51,-2.33,83.2,7.04,0.68,C0U940
鶯子嶺,24.89754,121.79244,0.72,19.45,-8.85,88.48,10.52,-0.44,C0U950
翠峰湖,24.510856,121.608044,0.22,15.04,0.2,93.96,9.58,1.13,C0U960
大福,24.80064,121.81389,0.06,24.77,-0.08,84.04,5.24,-2.25,C0U970
坪林石牌,24.86478,121.77396,0.62,21.71,1.82,93.28,9.26,-0.19,C0U980
員山,24.74435,121.72247,0.45,25.18,0.12,85.08,5.36,-1.13,C0U990
土場,24.576533,121.495333,0.13,23.27,-4.49,83.88,5.46,-1.04,C0UA00
鴛鴦湖,24.590269,121.412228,0.21,16.08,1.89,95.12,9.36,0.56,C0UA10
白嶺,24.527819,121.519031,0.27,18.2,-2.64,92.48,7.7,0.31,C0UA30
西德山,24.560647,121.752608,0.72,19.49,-2.75,92.28,10.88,2.17,C0UA40
西帽山,24.555361,121.802628,0.77,20.96,-8.19,86.6,18.1,7.69,C0UA50
樟樹山,24.41393,121.78325,0.46,22.27,-0.62,88.33,7.36,2.94,C0UA60
桃源谷,24.962606,121.888875,0.8,22.06,-1.36,94.04,12.48,3.02,C0UA70
復興,23.222403,120.806089,1.08,23.79,-3.29,78.44,4.68,-13.37,C0V210
溪埔,22.738578,120.446797,1.01,28.19,-1.68,77.56,1.98,-6.35,C0V350
內門,22.975481,120.466769,1.88,28.18,-4.09,77.76,1.82,-5.85,C0V360
古亭坑,22.893178,120.401947,1.18,27.7,-5.87,78.44,2.26,-4.38,C0V370
阿公店,22.804194,120.355528,0.7,27.62,-6.48,76.4,2.3,-5.16,C0V400
鳳山,22.646653,120.356122,0.62,28.37,2.97,78.52,1.72,-6.07,C0V440
鳳森,22.545064,120.392592,1.02,28.16,-7.42,75.12,4.04,-4.03,C0V450
新興,22.627422,120.298803,1.26,28.87,-7.33,71.64,1.52,-6.32,C0V490
阿蓮,22.883208,120.327508,1.62,28.98,-6.99,74.09,1.84,-5.7,C0V530
梓官,22.760558,120.267211,0.7,28.2,-5.06,75.04,2.42,-5.06,C0V610
永安,22.82315,120.236856,0.61,27.86,-6.52,76.44,3.8,-4.01,C0V620
茄萣,22.906642,120.182608,1.02,28.33,-0.91,77.56,3.2,-3.82,C0V630
湖內,22.887139,120.2445,0.33,27.62,-5.43,75.08,5.2,-2.27,C0V640
彌陀,22.783806,120.246361,1.23,28.54,-4.26,77.92,3.04,-4.33,C0V650
岡山,22.797078,120.294958,1.31,29.15,-6.55,71.76,3.44,-4.02,C0V660
仁武,22.701083,120.347722,1.2,29.11,-6.05,72.68,1.46,-5.77,C0V680
鼓山,22.623325,120.275575,0.54,28.15,-6.78,74.44,2.08,-4.72,C0V690
三民,22.645017,120.311233,0.7,28.87,-1.83,71.72,1.78,-5.65,C0V700
苓雅,22.622742,120.330669,1.47,29.38,1.46,74.68,0.02,-7.14,C0V710
林園,22.507747,120.394511,1.36,29.64,-2.31,73.68,3.0,-4.24,C0V720
大寮,22.605614,120.395717,0.84,28.75,-2.34,74.44,2.02,-5.36,C0V730
旗山,22.888614,120.483597,2.05,29.15,-5.55,72.36,1.5,-7.24,C0V740
路竹,22.854997,120.259439,1.39,28.95,-5.86,72.4,3.98,-3.98,C0V750
橋頭,22.757806,120.30575,1.25,29.15,-8.75,70.36,2.36,-5.27,C0V760
大社,22.730306,120.346639,0.9,28.77,-4.1,73.0,1.62,-6.0,C0V770
萬山,22.905944,120.688056,1.4,26.24,-4.23,75.76,6.28,-6.51,C0V790
六龜,22.997889,120.633583,1.2,27.27,-2.1,76.56,2.62,-10.73,C0V800
左營,22.67491,120.28491,0.56,28.02,-5.54,74.76,1.44,-2.8,C0V810
小林,23.148408,120.63325,1.24,25.71,-3.87,80.0,5.08,-14.47,C0V820
花嶼,23.40007,119.32276,1.06,25.93,-1.55,85.32,0.62,-2.41,C0W130
金寧,24.457703,118.328989,0.55,25.54,-2.98,79.32,0.42,-4.42,C0W150
東河,23.296598,120.385608,0.69,27.63,-8.14,73.24,1.16,-3.6,C0X050
下營,23.22695,120.256261,0.86,27.69,-5.97,75.16,1.48,-2.39,C0X060
佳里,23.173039,120.145086,0.88,27.86,-1.72,79.28,1.92,-2.2,C0X080
臺南市北區,23.010394,120.194228,0.97,28.6,-2.01,74.89,1.7,-5.2,C0X100
臺南市南區,22.961189,120.188378,0.87,28.48,-3.64,76.6,1.52,-5.78,C0X110
麻豆,23.183289,120.248611,1.58,28.83,-3.06,77.92,1.36,-5.19,C0X120
官田,23.193217,120.315422,1.2,28.39,-0.3,80.08,1.2,-6.15,C0X130
西港,23.125608,120.203108,0.7,28.08,-6.94,75.32,1.04,-5.41,C0X140
安定,23.102614,120.227839,1.29,28.4,-3.58,78.88,1.52,-5.17,C0X150
仁德,22.968258,120.257689,1.24,28.66,-2.32,77.28,1.9,-5.91,C0X160
關廟,22.963017,120.327797,0.3,27.92,0.8,77.28,1.7,-6.84,C0X170
山上,23.0757,120.363253,1.2,28.02,-3.49,78.72,2.52,-4.91,C0X180
安平,22.993161,120.152181,0.81,28.22,-13.05,69.4,1.94,-4.96,C0X190
左鎮,23.056758,120.408522,1.88,28.14,-5.43,79.16,2.08,-5.37,C0X200
白河,23.347466,120.414427,0.64,27.42,-3.79,75.96,2.56,-2.12,C0X210
學甲,23.230367,120.182187,0.96,27.71,-2.43,76.24,0.9,-5.01,C0X220
鹽水,23.272621,120.247641,0.72,27.39,-2.69,77.6,0.82,-3.2,C0X230
關子嶺,23.331169,120.508025,0.48,25.02,0.17,85.52,3.3,-4.77,C0X240
新營,23.310689,120.316681,0.83,27.98,-3.9,74.0,1.06,-4.3,C0X250
後壁,23.366358,120.362326,0.82,27.53,-5.76,75.36,1.3,-4.56,C0X260
將軍,23.214999,120.13577,0.64,27.38,-3.44,76.84,1.26,-2.77,C0X280
北門,23.267772,120.125481,0.67,27.48,-4.27,77.48,1.1,-2.87,C0X290
鹿寮,23.386047,120.477331,0.47,26.67,-4.06,79.44,4.76,-1.21,C0X300
柳營,23.253328,120.375253,0.49,27.77,-3.83,75.4,0.82,-10.06,C0X320
明里,23.208717,121.262342,0.89,24.66,-0.9,89.88,3.82,-1.3,C0Z020
佳心,23.34567,121.21316,0.8,21.26,5.92,93.84,3.58,-0.83,C0Z050
玉里,23.3215,121.339656,1.42,25.7,3.68,90.76,3.26,-1.58,C0Z061
舞鶴,23.46811,121.37407,1.15,24.48,8.62,99.2,4.28,-0.16,C0Z070
富源,23.587642,121.378225,1.04,24.44,-1.43,89.52,11.8,5.37,C0Z080
東華,23.89525,121.549833,0.82,25.52,-0.3,89.16,3.56,-1.44,C0Z100
吉安光華,23.930925,121.595153,0.54,25.22,-8.51,79.84,7.54,3.08,C0Z150
鳳林,23.746114,121.453411,0.33,24.73,-2.89,82.96,9.9,4.99,C0Z160
卓溪,23.3443,121.3029,0.16,25.34,-3.55,79.24,3.9,-0.26,C0Z170
新城,24.040486,121.604878,0.39,25.22,13.4,97.48,13.94,8.77,C0Z180
富世,24.14743,121.6297,0.53,25.34,-4.04,83.64,12.72,7.89,C0Z190
萬榮,23.709219,121.420106,0.6,24.68,-3.9,84.48,11.88,7.29,C0Z200
瑞穗,23.5239,121.39021,0.83,25.18,0.53,87.4,7.22,2.31,C0Z210
和平林道,24.343922,121.656317,0.17,22.0,-5.14,87.6,3.78,-0.17,C0Z220
和平,24.30717,121.77007,-0.46,24.54,-2.73,80.48,12.32,8.56,C0Z230
瑞穗林道,23.49284,121.30688,0.41,19.78,1.83,97.12,10.64,2.83,C0Z250
蕃薯寮,23.73835,121.540108,0.62,23.48,-3.73,89.4,10.96,6.54,C0Z270
德武,23.47426,121.41071,0.51,24.71,-0.54,88.08,3.58,-0.13,C0Z280
赤柯山,23.36893,121.38293,0.8,21.02,-2.12,90.56,4.68,-0.14,C0Z290
東里,23.26853,121.30547,0.72,25.37,-4.5,84.24,2.82,-1.84,C0Z300
清水斷崖,24.218294,121.689142,0.05,24.68,-3.66,85.52,16.28,10.0,C0Z310
清水林道,23.27125,121.188272,0.81,22.54,-3.27,85.04,2.59,-2.43,C0Z320
安通山,23.290728,121.348528,0.42,23.44,1.95,89.76,2.9,-1.57,C0Z330
口湖工作站,23.589978,120.180394,1.43,27.09,-4.18,73.08,1.21,-4.91,12J990
東港工作站,22.479997,120.466058,1.32,28.55,-7.48,65.25,0.6,-11.58,12Q970
恆春工作站,22.079678,120.714425,2.11,28.37,-1.03,71.88,0.5,-2.01,12Q980
萬大發電廠,23.978875,121.139639,0.55,21.32,-10.34,79.75,12.54,-5.85,42HA10
桃改樹林分場,24.944503,121.386972,0.08,25.8,-6.4,74.83,10.46,-1.54,72AI40
桃園農改場,24.950944,121.030583,1.2,25.87,-3.06,81.17,11.83,4.56,72C440
桃改五峰分場,24.612194,121.157167,1.06,20.78,-1.86,87.38,9.0,-0.15,72D080
臺中農改場,24.003028,120.534389,0.78,26.75,2.44,84.83,7.21,1.5,72G600
中改埔里分場,23.903208,120.963364,0.71,23.07,-4.13,87.04,8.71,-12.01,72HA00
南改斗南分場,23.634556,120.477333,1.34,27.51,-3.69,78.92,0.6,-5.75,72K220
南改義竹分場,23.360694,120.279361,0.93,27.3,-7.74,77.0,1.77,-3.22,72M360
南改鹿草分場,23.416869,120.283061,1.36,27.18,-3.66,81.17,4.75,-1.89,72M700
臺南農改場,23.0605,120.342194,0.83,27.62,-0.35,80.46,0.67,-5.17,72N100
七股研究中心,23.081672,120.062894,1.37,27.96,-4.1,78.71,2.15,-6.64,72N240
高雄農改場,22.709333,120.525889,1.08,28.67,-1.31,76.58,3.92,-1.94,72Q010
東改班鳩分場,22.829528,121.077694,0.88,24.98,-0.55,84.0,1.93,-3.2,72S200
東改賓朗果園,22.813889,121.071278,-0.45,23.28,-1.9,88.52,1.85,-3.11,72S590
花蓮農改場,23.975222,121.563889,0.94,25.36,-1.3,82.62,7.46,2.11,72T250
花改蘭陽分場,24.686306,121.716583,0.98,25.22,-2.66,82.96,6.52,0.75,72U480
高改旗南分場,22.857861,120.516667,-0.35,27.72,3.53,77.17,1.35,-4.33,72V140
茶改北部分場,24.955778,121.631222,1.23,23.33,-0.53,84.0,13.56,4.44,82A750
茶改場,24.908472,121.185333,1.16,25.13,-6.45,77.29,11.15,4.14,82C160
茶改中部分場,23.875611,120.913583,-0.36,21.74,-0.49,86.79,9.81,-1.69,82H320
茶改南部分場,23.762528,120.7405,-0.06,24.23,-2.71,84.0,8.39,2.33,82H840
茶改東部分場,22.907694,121.130139,0.47,25.6,-1.86,82.46,1.35,-3.02,82S580
農工中心,24.985917,121.239833,1.33,25.94,-0.54,74.46,10.71,3.59,A2C560
水試臺西試驗場,23.717231,120.190522,0.3,27.24,2.08,83.71,2.33,-3.3,A2K360
臺大雲林校區,23.730628,120.423903,-0.02,26.78,-0.77,80.04,1.81,-6.23,A2K630
臺南蘭花園區,23.340258,120.379661,0.53,27.37,-1.01,80.42,1.96,-6.96,A2N290
畜產試驗所,23.058972,120.336406,0.78,27.49,-1.37,79.75,1.67,-3.71,B2N890
畜試南區分所,21.945583,120.802167,0.85,27.91,-4.67,73.92,0.56,-3.97,B2Q810
畜試東區分所,24.669039,121.832561,0.39,25.19,1.6,89.83,7.17,1.94,B2U990
蓮華池,23.918333,120.885278,-0.82,22.85,2.79,85.96,8.54,-3.12,E2H360
林試畢祿溪站,24.226944,121.308522,-0.58,14.0,1.54,83.67,7.83,1.05,E2HA20
四湖植物園,23.676986,120.163433,1.2,26.98,6.42,91.96,2.65,-5.26,E2K600
林試六龜中心,22.991703,120.645722,0.52,26.3,0.67,80.25,3.83,-17.13,E2P980
林試太麻里2,22.598,120.99775,0.29,27.12,-4.94,76.58,1.0,-2.28,E2S960
林試太麻里1,22.598922,120.980044,0.68,26.84,-3.48,78.88,1.38,-2.22,E2S980
農試所(霧峰),24.031261,120.688133,0.95,27.03,2.73,85.54,10.52,3.58,G2F820
農試嘉義分所,23.485028,120.473806,0.86,26.82,-2.29,78.92,2.27,-4.67,G2L020
農試溪口農場,23.58565,120.408111,2.13,27.24,-5.63,79.12,1.62,-5.18,G2M350
農試鳳山分所,22.646611,120.356083,0.61,28.52,-1.38,72.54,1.5,-4.94,G2P820
苗栗農改場,24.495722,120.829111,0.7,25.68,-1.89,79.38,11.02,4.56,K2E360
苗改生物防治研究中心,24.422861,120.871833,0.05,24.29,-3.24,81.33,9.02,-1.62,K2E710
種苗改良場,24.225972,120.800917,0.7,24.54,5.49,85.88,10.44,-0.21,K2F750
溪頭,23.670306,120.798194,2.11,20.86,-3.17,88.3,1.45,-9.59,U2H480
臺大和社,23.590856,120.888864,1.31,22.7,-3.86,84.92,4.52,-9.72,U2HA30
臺大內茅埔,23.689722,120.851117,0.8,24.02,-5.56,81.46,7.46,-4.94,U2HA40
臺大竹山,23.756972,120.681556,0.51,26.42,-4.11,77.17,3.81,-4.03,U2HA50
