站名,緯度,經度,平均溫距平,本年度平均溫,平均溼度距平,本年度日均相對溼度,本年度日均降水量,日均降水量距平,站號
淡水,25.164889,121.448906,2.35,31.46,-13.26,61.8,0.1,-3.82,466900
鞍部,25.182586,121.529731,0.35,23.82,0.25,86.2,0.02,-7.96,466910
臺北,25.037658,121.514853,1.6,31.76,-8.95,61.6,0.0,-7.59,466920
竹子湖,25.162078,121.544547,1.1,26.23,-5.8,77.0,0.0,-6.7,466930
基隆,25.133314,121.740475,1.4,31.03,-3.84,68.33,0.03,-3.7,466940
花蓮,23.975128,121.613275,0.99,29.78,-3.84,73.4,0.2,-5.65,466990
新屋,25.006725,121.047492,0.78,30.34,-5.76,72.2,0.02,-0.6,467050
宜蘭,24.763975,121.756528,0.64,29.73,2.59,79.67,0.03,-3.77,467080
金門,24.407306,118.289281,2.41,30.93,-14.49,71.0,0.0,-1.41,467110
田中,23.873803,120.581286,0.5,30.37,-2.57,76.0,0.0,-1.29,467270
澎湖,23.565503,119.563094,0.59,29.6,-0.21,82.8,3.5,-0.05,467350
臺南,22.99328,120.20492,0.2,30.04,-1.75,73.2,3.0,-4.83,467410
永康,23.038386,120.2367,0.27,29.82,2.73,75.2,1.5,-6.42,467420
嘉義,23.495925,120.432906,-0.76,28.58,7.02,82.4,16.6,5.01,467480
臺中,24.145736,120.684075,0.46,29.62,2.36,76.2,16.7,6.45,467490
阿里山,23.508208,120.813242,-0.33,14.7,4.95,94.0,8.4,-11.96,467530
大武,22.35572,120.90374,-0.6,28.42,3.66,79.8,18.7,7.55,467540
玉山,23.48718,120.95943,-0.03,8.26,-2.76,71.0,0.52,-13.31,467550
新竹,24.827853,121.014219,1.33,30.97,-3.35,69.67,0.0,-3.17,467571
恆春,22.003897,120.746339,-0.44,28.62,1.02,80.8,26.84,14.98,467590
成功,23.097486,121.373428,0.25,28.62,-0.93,78.8,0.34,-6.62,467610
日月潭,23.881325,120.90805,1.26,24.37,6.64,90.67,0.0,-15.2,467650
臺東,22.752211,121.154586,-0.09,29.24,1.24,76.8,4.3,-2.29,467660
馬祖,26.169467,119.923158,0.31,27.76,8.69,93.2,0.07,-2.64,467990
山佳,24.974944,121.402008,2.13,31.64,-7.48,67.2,0.0,-8.9,C0A520
坪林,24.938183,121.70975,2.43,28.94,-7.52,80.4,0.0,-8.81,C0A530
泰平,24.971197,121.823711,1.39,26.86,-3.04,87.6,0.0,-6.59,C0A550
桶後,24.848222,121.597992,1.84,27.76,-11.78,76.8,0.0,-9.24,C0A570
石碇,24.993969,121.662917,1.84,28.82,-15.76,71.0,0.0,-5.55,C0A640
大坪,25.165914,121.632969,1.01,27.76,-3.94,79.8,0.0,-5.49,C0A860
五指山,25.132153,121.608692,2.29,26.82,-4.92,85.2,0.0,-5.91,C0A870
雙溪,25.036003,121.864242,2.19,30.44,-4.01,78.6,0.0,-4.34,C0A890
三和,25.233153,121.595236,0.4,28.28,1.14,84.6,0.0,-5.5,C0A931
金山,25.223628,121.643967,1.19,30.1,-8.59,69.4,0.0,-4.24,C0A940
鼻頭角,25.129036,121.923372,1.04,29.5,1.4,85.2,0.2,-1.23,C0A950
三貂角,25.007606,122.002058,1.56,29.66,2.09,83.8,0.0,-1.62,C0A970
社子,25.109508,121.469681,2.21,32.42,-10.4,63.0,0.0,-5.25,C0A980
天母,25.117494,121.537169,1.59,31.48,-11.39,59.8,0.0,-5.84,C0A9C0
內湖,25.079422,121.57545,1.97,32.26,-7.56,63.2,0.0,-8.95,C0A9F0
大屯山,25.175675,121.522408,1.74,23.9,2.29,96.6,0.0,-4.08,C0AC40
三峽,24.939025,121.369728,2.76,32.3,-6.83,68.4,0.0,-7.49,C0AC60
信義,25.037822,121.564597,1.56,31.58,-8.3,64.2,0.0,-7.75,C0AC70
文山,25.00235,121.575728,1.38,30.6,-14.95,64.6,0.0,-7.4,C0AC80
新莊,25.051478,121.446756,1.3,31.96,-10.43,57.4,0.0,-5.4,C0ACA0
八里,25.150211,121.403947,2.41,32.4,-2.12,69.4,0.0,-2.49,C0AD10
蘆洲,25.086594,121.472331,1.07,31.98,-2.32,66.2,0.0,-4.8,C0AD30
土城,24.973208,121.445169,1.09,30.3,-6.68,70.0,0.0,-7.61,C0AD40
鶯歌,24.951533,121.346294,2.04,31.64,-7.63,68.6,0.0,-8.23,C0AD50
汐止,25.066881,121.658778,1.37,31.02,-14.46,62.0,0.0,-7.29,C0AH00
永和,25.01125,121.508111,1.84,31.88,-2.39,65.8,0.0,-8.8,C0AH10
五分山,25.07125,121.780794,1.79,25.68,-1.06,91.6,0.1,-7.61,C0AH30
平等,25.129142,121.577086,0.53,27.78,-6.53,72.4,0.0,-8.68,C0AH40
林口,25.072181,121.38084,2.08,30.38,-6.52,72.8,0.0,-8.75,C0AH50
松山,25.04871,121.55042,1.47,31.58,0.31,64.6,0.0,-9.52,C0AH70
深坑,25.002703,121.628328,2.37,30.34,-11.52,71.0,0.0,-11.24,C0AH80
福山植物園,24.760717,121.58135,0.49,24.52,-0.58,89.8,0.0,-8.1,C0AH90
五股,25.07445,121.42728,2.74,31.28,-5.32,71.2,0.0,-11.21,C0AI00
屈尺,24.92184,121.54475,3.29,31.56,-12.51,70.2,0.0,-15.43,C0AI10
白沙灣,25.283128,121.519058,1.22,29.86,0.34,76.2,0.0,-4.04,C0AI20
三重,25.057328,121.500629,2.43,32.64,-14.26,64.6,0.0,-10.71,C0AI30
石牌,25.115597,121.513139,1.32,31.9,-5.29,63.0,0.0,-12.71,C0AI40
七堵,25.094819,121.71713,1.99,31.3,-7.49,69.8,0.0,-8.98,C0B010
基隆嶼,25.19141,121.78391,0.46,28.9,4.27,92.2,0.0,-4.79,C0B020
復興,24.820208,121.352281,1.8,27.3,-9.87,73.4,0.0,-7.89,C0C460
桃園,24.992425,121.323172,1.58,31.56,-6.44,60.4,0.0,-5.73,C0C480
八德,24.928708,121.283289,1.29,30.48,-9.12,63.8,0.0,-5.9,C0C490
觀音,25.027072,121.153317,1.37,30.2,-4.86,70.8,0.0,-1.35,C0C590
蘆竹,25.084275,121.265767,2.2,31.76,-10.41,64.8,0.0,-1.88,C0C620
大溪,24.882853,121.265547,1.31,29.2,-4.05,69.2,0.0,-6.52,C0C630
平鎮,24.897503,121.214636,1.32,29.38,-3.65,71.0,0.0,-5.35,C0C650
楊梅,24.912375,121.143047,0.68,29.78,-2.71,67.6,0.0,-5.64,C0C660
龍潭,24.870056,121.221389,0.93,29.0,-3.71,69.8,0.0,-12.54,C0C670
龜山,25.02846,121.38656,1.42,29.56,-17.44,56.6,0.0,-12.16,C0C680
中壢,24.977661,121.256375,0.97,30.38,-5.12,63.4,0.0,-9.19,C0C700
大溪永福,24.892936,121.324975,1.88,29.62,-8.21,73.0,0.0,-16.96,C0C710
梅花,24.678347,121.208558,0.65,25.92,-1.0,84.4,0.5,-12.71,C0D360
峨眉,24.6905,121.017189,0.32,28.42,5.78,89.0,1.4,-3.71,C0D430
打鐵坑,24.849664,121.150789,0.72,27.66,-6.21,76.2,0.0,-4.5,C0D480
橫山,24.71116,121.11693,0.88,27.86,4.26,87.4,0.2,-7.37,C0D540
雪霸,24.526972,121.11605,-0.27,18.54,9.94,91.2,1.9,-1.6,C0D550
竹東,24.767147,121.057881,2.09,30.4,-0.95,70.0,0.0,-2.58,C0D560
寶山,24.735006,121.025192,0.67,28.0,3.48,85.0,0.3,-3.24,C0D580
新豐,24.87068,120.97721,1.39,29.7,-2.45,75.75,0.0,-0.96,C0D590
湖口,24.904794,121.043628,0.89,30.24,-6.04,68.0,0.1,-0.78,C0D650
新竹市東區,24.798681,120.986942,0.66,29.8,-1.34,70.4,0.0,-3.77,C0D660
竹南,24.708978,120.888897,0.74,29.94,6.86,80.4,0.3,-2.95,C0E420
南庄,24.601775,121.000214,0.28,27.12,6.73,87.4,13.4,4.33,C0E430
明德,24.583486,120.885411,0.58,29.34,4.93,81.4,7.1,4.12,C0E550
通霄,24.471892,120.704622,0.43,29.36,1.89,81.6,9.0,6.76,C0E590
馬都安,24.451272,120.930192,0.37,24.26,3.74,89.0,6.2,-4.45,C0E610
頭份,24.688247,120.912206,0.46,30.28,5.76,74.4,2.2,0.39,C0E730
造橋,24.637056,120.864778,0.29,29.7,3.04,80.2,1.5,-0.24,C0E740
苗栗,24.564569,120.824575,-0.14,29.66,1.23,71.4,4.9,1.9,C0E750
銅鑼,24.489681,120.790853,0.53,29.22,-0.23,77.2,5.2,0.61,C0E780
西湖,24.562947,120.7485,0.67,29.18,0.79,84.2,1.5,-0.08,C0E810
獅潭,24.539133,120.920042,0.11,27.95,2.52,84.0,7.75,3.85,C0E820
苑裡,24.439714,120.653053,0.31,29.74,0.98,77.2,7.0,3.57,C0E830
大河,24.618069,120.948578,-1.57,26.76,2.09,78.8,7.4,0.77,C0E850
高鐵苗栗,24.60725,120.826094,-0.3,29.5,18.27,85.6,2.6,1.58,C0E870
石岡,24.276061,120.777644,1.12,28.06,0.66,82.2,13.9,-2.33,C0F0B0
中坑,24.248517,120.903319,0.57,22.9,0.81,92.6,9.9,-10.39,C0F0C0
審馬陣,24.381675,121.4203,2.95,13.92,-32.31,58.4,0.0,-4.95,C0F0D0
東勢,24.246428,120.833047,1.63,28.58,-1.9,77.2,7.2,-5.03,C0F850
大坑,24.173142,120.722289,1.39,30.16,3.63,77.6,12.9,3.54,C0F970
神岡,24.272481,120.658314,0.47,28.76,-1.89,78.2,16.3,11.41,C0F9I0
大安,24.345061,120.588025,0.1,29.34,1.53,80.8,11.4,7.41,C0F9K0
后里,24.310436,120.729725,0.79,29.24,1.77,79.6,15.9,9.92,C0F9L0
豐原,24.254322,120.720692,2.51,30.94,-1.53,73.6,19.0,12.06,C0F9M0
大里,24.092464,120.701378,1.67,31.26,3.52,76.0,8.0,-0.3,C0F9N0
潭子,24.213106,120.703933,0.7,30.06,3.7,77.4,14.1,7.2,C0F9O0
清水,24.312297,120.562242,0.2,29.92,0.64,79.2,6.5,2.39,C0F9P0
外埔,24.347817,120.705686,0.15,28.86,1.7,81.0,10.9,6.54,C0F9Q0
龍井,24.184536,120.528972,0.36,29.96,-4.64,77.2,21.1,16.5,C0F9R0
烏日,24.107058,120.624103,0.75,30.08,-1.1,73.2,10.7,3.43,C0F9S0
西屯,24.179494,120.641275,0.37,29.74,0.41,74.2,24.0,17.33,C0F9T0
南屯,24.137006,120.637969,0.39,30.04,0.38,74.0,16.0,8.36,C0F9U0
新社,24.200172,120.815806,0.74,26.7,2.99,87.8,13.3,0.18,C0F9V0
大雅(中科園區),24.21528,120.62445,0.94,28.92,0.29,79.4,18.8,11.03,C0F9X0
桃山,24.432739,121.303808,1.72,12.3,-20.94,65.6,0.0,-8.57,C0F9Y0
雪山東峰,24.388792,121.268675,2.13,13.54,-21.69,62.8,0.0,-7.5,C0F9Z0
芬園,24.015678,120.6213,0.19,28.56,4.63,86.2,13.4,2.73,C0G620
員林,23.946503,120.585597,3.01,32.5,-2.9,76.0,10.7,2.14,C0G650
溪湖,23.94835,120.479122,1.02,30.06,-3.27,79.4,16.9,6.87,C0G660
溪州,23.851589,120.499093,0.98,29.26,-5.92,75.8,19.4,2.61,C0G720
二林,23.903325,120.376081,0.69,29.2,0.03,87.0,17.4,3.95,C0G730
大城,23.852487,120.320935,0.55,28.96,0.4,82.8,9.8,-5.0,C0G740
福興,24.041289,120.437669,0.36,30.42,-5.7,75.8,9.0,-0.16,C0G770
秀水,24.03405,120.503869,0.72,30.32,-0.3,79.6,12.1,3.37,C0G780
埔鹽,24.000394,120.431683,1.05,30.24,-5.18,77.6,21.8,12.25,C0G800
埔心,23.947633,120.525456,1.64,31.28,1.02,77.0,9.7,-0.37,C0G810
田尾,23.901669,120.509389,0.9,30.08,1.33,84.0,7.4,-3.66,C0G820
埤頭,23.866003,120.452806,0.29,29.62,1.45,87.0,12.9,3.31,C0G830
社頭,23.897647,120.5862,0.74,30.52,8.95,81.0,9.3,-2.68,C0G860
二水,23.810742,120.6173,1.47,30.32,0.2,79.6,16.4,3.83,C0G880
伸港,24.148933,120.484403,0.49,30.0,0.11,80.0,0.0,-5.01,C0G890
線西,24.143358,120.443536,-0.42,29.74,1.09,79.8,8.5,5.57,C0G900
埔里,23.972169,120.952425,2.31,28.04,-9.63,76.2,1.1,-8.9,C0H890
草屯,23.973672,120.68085,0.82,29.5,-0.64,76.0,5.6,-4.68,C0H960
昆陽,24.121322,121.273642,1.42,13.26,-19.2,70.2,0.0,-7.76,C0H990
神木村,23.532742,120.843667,0.83,20.58,-2.57,90.6,5.3,-12.72,C0H9A0
合歡山,24.143442,121.272547,1.03,11.52,1.51,81.2,0.0,-6.49,C0H9C0
廬山,24.033311,121.181808,0.97,21.44,-10.26,77.0,0.0,-10.34,C0I010
信義,23.689694,120.851036,1.8,26.54,-7.23,81.4,2.1,-8.01,C0I080
竹山,23.761225,120.688156,0.64,28.42,-3.02,81.2,16.5,-0.95,C0I110
水里,23.812553,120.849792,1.68,28.12,-7.2,75.8,0.2,-10.97,C0I360
魚池,23.895703,120.94135,2.01,26.28,-8.46,79.0,1.5,-11.17,C0I370
集集,23.828206,120.801467,1.49,28.36,-6.66,78.8,4.6,-16.56,C0I380
仁愛,24.022122,121.132206,1.39,22.94,-8.34,79.4,2.2,-6.29,C0I390
名間,23.837053,120.701447,0.67,28.0,2.63,83.2,4.5,-9.39,C0I410
國姓,24.037803,120.855072,2.16,28.46,-8.11,78.6,3.2,-13.03,C0I420
南投,23.911469,120.687331,1.11,29.5,2.63,80.6,8.4,-8.2,C0I460
梅峰,24.085272,121.173572,1.97,18.04,-13.89,77.4,0.0,-14.01,C0I480
萬大林道,23.928228,121.091411,1.39,20.72,-9.4,82.2,2.7,-9.09,C0I490
小奇萊,24.131764,121.295717,2.72,13.24,-21.69,73.6,0.1,-12.59,C0I530
崙背,23.75555,120.318925,0.58,28.92,-4.6,79.8,14.1,1.44,C0K250
四湖,23.630414,120.227125,0.66,29.62,-5.57,78.8,9.6,4.59,C0K280
宜梧,23.536281,120.169329,0.19,29.38,-1.45,80.8,18.9,14.03,C0K291
虎尾,23.719183,120.442036,0.16,29.58,2.3,81.8,32.0,22.82,C0K330
土庫,23.679029,120.395574,0.64,29.16,-3.8,77.2,24.2,12.11,C0K390
斗六,23.720583,120.541127,0.67,29.0,-3.77,77.4,25.2,9.62,C0K400
北港,23.573957,120.292802,0.64,29.2,-4.6,77.6,19.8,11.89,C0K410
西螺,23.800407,120.467394,1.09,29.6,-5.75,77.0,28.8,13.91,C0K420
褒忠,23.690938,120.303634,0.71,29.12,-1.62,80.6,7.9,-1.29,C0K430
二崙,23.772797,120.408944,0.55,29.1,-2.33,79.5,23.9,9.77,C0K440
大埤,23.646074,120.431537,0.71,29.24,-3.4,77.0,11.3,-1.85,C0K450
斗南,23.678734,120.478359,0.51,29.02,1.62,79.2,20.9,8.15,C0K460
林內,23.748675,120.609642,0.59,28.2,-0.83,81.8,29.7,11.51,C0K470
莿桐,23.761192,120.502372,0.71,29.0,-1.17,78.2,29.8,12.41,C0K480
元長,23.64981,120.315024,0.79,29.48,-1.5,78.2,11.7,0.51,C0K500
水林,23.572924,120.24597,0.88,29.64,-1.3,78.8,16.1,6.93,C0K510
臺西,23.701547,120.197559,0.44,28.94,-0.07,82.4,7.8,-1.13,C0K530
蔦松,23.514319,120.229736,0.75,29.4,-2.8,80.0,14.0,4.24,C0K550
棋山,23.68645,120.603417,0.59,28.26,4.34,86.2,28.6,8.22,C0K560
高鐵雲林,23.737456,120.417944,0.49,28.96,-4.68,80.8,27.2,8.84,C0K580
東後寮,23.369908,120.248065,0.46,28.7,-0.35,84.0,21.4,9.16,C0M520
奮起湖,23.493903,120.699253,-0.14,20.26,4.17,97.4,16.0,-3.17,C0M530
中埔,23.42538,120.5229,-0.18,27.86,0.45,77.8,16.4,-1.12,C0M640
朴子,23.43463,120.23902,-0.11,28.38,0.35,83.0,18.7,7.27,C0M650
溪口,23.604131,120.403569,0.56,28.9,-3.83,78.6,4.1,-7.39,C0M660
大林,23.600616,120.45841,0.44,29.06,0.53,79.2,10.7,-3.6,C0M670
太保,23.455062,120.331455,0.37,29.04,-4.5,77.6,17.0,2.43,C0M680
水上,23.419734,120.388909,0.29,28.54,-0.7,80.8,12.6,-3.92,C0M690
竹崎,23.526178,120.555508,-0.03,27.38,2.53,85.2,44.6,25.12,C0M700
東石,23.458927,120.15385,0.56,29.42,-4.9,78.4,17.3,7.7,C0M710
番路,23.464657,120.554156,0.05,27.4,3.5,81.4,35.3,15.89,C0M720
嘉義市東區,23.457673,120.460531,0.1,28.68,2.78,81.6,14.9,-2.28,C0M730
六腳,23.492871,120.290625,0.14,28.72,-0.03,80.8,11.5,0.44,C0M740
布袋,23.380878,120.167789,0.73,29.56,-4.8,77.8,12.6,2.32,C0M750
民雄,23.551754,120.428457,-0.18,28.64,1.3,81.4,17.7,4.81,C0M760
嘉義梅山,23.585398,120.555587,0.07,27.98,4.1,83.6,39.8,19.05,C0M770
鹿草,23.41134,120.30835,0.59,29.24,0.7,81.2,11.9,-5.83,C0M780
新港,23.553269,120.345728,0.27,28.98,-2.15,77.6,12.3,2.71,C0M790
茶山,23.299075,120.664767,1.28,26.08,-4.91,84.6,7.7,-11.2,C0M800
里佳,23.389125,120.716647,0.79,21.08,-1.06,89.2,5.2,-15.34,C0M810
達邦,23.453994,120.749517,1.25,23.22,-1.49,86.0,0.8,-14.53,C0M820
表湖,23.24186,120.64166,0.48,23.98,-3.7,88.4,20.3,-8.72,C0M850
新美,23.338017,120.683169,0.78,25.58,1.91,87.2,8.2,-1.16,C0M860
北寮,23.079561,120.495008,0.38,28.1,5.01,88.8,6.1,-12.87,C0O830
王爺宮,23.222064,120.40085,2.19,29.98,-6.84,78.4,14.7,0.17,C0O840
大內,23.11885,120.36083,1.27,30.18,0.28,83.4,8.6,-4.61,C0O860
善化,23.112883,120.297219,0.66,29.7,6.35,89.8,3.9,-4.19,C0O900
崎頂,22.959547,120.369317,1.94,29.72,-4.68,80.8,1.4,-14.4,C0O960
虎頭埤,23.021375,120.347878,0.08,28.26,-3.34,81.8,5.4,-10.57,C0O970
新市,23.061614,120.298197,1.17,29.98,-4.14,79.8,4.1,-9.87,C0O980
媽廟,22.99175,120.293525,0.83,29.64,-2.92,80.2,2.9,-12.28,C0O990
尾寮山,22.833111,120.683889,0.83,23.24,-1.07,91.6,0.2,-20.57,C0R100
阿禮,22.742908,120.743678,0.67,23.4,-10.01,78.2,0.4,-9.88,C0R130
瑪家,22.682903,120.686639,-0.12,24.16,8.1,96.0,1.7,-20.69,C0R140
三地門,22.709889,120.639944,0.56,29.22,-5.18,75.6,0.1,-14.3,C0R150
鹽埔,22.739558,120.530778,0.67,29.02,-0.49,86.8,2.7,-14.81,C0R160
赤山,22.592333,120.614306,0.08,28.62,5.43,90.0,0.9,-20.11,C0R190
潮州,22.534361,120.54,0.04,29.16,-1.1,79.0,3.8,-6.73,C0R220
來義,22.527306,120.625111,-0.78,27.26,8.97,92.6,2.6,-20.51,C0R240
春日,22.370361,120.628306,-1.12,27.18,1.01,84.4,5.1,-11.72,C0R260
琉球嶼,22.332244,120.362236,1.09,29.84,-7.94,78.0,5.8,0.01,C0R270
車城,22.0744,120.716247,-1.14,27.96,-1.66,83.2,19.2,10.49,C0R320
牡丹,22.130036,120.792639,-0.91,26.02,1.34,91.2,33.7,28.56,C0R341
貓鼻頭,21.921774,120.7358,-0.29,28.42,0.0,83.0,25.7,15.03,C0R350
大漢山,22.405264,120.753181,-1.13,17.24,1.91,99.2,30.3,24.23,C0R440
高樹,22.826389,120.600806,0.24,28.88,-1.58,77.6,9.3,-6.86,C0R470
長治,22.693128,120.542622,0.97,29.7,-3.73,78.6,2.6,-14.92,C0R480
九如,22.7405,120.490503,0.83,29.64,-2.44,80.4,4.1,-14.58,C0R490
崁頂,22.514781,120.506914,0.02,29.1,-2.44,80.6,3.6,-14.8,C0R520
佳冬,22.419456,120.552375,0.2,29.28,-4.89,76.4,2.7,-12.36,C0R540
新埤,22.467947,120.582894,0.04,28.72,-7.31,77.0,2.7,-14.85,C0R550
新園,22.5434,120.461558,1.09,30.1,-7.96,74.2,8.0,-11.69,C0R560
麟洛,22.65078,120.52719,1.3,30.24,-0.17,82.4,5.2,-14.35,C0R570
南州,22.48591,120.50274,0.26,29.0,3.18,82.2,1.2,-14.7,C0R580
里港,22.77919,120.49459,0.58,29.1,0.18,84.0,6.9,-9.66,C0R590
舊泰武,22.588194,120.664944,-0.16,24.44,0.92,86.8,2.7,-23.92,C0R600
墾雷,21.900836,120.855269,-0.93,27.82,9.14,94.0,30.3,15.27,C0R620
東港,22.46247,120.44074,0.58,29.58,-8.06,77.8,1.2,-9.68,C0R640
竹田,22.58486,120.54344,0.53,29.16,-6.11,81.6,2.7,-22.26,C0R650
枋寮,22.367722,120.590647,0.54,29.34,-2.31,79.4,3.6,-5.19,C0R660
楓港,22.190131,120.692156,-0.49,28.6,-9.97,72.6,11.2,1.34,C0R670
佳樂水,21.993578,120.861633,-0.93,28.44,2.43,85.0,27.5,25.64,C0R680
墾丁,21.966756,120.810269,-1.04,26.42,2.6,91.6,30.3,27.8,C0R690
枋山,22.246844,120.661086,0.7,29.14,-10.34,73.8,8.4,-2.89,C0R700
龍磐,21.931672,120.838942,-1.95,27.28,6.49,90.2,28.6,26.53,C0R710
旭海,22.205403,120.887614,-1.78,26.38,6.6,88.6,27.3,26.66,C0R720
大坪頂,22.024633,120.69355,-1.42,26.94,2.2,89.2,21.8,17.16,C0R730
四林格山,22.076989,120.802439,-1.11,23.9,-0.97,96.6,30.5,22.0,C0R750
南仁湖,22.084681,120.863353,-1.51,25.26,9.51,98.8,36.2,31.49,C0R760
保力,22.071122,120.764111,-0.08,27.28,-2.06,87.8,27.4,14.04,C0R770
滿州,22.024403,120.839892,-0.93,27.54,0.09,84.8,32.1,29.81,C0R780
九棚,22.14195,120.889281,-2.04,27.0,7.54,87.4,37.1,32.74,C0R790
丹路,22.204481,120.750989,-0.43,27.6,-7.09,79.2,29.0,20.57,C0R800
內獅,22.305064,120.642986,-0.01,28.92,-2.97,77.6,7.5,-1.0,C0R810
白鷺,22.454275,120.666219,0.32,25.22,-8.17,83.4,5.8,-1.41,C0R820
高士,22.121825,120.836781,-1.91,24.56,5.4,94.4,45.6,36.6,C0R830
牡丹池山,22.168389,120.841225,-1.23,24.18,5.51,97.8,36.4,33.19,C0R840
下馬,23.150427,121.070312,0.1,24.54,-3.27,78.8,1.5,-2.36,C0S660
太麻里,22.60902,120.98533,-0.0,25.48,7.67,86.6,13.5,7.46,C0S690
知本,22.684866,121.005642,-0.35,25.38,7.43,89.0,9.8,1.08,C0S700
鹿野,22.917711,121.122994,0.95,27.02,-1.73,81.2,1.0,-3.91,C0S710
綠島,22.6672,121.47533,0.08,28.14,0.26,84.4,17.3,10.53,C0S730
池上,23.119628,121.209469,0.32,27.72,-3.26,77.6,1.4,-5.02,C0S740
向陽,23.248397,120.986133,-0.7,15.28,8.43,92.0,8.2,-5.61,C0S750
大溪山,22.478475,120.943325,-0.69,25.26,10.97,86.4,20.7,10.33,C0S770
金崙,22.538122,120.966875,-0.67,27.3,7.7,84.2,13.3,7.41,C0S790
東河,22.972672,121.303986,-0.49,28.66,0.26,82.4,2.1,-2.99,C0S810
長濱,23.286817,121.411975,0.3,28.16,-2.47,78.6,0.0,-5.39,C0S830
南田,22.279725,120.889208,-0.6,28.06,2.61,83.4,30.9,19.66,C0S840
關山,23.0395,121.175017,0.5,28.18,-0.26,80.6,1.6,-1.84,C0S890
蘭嶼高中,22.04909,121.51214,-0.9,28.66,3.9,84.4,8.2,-1.69,C0S900
蘭嶼燈塔,22.081197,121.503117,-0.45,27.4,3.93,89.0,5.2,-4.55,C0S910
金峰嘉蘭,22.594789,120.960825,-2.86,26.68,7.42,78.0,15.6,10.74,C0S920
延平,22.902581,121.084058,-0.24,27.56,-1.22,77.4,2.1,-1.9,C0S930
石寧山,23.223772,121.406639,0.69,29.44,-1.17,79.0,0.2,-0.12,C0S940
七塊厝,22.954453,121.229922,-0.09,26.7,-9.57,74.6,1.2,-9.91,C0S950
香蘭,22.587569,120.993375,-1.05,28.56,0.6,74.6,17.2,17.2,C0S960
加津林,22.416211,120.926942,-1.34,28.26,10.53,81.2,21.8,12.76,C0S970
勝林山,22.430439,120.8938,-2.88,21.84,14.67,96.0,22.5,13.96,C0S980
山豬窟,22.318619,120.857372,-2.11,25.08,10.63,88.8,30.7,19.2,C0S990
歷坵,22.520969,120.89185,-2.6,24.78,15.37,90.2,16.0,9.39,C0SA00
檳榔四格山,22.810031,121.109308,-0.32,26.28,2.48,86.4,1.9,-2.31,C0SA10
金崙山,22.567419,120.959667,-2.85,22.4,15.4,92.4,17.4,11.51,C0SA20
都歷,23.020333,121.323642,0.15,28.88,-3.9,73.6,0.4,-3.24,C0SA30
瑞和,22.974361,121.156697,-0.34,27.9,-2.68,77.4,2.3,-1.31,C0SA40
知本（水試所）,22.702394,121.082761,-0.84,28.76,1.83,80.4,10.2,10.2,C0SA60
土坂,22.453108,120.887572,-2.32,27.08,17.96,86.6,20.6,20.6,C0SA80
達仁林場,22.264347,120.823972,-1.72,24.58,11.77,94.2,36.6,34.31,C0SA90
大禹嶺,24.186117,121.316086,-0.06,14.02,-2.06,81.8,0.0,-7.46,C0T790
天祥,24.179597,121.495639,1.46,26.36,-8.85,73.2,0.0,-7.13,C0T820
鯉魚潭,23.935639,121.508944,0.31,27.3,-2.89,83.0,0.0,-4.33,C0T870
西林,23.8119,121.441458,0.76,28.74,-0.09,75.8,0.0,-1.33,C0T900
光復,23.660694,121.424964,0.7,28.74,-5.21,78.0,0.0,-5.09,C0T960
月眉山,23.809928,121.539828,0.84,26.26,-1.65,86.6,0.1,-4.97,C0T9A0
水源,23.991861,121.537169,0.46,25.56,-1.05,85.2,2.2,-4.03,C0T9B0
和中,24.26676,121.74103,-0.16,28.32,-10.49,78.8,0.3,-5.57,C0T9D0
大坑,23.880628,121.581981,0.53,26.72,3.26,86.8,0.0,-4.0,C0T9E0
水璉,23.797131,121.542514,0.32,27.98,0.56,82.6,0.0,-3.62,C0T9F0
鳳林山,23.735269,121.420131,-0.42,25.86,-1.74,86.8,0.0,-4.25,C0T9G0
加路蘭山,23.682947,121.5274,0.87,25.98,4.45,89.2,0.3,-3.21,C0T9H0
豐濱,23.583897,121.514806,1.03,28.18,-2.29,80.6,0.3,-3.08,C0T9I0
靜浦,23.455167,121.495028,0.74,28.62,0.7,85.2,2.4,-1.93,C0T9M0
富里,23.171639,121.249378,-0.13,27.62,-9.45,71.8,0.2,-6.73,C0T9N0
雙連埤,24.753033,121.641303,-0.45,24.88,-1.84,89.4,0.8,-2.73,C0U520
礁溪,24.817539,121.765608,1.49,30.2,-7.37,75.2,0.2,-4.38,C0U600
玉蘭,24.675286,121.587061,0.47,26.98,-1.64,77.6,0.0,-6.34,C0U650
太平山,24.505486,121.525656,0.28,18.34,-6.32,87.2,0.1,-14.29,C0U710
南山,24.43742,121.38167,-0.56,22.4,1.63,83.2,0.0,-2.55,C0U720
龜山島,24.841667,121.953133,-0.5,25.78,4.08,92.6,0.0,-0.9,C0U750
東澳,24.52196,121.83318,1.01,29.94,-10.98,74.4,1.3,-3.33,C0U760
南澳,24.44935,121.81022,0.14,28.96,-3.66,81.2,0.3,-1.12,C0U770
五結,24.68637,121.79794,-0.24,29.46,-2.28,75.2,0.1,-0.91,C0U780
頭城,24.85323,121.8308,2.0,30.96,-8.12,78.4,0.0,-1.32,C0U860
大礁溪,24.791042,121.675047,-0.13,25.96,8.71,90.0,0.3,-4.68,C0U870
三星,24.66812,121.65302,0.57,28.84,-10.3,73.6,0.0,-1.64,C0U890
內城,24.71813,121.68766,1.28,29.62,-4.55,76.4,0.3,-1.08,C0U900
冬山,24.63373,121.7937,1.02,30.12,-4.7,69.2,0.1,-0.92,C0U910
羅東,24.68184,121.74934,1.2,30.16,-1.72,73.8,0.4,-0.43,C0U940
鶯子嶺,24.89754,121.79244,-0.81,21.86,9.76,100.0,2.5,-9.05,C0U950
翠峰湖,24.510856,121.608044,0.54,18.4,-3.01,87.8,0.2,-9.09,C0U960
大福,24.80064,121.81389,0.96,29.76,-0.37,77.2,0.1,-1.47,C0U970
坪林石牌,24.86478,121.77396,0.06,24.9,5.92,96.4,0.2,-9.92,C0U980
員山,24.74435,121.72247,0.83,29.64,-0.53,77.8,0.6,-1.61,C0U990
土場,24.576533,121.495333,1.05,27.58,-12.72,75.8,0.0,-6.19,C0UA00
鴛鴦湖,24.590269,121.412228,0.08,18.96,5.74,94.6,0.1,-17.69,C0UA10
白嶺,24.527819,121.519031,-0.79,20.6,4.24,94.0,0.2,-4.56,C0UA30
西德山,24.560647,121.752608,0.81,23.34,-6.28,83.2,0.1,-3.59,C0UA40
西帽山,24.555361,121.802628,-0.21,24.08,-4.4,83.6,1.0,-1.64,C0UA50
樟樹山,24.41393,121.78325,0.05,25.76,2.05,84.0,0.3,-2.27,C0UA60
桃源谷,24.962606,121.888875,-0.39,25.12,7.63,98.2,0.3,-3.2,C0UA70
復興,23.222403,120.806089,1.05,25.38,1.21,83.0,0.8,-8.34,C0V210
溪埔,22.738578,120.446797,0.23,28.7,5.58,87.2,7.8,-9.01,C0V350
內門,22.975481,120.466769,1.36,28.98,1.94,88.8,5.6,-14.55,C0V360
古亭坑,22.893178,120.401947,0.23,28.42,-2.46,84.4,1.6,-9.33,C0V370
阿公店,22.804194,120.355528,0.08,28.58,-0.01,82.4,1.4,-12.59,C0V400
鳳山,22.646653,120.356122,-0.17,28.92,3.37,84.0,0.1,-16.43,C0V440
鳳森,22.545064,120.392592,0.06,28.66,-3.58,81.2,7.3,-6.4,C0V450
新興,22.627422,120.298803,0.49,30.24,-7.97,72.4,0.0,-7.9,C0V490
梓官,22.760558,120.267211,0.22,29.62,-1.58,77.0,0.5,-10.65,C0V610
永安,22.82315,120.236856,0.42,29.62,-6.87,76.8,0.0,-13.7,C0V620
茄萣,22.906642,120.182608,0.88,30.3,-0.71,77.0,0.0,-11.5,C0V630
湖內,22.887139,120.2445,0.06,29.22,-6.71,77.0,0.2,-11.39,C0V640
彌陀,22.783806,120.246361,0.52,29.64,-7.37,77.0,0.0,-12.21,C0V650
岡山,22.797078,120.294958,0.79,30.38,-2.79,75.8,0.5,-14.59,C0V660
仁武,22.701083,120.347722,0.76,30.2,-0.84,76.2,1.4,-14.05,C0V680
鼓山,22.623325,120.275575,0.24,29.82,-2.41,76.0,0.0,-9.61,C0V690
三民,22.645017,120.311233,0.32,30.2,0.18,73.4,0.0,-12.18,C0V700
苓雅,22.622742,120.330669,0.95,30.5,1.97,77.4,0.6,-12.41,C0V710
林園,22.507747,120.394511,0.91,30.72,-1.35,76.2,0.8,-9.27,C0V720
大寮,22.605614,120.395717,0.08,29.4,3.23,82.6,1.4,-14.9,C0V730
旗山,22.888614,120.483597,1.35,29.82,-3.07,78.2,10.5,-7.73,C0V740
路竹,22.854997,120.259439,1.03,30.44,-5.22,74.6,0.1,-13.66,C0V750
橋頭,22.757806,120.30575,0.68,30.28,-5.86,73.0,1.0,-11.98,C0V760
大社,22.730306,120.346639,0.85,30.26,-1.65,77.2,0.8,-15.31,C0V770
萬山,22.905944,120.688056,1.24,27.08,-2.87,82.8,0.1,-18.06,C0V790
六龜,22.997889,120.633583,0.77,28.08,0.73,81.8,2.4,-18.14,C0V800
左營,22.67491,120.28491,0.33,29.52,-4.26,75.8,1.2,-10.39,C0V810
小林,23.148408,120.63325,0.8,26.56,-0.11,85.6,0.8,-11.06,C0V820
東莒,25.9652,119.98069,0.59,28.2,0.45,89.6,0.0,-3.12,C0W110
西嶼,23.5626,119.468436,1.21,28.28,-3.6,88.8,3.2,-2.5,C0W120
花嶼,23.40007,119.32276,1.12,28.46,-1.74,87.4,0.7,-1.87,C0W130
金沙,24.488292,118.408778,1.93,30.2,-15.89,71.4,0.1,-2.57,C0W140
金寧,24.457703,118.328989,1.14,30.12,-17.96,71.0,2.7,0.43,C0W150
東河,23.296598,120.385608,0.26,28.62,-4.35,78.2,11.5,-4.71,C0X050
下營,23.22695,120.256261,0.91,29.24,-4.95,79.0,11.7,-1.14,C0X060
臺南市北區,23.010394,120.194228,0.31,30.26,1.54,76.2,2.2,-8.52,C0X100
臺南市南區,22.961189,120.188378,0.36,30.02,-4.37,77.0,0.0,-9.77,C0X110
麻豆,23.183289,120.248611,1.04,30.36,0.4,80.2,1.9,-8.7,C0X120
官田,23.193217,120.315422,0.25,29.46,6.39,86.6,14.8,3.24,C0X130
西港,23.125608,120.203108,0.45,29.94,-4.35,74.6,0.4,-9.81,C0X140
安定,23.102614,120.227839,0.87,30.2,0.35,80.6,1.7,-8.51,C0X150
仁德,22.968258,120.257689,0.74,30.06,-1.13,78.6,1.2,-12.55,C0X160
關廟,22.963017,120.327797,0.3,29.62,3.14,80.2,1.2,-14.19,C0X170
山上,23.0757,120.363253,0.55,28.98,-1.43,81.0,6.8,-7.91,C0X180
安平,22.993161,120.152181,0.6,30.28,-13.76,66.4,0.0,-8.81,C0X190
左鎮,23.056758,120.408522,1.4,29.32,-3.87,81.4,7.0,-11.68,C0X200
白河,23.347466,120.414427,0.03,28.38,2.85,83.4,29.3,16.75,C0X210
學甲,23.230367,120.182187,0.94,29.42,-0.53,80.0,2.7,-7.95,C0X220
鹽水,23.272621,120.247641,0.45,28.74,-0.12,83.8,14.7,2.19,C0X230
關子嶺,23.331169,120.508025,-0.04,26.1,5.57,89.6,30.3,7.57,C0X240
新營,23.310689,120.316681,0.45,29.28,-0.33,79.6,14.3,-4.26,C0X250
後壁,23.366358,120.362326,0.42,28.88,-2.4,79.4,23.7,8.76,C0X260
將軍,23.214999,120.13577,0.77,29.42,-3.3,78.4,0.8,-11.38,C0X280
北門,23.267772,120.125481,0.68,29.52,-2.03,80.0,14.8,4.91,C0X290
鹿寮,23.386047,120.477331,-0.08,27.5,0.54,85.8,15.6,1.51,C0X300
柳營,23.253328,120.375253,-0.27,28.64,6.34,83.2,10.2,6.7,C0X320
明里,23.208717,121.262342,-0.34,27.66,-5.44,77.8,0.0,-2.87,C0Z020
佳心,23.34567,121.21316,0.05,23.78,3.1,86.2,0.7,-5.54,C0Z050
玉里,23.3215,121.339656,-0.33,27.94,-13.15,71.8,0.5,-1.12,C0Z061
舞鶴,23.46811,121.37407,0.13,27.3,-7.5,78.2,0.0,-2.36,C0Z070
富源,23.587642,121.378225,0.29,27.66,-6.17,80.4,0.8,-1.05,C0Z080
東華,23.89525,121.549833,0.54,29.14,-0.36,81.6,0.0,-1.56,C0Z100
吉安光華,23.930925,121.595153,0.95,28.84,-1.86,82.0,0.0,-1.68,C0Z150
鳳林,23.746114,121.453411,0.61,28.32,-5.14,74.0,0.0,-1.52,C0Z160
卓溪,23.3443,121.3029,-0.18,28.04,-4.9,73.2,1.8,0.3,C0Z170
新城,24.040486,121.604878,1.13,29.2,-7.3,73.8,0.0,-2.43,C0Z180
富世,24.14743,121.6297,0.58,28.88,-8.22,77.4,4.3,-0.1,C0Z190
萬榮,23.709219,121.420106,0.97,28.32,-7.53,74.4,0.0,-3.38,C0Z200
瑞穗,23.5239,121.39021,0.92,28.44,-2.26,79.6,3.4,2.23,C0Z210
和平林道,24.343922,121.656317,0.62,25.94,-10.42,78.2,0.0,-2.83,C0Z220
和平,24.30717,121.77007,0.2,28.72,-6.17,72.4,0.0,-4.79,C0Z230
瑞穗林道,23.49284,121.30688,-0.2,22.36,1.42,91.8,0.1,-2.14,C0Z250
蕃薯寮,23.73835,121.540108,0.76,26.94,-4.47,82.6,0.1,-1.1,C0Z270
德武,23.47426,121.41071,0.71,27.96,-4.24,79.0,0.0,-1.9,C0Z280
赤柯山,23.36893,121.38293,0.09,23.52,-5.74,81.4,0.3,-3.49,C0Z290
東里,23.26853,121.30547,0.2,28.02,-7.79,76.4,0.6,-3.0,C0Z300
清水斷崖,24.218294,121.689142,0.76,28.56,-10.61,78.6,0.6,-9.9,C0Z310
清水林道,23.27125,121.188272,0.06,24.92,-7.41,76.4,1.0,-6.33,C0Z320
安通山,23.290728,121.348528,-0.14,26.22,0.08,81.6,0.0,-1.71,C0Z330
口湖工作站,23.589978,120.180394,0.56,29.0,-0.53,75.4,7.6,2.42,12J990
東港工作站,22.479997,120.466058,0.72,29.34,-6.87,67.2,1.0,-11.9,12Q970
恆春工作站,22.079678,120.714425,-0.33,28.42,-1.84,76.8,17.2,5.15,12Q980
萬大發電廠,23.978875,121.139639,1.18,23.96,-15.25,75.6,0.0,-7.56,42HA10
桃改樹林分場,24.944503,121.386972,1.56,30.5,-12.74,64.4,0.0,-9.29,72AI40
桃園農改場,24.950944,121.030583,1.44,30.26,-5.63,72.4,0.0,-2.03,72C440
桃改五峰分場,24.612194,121.157167,0.62,23.24,4.48,90.4,1.6,-10.53,72D080
臺中農改場,24.003028,120.534389,0.24,29.38,5.25,84.8,22.4,14.35,72G600
中改埔里分場,23.903208,120.963364,1.35,25.66,-4.61,85.6,3.4,-1.89,72HA00
南改斗南分場,23.634556,120.477333,-0.14,28.74,3.6,83.8,12.2,1.22,72K220
南改義竹分場,23.360694,120.279361,-0.63,28.54,-2.35,81.0,21.9,12.9,72M360
南改鹿草分場,23.416869,120.283061,0.45,29.04,0.56,81.2,15.1,6.89,72M700
臺南農改場,23.0605,120.342194,-0.41,28.68,4.97,85.4,7.1,-0.88,72N100
七股研究中心,23.081672,120.062894,1.15,29.96,-4.7,78.8,3.6,-17.01,72N240
高雄農改場,22.709333,120.525889,-0.38,28.8,2.18,81.2,4.2,-6.32,72Q010
東改班鳩分場,22.829528,121.077694,-0.21,27.02,0.15,79.8,3.8,-3.54,72S200
東改賓朗果園,22.813889,121.071278,-0.71,26.16,-2.83,85.2,3.2,-4.43,72S590
花蓮農改場,23.975222,121.563889,0.8,29.06,-4.82,74.0,0.0,-4.98,72T250
花改蘭陽分場,24.686306,121.716583,0.95,29.6,-7.04,73.6,0.2,-3.66,72U480
高改旗南分場,22.857861,120.516667,-1.06,28.56,7.59,82.4,7.0,-1.44,72V140
茶改北部分場,24.955778,121.631222,1.19,27.48,-6.44,75.6,0.0,-9.52,82A750
茶改場,24.908472,121.185333,1.08,29.36,-11.25,66.8,0.0,-5.65,82C160
茶改中部分場,23.875611,120.913583,-1.06,23.05,3.24,90.5,2.0,-12.84,82H320
茶改南部分場,23.762528,120.7405,0.73,26.64,-3.07,84.6,6.3,-16.11,82H840
茶改東部分場,22.907694,121.130139,-0.39,27.6,-0.4,79.8,1.2,-6.27,82S580
農工中心,24.985917,121.239833,1.36,30.68,-6.41,63.4,0.0,-4.58,A2C560
水試臺西試驗場,23.717231,120.190522,-0.08,29.4,0.73,86.8,6.2,-3.76,A2K360
臺大雲林校區,23.730628,120.423903,0.06,28.96,1.66,80.8,29.7,26.06,A2K630
臺南蘭花園區,23.340258,120.379661,0.02,28.38,2.94,85.8,15.3,11.16,A2N290
畜試北區分所,24.527806,120.770972,0.01,28.44,9.56,86.8,4.5,2.62,B2E890
畜產試驗所,23.058972,120.336406,-0.42,28.34,2.45,84.8,6.2,-2.61,B2N890
畜試南區分所,21.945583,120.802167,-1.23,27.54,-1.14,82.6,35.7,24.45,B2Q810
畜試東區分所,24.669039,121.832561,1.31,29.72,-1.09,81.2,0.6,-0.76,B2U990
蓮華池,23.918333,120.885278,-0.47,25.66,5.34,84.2,2.5,-14.63,E2H360
林試畢祿溪站,24.226944,121.308522,0.23,17.1,-8.51,74.2,0.0,-2.57,E2HA20
四湖植物園,23.676986,120.163433,0.99,29.44,8.23,93.8,4.0,-8.61,E2K600
林試六龜中心,22.991703,120.645722,-0.08,27.02,4.86,87.0,2.1,2.1,E2P980
林試太麻里2,22.598,120.99775,-1.73,27.98,6.89,80.6,12.9,12.9,E2S960
林試太麻里1,22.598922,120.980044,-1.88,27.46,7.77,81.2,16.5,16.5,E2S980
農試所(霧峰),24.031261,120.688133,0.44,29.32,-0.14,79.4,11.3,0.69,G2F820
農試嘉義分所,23.485028,120.473806,-1.25,27.28,10.05,85.8,18.1,11.61,G2L020
農試溪口農場,23.58565,120.408111,-0.33,29.08,0.52,81.0,5.2,0.68,G2M350
農試鳳山分所,22.646611,120.356083,-0.55,29.06,4.97,79.0,0.1,-5.59,G2P820
苗栗農改場,24.495722,120.829111,-0.49,28.32,4.76,82.0,6.38,1.62,K2E360
苗改生物防治研究中心,24.422861,120.871833,0.57,27.12,1.78,82.4,11.8,2.94,K2E710
種苗改良場,24.225972,120.800917,0.38,26.82,0.39,80.8,13.2,-2.06,K2F750
溪頭,23.670306,120.798194,0.53,21.23,4.54,94.67,6.5,-6.66,U2H480
臺大和社,23.590856,120.888864,1.95,25.42,-5.29,83.0,0.5,-3.71,U2HA30
臺大內茅埔,23.689722,120.851117,1.35,26.52,-6.23,81.2,1.9,-2.71,U2HA40
臺大竹山,23.756972,120.681556,1.04,28.42,-4.31,79.4,17.5,0.98,U2HA50
