站名,緯度,經度,平均溫距平,本年度平均溫,平均溼度距平,本年度日均相對溼度,本年度日均降水量,日均降水量距平,站號
淡水,25.164889,121.448906,0.72,25.32,-0.59,78.25,7.08,-1.52,466900
鞍部,25.182586,121.529731,0.1,19.57,3.58,90.8,7.98,-3.57,466910
臺北,25.037658,121.514853,0.74,26.21,-2.21,72.6,12.93,4.39,466920
竹子湖,25.162078,121.544547,0.39,21.44,1.76,85.8,8.55,-1.03,466930
基隆,25.133314,121.740475,0.77,25.36,0.09,76.7,11.39,1.31,466940
花蓮,23.975128,121.613275,-0.0,25.08,2.09,82.0,9.84,4.1,466990
新屋,25.006725,121.047492,0.42,25.36,-1.72,81.05,8.27,-1.98,467050
宜蘭,24.763975,121.756528,0.16,24.71,2.04,83.5,6.23,-1.01,467080
金門,24.407306,118.289281,1.12,23.96,4.02,86.7,4.12,-1.28,467110
田中,23.873803,120.581286,-0.9,26.76,-2.9,77.1,4.86,-0.78,467270
澎湖,23.565503,119.563094,0.54,26.29,-1.14,81.3,1.16,-3.06,467350
臺南,22.99328,120.20492,0.52,28.02,-2.88,71.55,1.78,-3.08,467410
永康,23.038386,120.2367,0.87,28.02,0.2,72.55,2.36,-2.51,467420
嘉義,23.495925,120.432906,0.49,26.82,0.58,79.05,2.49,-2.85,467480
臺中,24.145736,120.684075,0.45,26.8,-0.86,73.95,6.55,-1.52,467490
阿里山,23.508208,120.813242,-0.17,12.92,1.33,90.05,7.25,-7.99,467530
大武,22.35572,120.90374,0.42,27.1,-0.55,75.55,1.66,-2.79,467540
玉山,23.48718,120.95943,0.43,6.14,0.36,81.05,7.0,-5.45,467550
新竹,24.827853,121.014219,0.86,26.01,-1.34,75.75,8.23,-0.03,467571
恆春,22.003897,120.746339,0.81,28.17,-1.09,73.65,1.17,-2.9,467590
成功,23.097486,121.373428,0.24,25.57,2.52,83.55,9.25,4.09,467610
日月潭,23.881325,120.90805,0.26,21.29,4.69,88.35,9.53,-1.53,467650
臺東,22.752211,121.154586,0.22,26.58,1.91,79.1,7.39,2.71,467660
馬祖,26.169467,119.923158,1.41,22.12,3.47,89.9,5.24,0.08,467990
山佳,24.974944,121.402008,1.08,26.18,-4.89,75.5,10.78,3.88,C0A520
坪林,24.938183,121.70975,1.44,23.76,-4.29,87.25,14.7,5.86,C0A530
泰平,24.971197,121.823711,0.51,21.68,-1.68,93.1,14.3,3.76,C0A550
桶後,24.848222,121.597992,0.67,22.57,-5.4,87.2,8.78,-0.75,C0A570
石碇,24.993969,121.662917,0.83,23.53,-6.62,83.3,17.23,6.69,C0A640
大坪,25.165914,121.632969,1.44,23.53,-3.88,86.0,12.5,-0.04,C0A860
五指山,25.132153,121.608692,1.8,21.89,-4.29,89.75,10.95,1.77,C0A870
雙溪,25.036003,121.864242,1.05,24.45,-4.05,86.05,18.69,9.24,C0A890
三和,25.233153,121.595236,0.36,23.26,-4.32,86.65,12.52,-1.87,C0A931
金山,25.223628,121.643967,0.74,24.46,-6.32,79.8,11.45,1.25,C0A940
鼻頭角,25.129036,121.923372,1.54,25.31,-5.21,83.55,7.55,2.94,C0A950
三貂角,25.007606,122.002058,1.14,24.72,1.76,85.45,10.4,2.57,C0A970
社子,25.109508,121.469681,1.16,26.46,-1.9,77.95,8.57,0.98,C0A980
天母,25.117494,121.537169,0.5,25.77,-5.5,70.85,9.07,1.77,C0A9C0
內湖,25.079422,121.57545,1.31,26.72,-4.06,73.9,10.78,3.32,C0A9F0
大屯山,25.175675,121.522408,1.92,20.02,1.74,95.55,8.7,-0.95,C0AC40
三峽,24.939025,121.369728,1.76,26.92,-4.07,77.25,10.52,1.29,C0AC60
信義,25.037822,121.564597,3.69,28.75,-7.19,74.0,14.28,4.46,C0AC70
文山,25.00235,121.575728,0.24,24.9,-5.63,77.85,14.85,5.07,C0AC80
新莊,25.051478,121.446756,0.48,26.18,-3.6,72.05,10.88,1.34,C0ACA0
八里,25.150211,121.403947,1.64,26.8,2.79,82.55,7.68,-2.35,C0AD10
蘆洲,25.086594,121.472331,1.17,27.02,-3.4,73.6,8.82,-0.11,C0AD30
土城,24.973208,121.445169,0.47,25.31,-2.45,79.15,13.38,4.57,C0AD40
鶯歌,24.951533,121.346294,1.71,26.71,-5.15,78.65,10.25,1.64,C0AD50
汐止,25.066881,121.658778,0.5,25.3,-7.41,77.1,14.52,4.0,C0AH00
永和,25.01125,121.508111,1.23,26.8,-2.28,74.6,13.25,3.93,C0AH10
五分山,25.07125,121.780794,1.59,21.49,-3.76,91.75,14.98,5.84,C0AH30
平等,25.129142,121.577086,-0.01,23.04,-6.81,80.55,9.12,1.76,C0AH40
林口,25.072181,121.38084,3.01,26.95,-3.05,82.95,8.65,2.25,C0AH50
松山,25.04871,121.55042,0.3,26.28,1.3,70.65,12.2,6.2,C0AH70
深坑,25.002703,121.628328,1.32,25.75,-3.03,80.57,16.05,10.15,C0AH80
福山植物園,24.760717,121.58135,-0.29,20.07,0.22,93.3,9.18,-2.11,C0AH90
五股,25.07445,121.42728,-0.01,24.16,-8.27,79.85,9.75,0.06,C0AI00
屈尺,24.92184,121.54475,0.88,25.7,-2.2,81.4,15.4,7.03,C0AI10
白沙灣,25.283128,121.519058,0.86,24.9,2.27,82.7,6.22,-5.7,C0AI20
三重,25.057328,121.500629,-0.3,26.64,-4.69,79.6,9.7,4.08,C0AI30
石牌,25.115597,121.513139,1.23,27.26,1.15,73.75,7.95,-2.06,C0AI40
七堵,25.094819,121.71713,1.78,26.08,-7.61,80.75,13.38,1.59,C0B010
基隆嶼,25.19141,121.78391,0.83,24.53,1.57,91.55,7.58,-1.92,C0B020
復興,24.820208,121.352281,0.73,22.66,-4.98,80.4,11.05,1.08,C0C460
桃園,24.992425,121.323172,1.01,26.06,-1.98,71.65,10.12,1.9,C0C480
八德,24.928708,121.283289,0.55,25.36,-7.73,72.6,10.85,1.34,C0C490
觀音,25.027072,121.153317,0.45,24.58,4.92,85.65,10.22,0.56,C0C590
蘆竹,25.084275,121.265767,0.59,25.52,-2.79,78.65,7.25,-2.22,C0C620
大溪,24.882853,121.265547,0.89,24.5,-1.7,76.45,10.82,3.62,C0C630
平鎮,24.897503,121.214636,1.13,24.66,-3.03,77.05,14.18,6.65,C0C650
楊梅,24.912375,121.143047,0.35,25.03,-1.52,76.05,11.4,2.81,C0C660
龍潭,24.870056,121.221389,0.74,24.49,-2.63,77.1,10.38,1.75,C0C670
龜山,25.02846,121.38656,-0.47,23.48,-4.55,75.25,9.95,2.44,C0C680
中壢,24.977661,121.256375,0.37,25.36,-4.06,72.5,8.72,0.75,C0C700
大溪永福,24.892936,121.324975,1.15,24.65,-5.34,80.8,10.32,0.02,C0C710
梅花,24.678347,121.208558,0.27,22.14,-0.26,87.55,10.05,0.49,C0D360
峨眉,24.6905,121.017189,0.07,24.48,1.22,88.7,10.38,0.86,C0D430
打鐵坑,24.849664,121.150789,0.38,23.3,-3.48,82.25,7.8,0.12,C0D480
橫山,24.71116,121.11693,0.15,23.48,9.91,95.2,6.31,-2.23,C0D540
雪霸,24.526972,121.11605,-0.08,15.85,-1.6,83.5,18.3,8.42,C0D550
竹東,24.767147,121.057881,1.74,25.83,-16.27,59.85,9.1,1.89,C0D560
寶山,24.735006,121.025192,0.46,23.95,0.57,85.8,10.45,2.53,C0D580
新豐,24.87068,120.97721,0.63,24.53,4.09,86.35,10.52,1.71,C0D590
湖口,24.904794,121.043628,0.57,25.39,-7.13,74.85,10.65,2.06,C0D650
新竹市東區,24.798681,120.986942,0.1,25.41,-1.23,75.4,8.4,0.8,C0D660
竹南,24.708978,120.888897,1.44,26.31,1.79,82.05,2.74,-4.71,C0E420
南庄,24.601775,121.000214,0.07,23.44,1.69,86.85,13.62,4.54,C0E430
明德,24.583486,120.885411,0.63,25.56,-3.25,81.05,8.57,-0.34,C0E550
通霄,24.471892,120.704622,0.16,25.41,-1.03,83.25,5.3,-3.42,C0E590
馬都安,24.451272,120.930192,0.28,21.67,4.4,84.65,10.6,2.8,C0E610
頭份,24.688247,120.912206,1.51,26.89,-0.57,75.5,7.82,0.54,C0E730
造橋,24.637056,120.864778,-0.06,25.48,-2.46,81.35,7.9,-1.38,C0E740
苗栗,24.564569,120.824575,0.1,26.02,-5.44,71.9,7.35,-1.5,C0E750
銅鑼,24.489681,120.790853,0.18,25.39,-4.72,77.95,7.58,-1.51,C0E780
西湖,24.562947,120.7485,0.22,25.06,-1.77,85.8,0.0,-8.37,C0E810
獅潭,24.539133,120.920042,-0.17,24.26,-3.99,82.35,12.5,1.7,C0E820
苑裡,24.439714,120.653053,0.01,25.77,-2.47,78.5,4.5,-4.0,C0E830
大河,24.618069,120.948578,-1.72,22.99,-1.27,83.15,10.25,2.68,C0E850
高鐵苗栗,24.60725,120.826094,-0.19,25.51,4.41,83.25,7.6,1.98,C0E870
石岡,24.276061,120.777644,1.13,25.86,3.2,86.4,5.92,-2.84,C0F0B0
中坑,24.248517,120.903319,-1.04,20.07,-3.94,87.55,15.68,0.1,C0F0C0
審馬陣,24.381675,121.4203,-0.37,9.36,-5.72,78.95,6.8,-0.36,C0F0D0
東勢,24.246428,120.833047,1.29,25.82,-5.06,76.35,9.28,-4.98,C0F850
大坑,24.173142,120.722289,1.06,27.3,-1.71,75.65,6.32,-5.33,C0F970
神岡,24.272481,120.658314,0.25,25.48,-8.19,76.55,4.1,-5.44,C0F9I0
大安,24.345061,120.588025,-0.09,25.69,-2.93,81.25,3.52,-4.3,C0F9K0
后里,24.310436,120.729725,0.67,26.0,-6.46,77.1,4.72,-6.44,C0F9L0
豐原,24.254322,120.720692,1.59,27.2,-7.09,73.2,4.88,-7.23,C0F9M0
大里,24.092464,120.701378,0.04,27.18,4.46,80.1,10.78,0.34,C0F9N0
潭子,24.213106,120.703933,0.47,27.0,0.85,78.65,4.45,-7.57,C0F9O0
清水,24.312297,120.562242,0.11,26.21,-4.52,79.65,3.18,-4.57,C0F9P0
外埔,24.347817,120.705686,0.21,25.42,-3.72,82.35,4.35,-4.9,C0F9Q0
龍井,24.184536,120.528972,0.39,26.63,-10.16,77.1,3.28,-4.88,C0F9R0
烏日,24.107058,120.624103,0.25,26.88,-4.07,73.0,6.55,-2.65,C0F9S0
西屯,24.179494,120.641275,0.29,26.76,-5.68,72.3,3.32,-7.36,C0F9T0
南屯,24.137006,120.637969,-0.0,26.96,-3.6,72.65,5.58,-4.02,C0F9U0
新社,24.200172,120.815806,0.37,24.0,-5.57,79.25,10.78,-3.96,C0F9V0
大雅(中科園區),24.21528,120.62445,-0.06,25.72,-1.45,77.8,4.65,-1.43,C0F9X0
桃山,24.432739,121.303808,0.01,8.8,-4.66,76.95,9.32,-1.32,C0F9Y0
雪山東峰,24.388792,121.268675,-0.01,9.57,-4.81,75.7,11.0,0.7,C0F9Z0
芬園,24.015678,120.6213,-0.4,25.35,3.66,86.55,11.1,2.77,C0G620
員林,23.946503,120.585597,2.28,28.7,-8.11,75.2,7.1,1.25,C0G650
溪湖,23.94835,120.479122,1.26,27.53,7.08,94.17,11.32,3.67,C0G660
溪州,23.851589,120.499093,0.36,26.51,-7.06,74.8,3.62,-0.92,C0G720
二林,23.903325,120.376081,0.3,26.19,-2.05,86.05,7.45,3.61,C0G730
大城,23.852487,120.320935,0.33,26.24,-1.17,80.36,4.82,0.39,C0G740
福興,24.041289,120.437669,0.41,27.21,-7.19,76.0,3.7,-3.92,C0G770
秀水,24.03405,120.503869,0.77,27.29,-4.22,79.2,5.38,-1.6,C0G780
埔鹽,24.000394,120.431683,3.29,29.28,-6.8,80.0,3.4,-3.86,C0G800
埔心,23.947633,120.525456,3.68,30.38,-11.12,72.4,18.95,10.78,C0G810
田尾,23.901669,120.509389,0.57,27.06,-0.52,84.35,5.05,-3.49,C0G820
埤頭,23.866003,120.452806,0.5,26.57,-2.97,86.75,3.52,-4.53,C0G830
社頭,23.897647,120.5862,0.71,27.76,2.71,80.4,4.82,-3.87,C0G860
二水,23.810742,120.6173,2.78,29.32,-4.36,78.65,3.6,-4.07,C0G880
伸港,24.148933,120.484403,0.16,26.46,-6.48,77.35,2.72,-4.85,C0G890
線西,24.143358,120.443536,-1.12,26.47,-2.73,78.7,2.4,-1.31,C0G900
花壇,24.032076,120.549461,0.71,28.3,6.64,83.4,7.83,3.48,C0G910
埔里,23.972169,120.952425,0.13,24.66,-1.67,80.8,7.88,-3.88,C0H890
草屯,23.973672,120.68085,0.04,26.42,-2.9,75.55,8.45,-0.23,C0H960
昆陽,24.121322,121.273642,0.02,9.0,-4.03,84.3,7.5,-3.77,C0H990
神木村,23.532742,120.843667,0.25,17.96,-0.47,89.55,8.1,-3.46,C0H9A0
合歡山,24.143442,121.272547,0.95,8.46,-4.17,85.45,13.02,-7.36,C0H9C0
廬山,24.033311,121.181808,0.27,18.38,-2.53,82.35,11.88,-1.52,C0I010
信義,23.689694,120.851036,-0.03,23.62,-2.65,82.2,7.32,-1.51,C0I080
竹山,23.761225,120.688156,0.54,26.01,-4.63,81.05,4.42,-2.08,C0I110
水里,23.812553,120.849792,0.24,25.2,-3.83,77.35,7.8,-1.1,C0I360
魚池,23.895703,120.94135,0.25,23.34,-5.82,80.1,9.8,-1.49,C0I370
集集,23.828206,120.801467,-0.06,25.53,-2.07,80.3,11.62,3.6,C0I380
仁愛,24.022122,121.132206,0.29,20.24,-6.24,81.85,10.62,-5.21,C0I390
名間,23.837053,120.701447,-0.23,25.56,-0.01,79.35,3.88,-0.95,C0I410
國姓,24.037803,120.855072,-0.14,25.07,-3.39,80.4,13.1,1.31,C0I420
南投,23.911469,120.687331,-0.09,26.67,3.11,80.05,4.08,-2.23,C0I460
梅峰,24.085272,121.173572,0.06,14.34,-2.0,88.2,10.98,-4.82,C0I480
萬大林道,23.928228,121.091411,0.27,18.11,-6.67,82.95,17.85,5.2,C0I490
小奇萊,24.131764,121.295717,-0.22,9.0,-3.59,85.0,11.1,-12.54,C0I530
崙背,23.75555,120.318925,-0.07,25.86,-2.16,82.7,3.12,-0.75,C0K250
四湖,23.630414,120.227125,0.76,26.9,-4.65,78.4,1.9,-2.47,C0K280
宜梧,23.536281,120.169329,0.58,26.82,-3.77,78.95,1.3,-4.72,C0K291
虎尾,23.719183,120.442036,0.77,27.15,0.77,79.9,2.7,-2.57,C0K330
土庫,23.679029,120.395574,0.46,26.71,-7.52,75.35,1.55,-1.49,C0K390
斗六,23.720583,120.541127,0.21,26.68,-6.26,74.5,2.15,-1.48,C0K400
北港,23.573957,120.292802,0.42,26.88,-6.51,75.25,1.68,-1.47,C0K410
西螺,23.800407,120.467394,0.2,26.68,-4.57,77.0,2.5,-1.57,C0K420
褒忠,23.690938,120.303634,0.48,26.47,-5.7,78.4,2.2,-1.44,C0K430
二崙,23.772797,120.408944,0.3,26.42,-0.4,82.75,2.17,-1.12,C0K440
大埤,23.646074,120.431537,0.44,26.88,-5.78,76.1,1.78,-1.05,C0K450
斗南,23.678734,120.478359,0.44,26.83,-2.24,76.2,1.8,-1.3,C0K460
林內,23.748675,120.609642,0.17,26.1,-5.2,78.2,3.85,-0.49,C0K470
莿桐,23.761192,120.502372,0.21,26.36,-6.59,77.0,2.98,-0.87,C0K480
元長,23.64981,120.315024,0.47,26.82,-1.34,77.85,1.8,-1.63,C0K500
水林,23.572924,120.24597,0.65,27.1,-4.23,77.3,1.68,-1.84,C0K510
臺西,23.701547,120.197559,0.16,26.27,-1.3,80.2,2.3,-2.15,C0K530
蔦松,23.514319,120.229736,0.39,26.97,-2.56,78.9,1.7,-1.66,C0K550
棋山,23.68645,120.603417,0.21,26.34,0.12,81.0,3.0,-1.88,C0K560
高鐵雲林,23.737456,120.417944,-0.13,26.34,-4.63,80.2,1.85,-3.17,C0K580
東後寮,23.369908,120.248065,0.42,26.72,-2.82,80.4,2.25,-1.45,C0M520
奮起湖,23.493903,120.699253,0.45,19.08,0.41,91.75,0.96,-12.08,C0M530
中埔,23.42538,120.5229,0.29,26.44,-5.65,74.05,2.1,-4.07,C0M640
朴子,23.43463,120.23902,-0.16,26.21,-1.43,80.65,3.85,0.54,C0M650
溪口,23.604131,120.403569,0.42,26.65,-6.36,76.65,2.02,-1.36,C0M660
大林,23.600616,120.45841,0.45,27.18,-4.45,73.65,2.7,-1.2,C0M670
太保,23.455062,120.331455,0.11,26.88,-5.45,76.05,5.88,2.13,C0M680
水上,23.419734,120.388909,0.37,26.82,-3.15,77.75,3.18,-1.06,C0M690
竹崎,23.526178,120.555508,0.26,26.24,-3.99,78.4,4.18,-1.18,C0M700
東石,23.458927,120.15385,0.25,26.87,-6.22,76.15,1.55,-1.91,C0M710
番路,23.464657,120.554156,0.43,26.08,-2.71,77.15,1.98,-6.07,C0M720
嘉義市東區,23.457673,120.460531,0.38,27.72,-0.67,74.65,3.4,-1.54,C0M730
六腳,23.492871,120.290625,0.36,26.81,-2.04,77.05,4.65,1.19,C0M740
布袋,23.380878,120.167789,0.44,27.11,-6.35,75.4,2.2,-1.05,C0M750
民雄,23.551754,120.428457,0.3,27.1,-4.78,74.8,2.75,-0.83,C0M760
嘉義梅山,23.585398,120.555587,0.31,26.4,-3.5,77.6,2.78,-2.2,C0M770
鹿草,23.41134,120.30835,0.61,27.27,-3.6,76.6,4.25,0.33,C0M780
新港,23.553269,120.345728,0.36,27.06,-4.3,75.2,2.68,-0.51,C0M790
茶山,23.299075,120.664767,0.39,24.91,-3.45,79.4,6.25,-1.19,C0M800
里佳,23.389125,120.716647,0.22,19.45,-3.22,84.6,8.15,-3.41,C0M810
達邦,23.453994,120.749517,0.4,21.6,0.26,82.7,6.25,-4.78,C0M820
表湖,23.24186,120.64166,0.07,23.25,-5.08,81.6,3.58,-9.12,C0M850
新美,23.338017,120.683169,-0.04,24.41,3.18,79.8,8.15,0.58,C0M860
北寮,23.079561,120.495008,0.58,26.95,2.24,84.25,3.05,-3.56,C0O830
王爺宮,23.222064,120.40085,2.63,28.78,-8.89,73.75,1.65,-3.5,C0O840
大內,23.11885,120.36083,1.4,28.61,-0.73,81.2,1.38,-3.32,C0O860
善化,23.112883,120.297219,0.92,27.56,1.63,85.5,1.52,-2.48,C0O900
崎頂,22.959547,120.369317,1.44,27.73,-2.28,79.35,2.8,-3.43,C0O960
虎頭埤,23.021375,120.347878,0.46,27.0,-4.25,77.4,2.38,-2.32,C0O970
新市,23.061614,120.298197,1.28,28.33,-7.11,77.05,2.38,-2.09,C0O980
阿禮,22.742908,120.743678,0.1,21.3,-5.38,81.75,12.18,4.42,C0R130
瑪家,22.682903,120.686639,0.13,23.04,5.61,90.35,2.62,-5.88,C0R140
三地門,22.709889,120.639944,1.36,28.56,-6.65,69.6,2.25,-5.77,C0R150
鹽埔,22.739558,120.530778,0.51,27.64,-3.04,82.25,4.2,-1.47,C0R160
赤山,22.592333,120.614306,0.99,28.22,-1.02,81.15,1.52,-3.61,C0R190
潮州,22.534361,120.54,1.36,28.62,-7.03,72.6,0.92,-4.79,C0R220
來義,22.527306,120.625111,0.49,27.2,-0.0,79.35,0.38,-5.61,C0R240
春日,22.370361,120.628306,-0.56,26.78,-0.88,76.6,0.8,-2.24,C0R260
琉球嶼,22.332244,120.362236,1.18,28.34,-9.85,73.65,0.78,-2.64,C0R270
車城,22.0744,120.716247,0.08,28.12,-2.57,75.95,0.6,-3.69,C0R320
牡丹,22.130036,120.792639,-0.13,25.96,3.82,86.15,0.48,-5.07,C0R341
貓鼻頭,21.921774,120.7358,0.89,27.73,-5.99,77.25,1.4,-2.26,C0R350
大漢山,22.405264,120.753181,-0.16,17.01,0.84,94.55,2.68,-9.09,C0R440
高樹,22.826389,120.600806,0.48,27.9,-3.62,72.05,3.5,-1.93,C0R470
長治,22.693128,120.542622,1.46,29.02,-8.38,72.25,3.42,-2.24,C0R480
九如,22.7405,120.490503,1.27,28.72,-6.9,74.45,2.3,-2.85,C0R490
崁頂,22.514781,120.506914,0.54,27.99,-5.98,76.5,0.0,-4.24,C0R520
佳冬,22.419456,120.552375,0.54,27.93,-3.3,76.95,0.3,-3.18,C0R540
新埤,22.467947,120.582894,0.61,27.88,-9.23,72.5,0.28,-3.36,C0R550
新園,22.5434,120.461558,1.57,29.04,-9.91,71.4,3.45,-0.91,C0R560
麟洛,22.65078,120.52719,1.83,29.47,-1.94,76.05,2.48,-2.22,C0R570
南州,22.48591,120.50274,0.44,27.7,-0.2,80.45,0.52,-3.53,C0R580
里港,22.77919,120.49459,0.6,27.92,-2.12,77.15,2.25,-2.92,C0R590
舊泰武,22.588194,120.664944,0.75,23.6,-3.94,82.0,0.92,-7.02,C0R600
墾雷,21.900836,120.855269,0.3,27.2,4.36,87.1,0.9,-3.02,C0R620
東港,22.46247,120.44074,0.9,28.09,-10.25,75.15,0.75,-7.56,C0R640
竹田,22.58486,120.54344,0.93,28.28,-11.4,74.7,1.9,-7.59,C0R650
枋寮,22.367722,120.590647,0.08,27.68,1.68,82.25,0.92,-4.74,C0R660
楓港,22.190131,120.692156,-0.4,27.46,-5.76,71.95,0.3,-6.87,C0R670
佳樂水,21.993578,120.861633,-0.3,27.45,-1.82,78.75,0.9,-3.17,C0R680
墾丁,21.966756,120.810269,0.32,26.0,-5.09,83.1,0.7,-4.06,C0R690
枋山,22.246844,120.661086,0.44,28.08,-4.66,73.05,0.18,-7.02,C0R700
龍磐,21.931672,120.838942,-0.06,26.84,-3.21,82.5,0.48,-3.79,C0R710
旭海,22.205403,120.887614,-0.29,25.7,-3.77,80.85,2.02,-3.62,C0R720
大坪頂,22.024633,120.69355,-0.05,26.94,3.28,84.9,0.88,-1.79,C0R730
四林格山,22.076989,120.802439,0.15,23.64,-4.72,89.8,2.22,-1.66,C0R750
南仁湖,22.084681,120.863353,-0.52,24.38,5.59,93.35,3.95,-0.76,C0R760
保力,22.071122,120.764111,0.22,26.77,-2.67,80.0,1.12,-2.61,C0R770
滿州,22.024403,120.839892,-0.25,26.85,-1.91,78.8,1.02,-2.98,C0R780
九棚,22.14195,120.889281,-0.23,26.86,-1.11,78.7,2.17,-1.16,C0R790
丹路,22.204481,120.750989,0.42,27.3,-4.77,74.85,0.42,-7.98,C0R800
內獅,22.305064,120.642986,0.4,28.12,13.87,91.25,0.18,-7.02,C0R810
白鷺,22.454275,120.666219,0.6,25.34,-2.53,77.8,0.3,-6.87,C0R820
高士,22.121825,120.836781,-0.37,24.37,-0.02,86.55,2.17,-2.54,C0R830
牡丹池山,22.168389,120.841225,-0.46,23.4,0.54,90.25,1.2,-4.94,C0R840
下馬,23.150427,121.070312,-0.66,22.15,6.36,87.64,2.64,1.4,C0S660
太麻里,22.60902,120.98533,0.7,23.1,1.63,90.25,0.82,-3.68,C0S690
知本,22.684866,121.005642,0.75,23.28,1.52,91.0,2.78,-3.18,C0S700
鹿野,22.917711,121.122994,0.81,23.75,1.55,88.45,0.78,-3.43,C0S710
綠島,22.6672,121.47533,1.01,26.3,-7.4,82.6,6.12,1.2,C0S730
池上,23.119628,121.209469,0.43,24.09,0.81,88.1,2.15,-1.2,C0S740
向陽,23.248397,120.986133,0.85,14.56,7.52,90.29,8.0,-1.23,C0S750
大溪山,22.478475,120.943325,0.4,23.62,0.21,89.5,2.95,-2.6,C0S770
金崙,22.538122,120.966875,0.79,26.03,-0.91,80.95,0.7,-3.8,C0S790
東河,22.972672,121.303986,-0.09,26.01,-1.85,85.2,5.3,0.79,C0S810
長濱,23.286817,121.411975,0.51,24.73,-4.16,84.65,4.78,-0.16,C0S830
南田,22.279725,120.889208,0.85,27.29,-9.01,74.7,2.6,-2.31,C0S840
關山,23.0395,121.175017,-0.1,24.86,0.68,86.2,2.72,0.03,C0S890
蘭嶼高中,22.04909,121.51214,0.44,27.37,4.66,84.95,6.4,0.16,C0S900
蘭嶼燈塔,22.081197,121.503117,0.68,25.95,4.17,90.55,3.3,-2.05,C0S910
金峰嘉蘭,22.594789,120.960825,-0.66,26.04,0.46,81.75,0.5,-1.88,C0S920
延平,22.902581,121.084058,-0.88,24.61,2.77,84.15,0.62,-0.53,C0S930
石寧山,23.223772,121.406639,-0.37,25.45,-2.85,86.05,7.65,2.2,C0S940
七塊厝,22.954453,121.229922,0.34,24.61,-8.4,81.64,10.25,5.81,C0S950
香蘭,22.587569,120.993375,-0.27,26.83,4.06,83.3,0.7,-1.97,C0S960
加津林,22.416211,120.926942,-0.4,26.64,-0.53,78.8,3.4,-1.1,C0S970
勝林山,22.430439,120.8938,-1.33,21.07,1.73,91.4,1.98,-4.04,C0S980
山豬窟,22.318619,120.857372,-0.51,24.68,-1.66,82.2,2.4,-3.11,C0S990
歷坵,22.520969,120.89185,-0.4,23.72,-1.05,87.9,0.9,-3.25,C0SA00
檳榔四格山,22.810031,121.109308,-1.04,23.55,3.35,91.25,2.2,-3.68,C0SA10
金崙山,22.567419,120.959667,-0.51,21.48,-0.73,90.65,1.7,-2.04,C0SA20
都歷,23.020333,121.323642,-0.47,25.41,-6.74,78.07,1.03,-4.63,C0SA30
瑞和,22.974361,121.156697,-0.83,24.76,-1.42,82.82,1.5,0.0,C0SA40
知本（水試所）,22.702394,121.082761,-0.59,26.34,0.56,82.85,3.5,-0.83,C0SA60
土坂,22.453108,120.887572,-0.18,26.1,2.49,82.25,0.85,-3.27,C0SA80
達仁林場,22.264347,120.823972,-0.2,24.03,-0.36,85.35,2.58,-6.47,C0SA90
大禹嶺,24.186117,121.316086,-0.13,11.42,-3.21,80.75,8.43,-0.04,C0T790
天祥,24.179597,121.495639,0.29,21.88,0.6,84.95,3.35,-1.22,C0T820
鯉魚潭,23.935639,121.508944,-0.27,22.96,0.99,91.4,9.0,2.39,C0T870
西林,23.8119,121.441458,0.46,24.15,5.75,87.5,11.92,6.19,C0T900
光復,23.660694,121.424964,0.63,24.65,-2.52,86.75,16.48,10.58,C0T960
月眉山,23.809928,121.539828,0.6,22.34,-2.76,92.25,2.82,-2.76,C0T9A0
水源,23.991861,121.537169,0.47,21.79,-2.27,90.05,13.12,4.96,C0T9B0
和中,24.26676,121.74103,-0.09,24.48,9.84,99.6,23.68,15.75,C0T9D0
大坑,23.880628,121.581981,0.5,22.68,1.02,91.8,9.9,3.15,C0T9E0
水璉,23.797131,121.542514,0.06,23.88,0.69,89.2,8.72,2.75,C0T9F0
鳳林山,23.735269,121.420131,-0.42,21.78,-2.51,92.0,13.45,6.32,C0T9G0
加路蘭山,23.682947,121.5274,0.81,21.81,3.61,98.4,10.2,1.98,C0T9H0
豐濱,23.583897,121.514806,0.7,24.24,-5.65,85.65,17.77,10.59,C0T9I0
靜浦,23.455167,121.495028,0.42,24.81,-0.09,90.05,14.82,9.07,C0T9M0
富里,23.171639,121.249378,-0.19,24.94,12.95,98.57,3.64,-2.21,C0T9N0
雙連埤,24.753033,121.641303,-0.17,20.78,-4.15,91.15,8.8,-1.27,C0U520
礁溪,24.817539,121.765608,0.44,24.7,-5.83,82.0,6.42,-2.19,C0U600
玉蘭,24.675286,121.587061,0.7,22.56,-4.8,82.45,8.8,0.06,C0U650
太平山,24.505486,121.525656,0.14,15.28,0.11,92.65,8.82,2.03,C0U710
南山,24.43742,121.38167,-0.24,18.78,-7.94,86.55,5.78,-0.95,C0U720
龜山島,24.841667,121.953133,-0.25,22.04,-5.9,88.0,4.55,0.75,C0U750
東澳,24.52196,121.83318,-0.27,24.3,-2.84,86.1,11.88,3.73,C0U760
南澳,24.44935,121.81022,-0.38,24.46,-0.2,85.8,5.45,-0.62,C0U770
五結,24.68637,121.79794,-0.2,24.43,-2.17,83.7,6.25,-0.47,C0U780
頭城,24.85323,121.8308,-0.02,24.79,-1.65,86.3,6.52,-1.17,C0U860
大礁溪,24.791042,121.675047,0.02,22.1,1.14,90.0,7.75,-0.71,C0U870
三星,24.66812,121.65302,-0.16,23.96,-8.58,81.25,6.32,-0.63,C0U890
內城,24.71813,121.68766,0.34,24.57,-5.27,83.75,6.08,-0.59,C0U900
冬山,24.63373,121.7937,0.02,24.79,-1.84,80.45,8.28,2.28,C0U910
羅東,24.68184,121.74934,0.33,24.85,-2.01,83.75,8.55,1.83,C0U940
鶯子嶺,24.89754,121.79244,0.2,18.84,-8.95,88.4,11.12,-0.38,C0U950
翠峰湖,24.510856,121.608044,-0.08,14.58,1.03,94.6,8.9,1.54,C0U960
大福,24.80064,121.81389,-0.38,24.22,-0.48,83.6,6.05,-2.01,C0U970
坪林石牌,24.86478,121.77396,0.19,21.19,2.13,92.8,9.15,-0.79,C0U980
員山,24.74435,121.72247,-0.05,24.6,-0.1,84.95,6.2,-0.55,C0U990
土場,24.576533,121.495333,-0.34,22.66,-3.61,84.55,6.28,-0.23,C0UA00
鴛鴦湖,24.590269,121.412228,-0.11,15.59,1.76,95.7,10.98,2.4,C0UA10
白嶺,24.527819,121.519031,-0.18,17.6,-2.34,93.1,8.75,1.32,C0UA30
西德山,24.560647,121.752608,0.24,18.91,-3.28,91.75,12.8,3.84,C0UA40
西帽山,24.555361,121.802628,0.24,20.37,-8.69,85.85,19.75,8.62,C0UA50
樟樹山,24.41393,121.78325,-0.1,21.66,-0.9,87.92,8.5,4.08,C0UA60
桃源谷,24.962606,121.888875,0.35,21.53,-1.8,93.6,12.62,3.03,C0UA70
復興,23.222403,120.806089,0.71,23.41,-1.24,79.45,5.75,-8.99,C0V210
溪埔,22.738578,120.446797,0.63,27.8,-0.31,77.9,2.48,-2.13,C0V350
內門,22.975481,120.466769,1.43,27.7,-2.59,78.35,2.28,-2.5,C0V360
古亭坑,22.893178,120.401947,0.82,27.3,-4.87,78.7,2.82,-2.83,C0V370
阿公店,22.804194,120.355528,0.38,27.26,-5.98,76.15,2.88,-1.26,C0V400
鳳山,22.646653,120.356122,0.28,28.02,3.9,78.5,2.15,-2.43,C0V440
鳳森,22.545064,120.392592,0.67,27.81,-6.28,75.25,5.05,0.82,C0V450
新興,22.627422,120.298803,0.98,28.52,-6.86,71.5,1.9,-3.62,C0V490
阿蓮,22.883208,120.327508,1.36,28.7,-7.02,73.33,2.3,-2.7,C0V530
梓官,22.760558,120.267211,0.37,27.83,-4.61,74.9,3.02,-1.41,C0V610
永安,22.82315,120.236856,0.25,27.43,-6.23,76.45,4.75,-0.17,C0V620
茄萣,22.906642,120.182608,0.58,27.82,-0.04,78.0,4.0,-1.06,C0V630
湖內,22.887139,120.2445,-0.02,27.21,-4.81,75.15,6.5,1.59,C0V640
彌陀,22.783806,120.246361,0.82,28.08,-3.78,77.8,3.8,-0.46,C0V650
岡山,22.797078,120.294958,0.95,28.76,-5.95,71.65,4.3,0.25,C0V660
仁武,22.701083,120.347722,0.89,28.79,-5.19,72.6,1.82,-2.4,C0V680
鼓山,22.623325,120.275575,0.23,27.8,-6.41,74.45,2.6,-1.51,C0V690
三民,22.645017,120.311233,0.36,28.51,-1.38,71.6,2.22,-2.13,C0V700
苓雅,22.622742,120.330669,1.11,29.01,2.13,74.7,0.03,-3.92,C0V710
林園,22.507747,120.394511,0.95,29.23,-1.19,73.95,3.75,-0.36,C0V720
大寮,22.605614,120.395717,0.44,28.35,-1.01,74.9,2.52,-1.48,C0V730
旗山,22.888614,120.483597,1.6,28.71,-4.07,72.85,1.88,-3.08,C0V740
路竹,22.854997,120.259439,1.04,28.56,-5.14,72.55,4.97,-0.05,C0V750
橋頭,22.757806,120.30575,0.91,28.8,-7.97,70.45,2.95,-1.36,C0V760
萬山,22.905944,120.688056,0.99,25.86,-2.21,76.4,6.9,-0.22,C0V790
六龜,22.997889,120.633583,0.82,26.92,-0.45,76.9,2.92,-4.44,C0V800
左營,22.67491,120.28491,0.23,27.65,-5.22,74.6,1.8,-2.28,C0V810
小林,23.148408,120.63325,0.81,25.42,-1.87,80.25,4.85,-10.17,C0V820
花嶼,23.40007,119.32276,0.88,25.63,-2.87,84.3,0.78,-2.11,C0W130
金寧,24.457703,118.328989,0.21,25.03,-4.68,77.9,0.52,-4.82,C0W150
東河,23.296598,120.385608,0.32,27.15,-6.92,74.2,1.45,-2.77,C0X050
下營,23.22695,120.256261,0.49,27.23,-4.94,75.8,1.85,-1.66,C0X060
佳里,23.173039,120.145086,0.57,27.4,-0.98,79.75,2.4,-1.59,C0X080
臺南市北區,23.010394,120.194228,0.66,28.18,-0.26,76.5,2.12,-3.67,C0X100
臺南市南區,22.961189,120.188378,0.64,28.16,-3.64,76.35,1.9,-4.16,C0X110
麻豆,23.183289,120.248611,1.23,28.36,-2.13,78.45,1.7,-3.3,C0X120
官田,23.193217,120.315422,0.86,27.95,0.7,80.65,1.5,-3.96,C0X130
西港,23.125608,120.203108,0.33,27.6,-6.22,76.05,1.3,-3.69,C0X140
安定,23.102614,120.227839,0.92,27.91,-2.77,79.4,1.9,-3.34,C0X150
仁德,22.968258,120.257689,0.95,28.3,-1.69,77.45,2.38,-3.92,C0X160
關廟,22.963017,120.327797,-0.6,26.98,2.54,78.31,2.12,-3.96,C0X170
山上,23.0757,120.363253,0.84,27.58,-2.61,79.2,3.15,-2.17,C0X180
安平,22.993161,120.152181,0.46,27.78,-12.09,70.2,2.42,-3.57,C0X190
左鎮,23.056758,120.408522,1.55,27.71,-4.5,79.65,2.6,-2.68,C0X200
白河,23.347466,120.414427,0.29,26.96,-2.77,76.55,3.2,-1.0,C0X210
學甲,23.230367,120.182187,0.64,27.28,-2.06,76.45,1.12,-3.0,C0X220
鹽水,23.272621,120.247641,0.36,26.92,-1.88,78.1,1.02,-2.38,C0X230
關子嶺,23.331169,120.508025,0.18,24.66,1.16,85.8,3.65,-2.7,C0X240
新營,23.310689,120.316681,0.48,27.53,-3.27,74.4,1.32,-2.2,C0X250
後壁,23.366358,120.362326,0.5,27.09,-4.9,75.95,1.62,-1.98,C0X260
將軍,23.214999,120.13577,0.31,26.95,-3.16,77.0,1.58,-2.02,C0X280
北門,23.267772,120.125481,0.35,27.02,-4.07,77.65,1.38,-2.23,C0X290
鹿寮,23.386047,120.477331,0.21,26.3,-3.66,79.45,4.68,-0.34,C0X300
柳營,23.253328,120.375253,-0.15,27.29,-1.43,76.05,1.02,-5.74,C0X320
明里,23.208717,121.262342,0.37,24.07,-0.11,90.3,4.0,-0.36,C0Z020
佳心,23.34567,121.21316,0.26,20.6,8.11,95.55,4.42,0.26,C0Z050
玉里,23.3215,121.339656,0.86,25.01,4.64,91.05,3.6,-0.38,C0Z061
舞鶴,23.46811,121.37407,0.64,23.84,9.11,99.35,5.12,0.84,C0Z070
富源,23.587642,121.378225,0.55,23.85,-0.74,89.85,12.28,6.29,C0Z080
東華,23.89525,121.549833,0.28,24.88,0.17,89.65,4.35,-0.54,C0Z100
吉安光華,23.930925,121.595153,0.02,24.65,-9.07,78.85,7.28,3.05,C0Z150
鳳林,23.746114,121.453411,-0.21,24.15,-2.0,83.3,11.05,6.48,C0Z160
卓溪,23.3443,121.3029,-0.51,24.67,-1.62,79.9,4.15,0.96,C0Z170
新城,24.040486,121.604878,-0.13,24.66,13.79,97.25,12.82,8.02,C0Z180
富世,24.14743,121.6297,0.06,24.83,-4.21,83.35,9.18,4.78,C0Z190
萬榮,23.709219,121.420106,0.1,24.11,-3.14,84.7,11.0,6.43,C0Z200
瑞穗,23.5239,121.39021,0.23,24.55,1.72,88.05,8.72,4.09,C0Z210
和平林道,24.343922,121.656317,-0.41,21.36,-4.47,88.1,4.31,0.47,C0Z220
和平,24.30717,121.77007,-0.95,24.01,-3.04,79.8,13.38,9.84,C0Z230
瑞穗林道,23.49284,121.30688,-0.08,19.16,2.12,97.55,12.28,5.05,C0Z250
蕃薯寮,23.73835,121.540108,0.13,22.93,-4.15,88.75,12.75,8.39,C0Z270
德武,23.47426,121.41071,-0.06,24.07,0.31,88.55,4.4,1.26,C0Z280
赤柯山,23.36893,121.38293,0.23,20.38,-1.45,90.95,5.8,1.79,C0Z290
東里,23.26853,121.30547,0.06,24.7,-3.16,85.05,3.3,-0.49,C0Z300
清水斷崖,24.218294,121.689142,-0.44,24.15,-4.37,84.9,15.48,10.21,C0Z310
清水林道,23.27125,121.188272,0.28,21.95,-1.12,86.5,2.35,-1.74,C0Z320
安通山,23.290728,121.348528,-0.18,22.8,2.78,90.05,3.45,-0.14,C0Z330
口湖工作站,23.589978,120.180394,1.04,26.62,-3.66,73.42,1.5,-4.25,12J990
東港工作站,22.479997,120.466058,0.89,28.18,-6.7,65.42,0.76,-5.3,12Q970
恆春工作站,22.079678,120.714425,1.7,28.02,-1.95,71.05,0.63,-2.0,12Q980
萬大發電廠,23.978875,121.139639,0.11,21.05,-8.76,80.05,15.05,-1.71,42HA10
桃改樹林分場,24.944503,121.386972,-0.53,25.37,-5.36,74.21,11.71,3.16,72AI40
桃園農改場,24.950944,121.030583,1.0,25.45,-3.62,80.63,11.18,3.44,72C440
桃改五峰分場,24.612194,121.157167,0.67,20.28,0.16,88.79,10.79,1.62,72D080
臺中農改場,24.003028,120.534389,0.43,26.23,2.65,85.0,9.08,3.24,72G600
中改埔里分場,23.903208,120.963364,0.43,22.77,-3.21,87.26,9.97,-10.82,72HA00
南改斗南分場,23.634556,120.477333,0.99,27.04,-2.63,79.58,0.76,-5.53,72K220
南改義竹分場,23.360694,120.279361,0.59,26.82,-6.85,77.63,2.24,-2.31,72M360
南改鹿草分場,23.416869,120.283061,0.96,26.74,-2.85,81.58,6.0,0.44,72M700
臺南農改場,23.0605,120.342194,0.49,27.19,0.31,80.95,0.84,-3.84,72N100
七股研究中心,23.081672,120.062894,0.91,27.49,-3.73,79.0,2.53,-4.35,72N240
高雄農改場,22.709333,120.525889,0.71,28.26,-0.09,77.11,4.95,-0.56,72Q010
東改班鳩分場,22.829528,121.077694,0.37,24.38,0.21,84.47,2.44,-2.33,72S200
東改賓朗果園,22.813889,121.071278,0.48,24.12,-1.57,88.61,2.29,-2.47,72S590
花蓮農改場,23.975222,121.563889,0.44,24.74,-0.85,82.74,9.08,3.78,72T250
花改蘭陽分場,24.686306,121.716583,0.47,24.57,-2.27,83.32,7.87,1.96,72U480
高改旗南分場,22.857861,120.516667,-0.81,27.26,5.31,78.11,1.71,-2.59,72V140
茶改北部分場,24.955778,121.631222,0.94,22.87,-1.75,82.89,16.03,6.94,82A750
茶改場,24.908472,121.185333,0.86,24.63,-6.3,77.32,11.82,4.77,82C160
茶改中部分場,23.875611,120.913583,-0.56,21.44,0.37,87.11,10.66,-0.32,82H320
茶改南部分場,23.762528,120.7405,-0.37,23.87,-2.72,84.47,9.12,3.91,82H840
茶改東部分場,22.907694,121.130139,0.0,25.02,-1.34,82.58,1.08,-3.09,82S580
農工中心,24.985917,121.239833,1.11,25.47,-0.98,74.16,11.05,3.32,A2C560
水試臺西試驗場,23.717231,120.190522,-0.09,26.78,2.14,84.0,2.95,-3.08,A2K360
臺大雲林校區,23.730628,120.423903,-0.76,26.23,2.3,81.16,2.29,-2.59,A2K630
臺南蘭花園區,23.340258,120.379661,-0.02,26.95,1.21,80.74,2.47,-1.65,A2N290
畜產試驗所,23.058972,120.336406,0.42,27.03,-0.23,80.42,2.11,-2.47,B2N890
畜試南區分所,21.945583,120.802167,0.51,27.52,-4.35,73.68,0.71,-3.2,B2Q810
畜試東區分所,24.669039,121.832561,-0.35,24.51,2.51,89.89,8.71,5.26,B2U990
蓮華池,23.918333,120.885278,-0.98,22.61,2.93,85.79,9.79,-0.83,E2H360
林試畢祿溪站,24.226944,121.308522,-0.86,13.73,4.23,85.37,9.32,3.93,E2HA20
四湖植物園,23.676986,120.163433,0.72,26.48,6.79,92.05,3.34,-4.02,E2K600
林試六龜中心,22.991703,120.645722,-0.11,25.99,4.04,80.42,3.76,-3.33,E2P980
林試太麻里2,22.598,120.99775,-0.48,26.53,-2.19,77.53,0.87,-1.49,E2S960
林試太麻里1,22.598922,120.980044,-0.14,26.22,-0.84,79.68,0.95,-1.58,E2S980
農試所(霧峰),24.031261,120.688133,0.71,26.66,-2.55,79.95,13.21,6.66,G2F820
農試嘉義分所,23.485028,120.473806,0.49,26.31,-0.53,80.21,2.87,-3.04,G2L020
農試溪口農場,23.58565,120.408111,1.91,26.83,-5.54,79.26,2.05,-4.83,G2M350
農試鳳山分所,22.646611,120.356083,0.28,28.15,-0.81,72.53,1.89,-2.75,G2P820
苗栗農改場,24.495722,120.829111,0.32,25.1,-0.3,80.79,9.92,3.74,K2E360
苗改生物防治研究中心,24.422861,120.871833,-0.4,23.78,-1.53,82.42,9.39,0.53,K2E710
種苗改良場,24.225972,120.800917,0.36,24.07,6.56,86.32,8.95,-1.25,K2F750
溪頭,23.670306,120.798194,-0.22,18.37,3.12,94.33,3.62,-7.26,U2H480
臺大和社,23.590856,120.888864,0.86,22.32,-1.09,86.16,5.24,-8.11,U2HA30
臺大內茅埔,23.689722,120.851117,0.34,23.64,-3.04,82.47,7.71,-3.41,U2HA40
臺大竹山,23.756972,120.681556,0.08,25.94,-2.49,78.16,4.76,-2.63,U2HA50
