站名,緯度,經度,平均溫距平,本年度平均溫,平均溼度距平,本年度日均相對溼度,本年度日均降水量,日均降水量距平,站號
淡水,25.164889,121.448906,0.92,27.96,1.54,82.05,3.15,-6.95,466900
鞍部,25.182586,121.529731,0.67,22.56,4.65,92.95,4.05,-9.26,466910
臺北,25.037658,121.514853,1.01,28.97,1.0,76.68,4.86,-7.5,466920
竹子湖,25.162078,121.544547,0.87,24.29,2.51,88.09,3.82,-8.06,466930
基隆,25.133314,121.740475,1.02,28.18,1.19,79.27,3.6,-8.49,466940
花蓮,23.975128,121.613275,0.45,27.67,3.85,84.73,12.15,5.83,466990
新屋,25.006725,121.047492,0.16,27.92,-0.33,83.5,1.51,-9.74,467050
宜蘭,24.763975,121.756528,0.72,27.71,3.88,85.77,5.17,-3.16,467080
金門,24.407306,118.289281,0.81,26.98,2.27,89.27,2.18,-3.47,467110
田中,23.873803,120.581286,-0.78,28.47,1.1,81.41,7.69,6.1,467270
澎湖,23.565503,119.563094,0.61,28.24,1.82,87.27,5.1,-1.11,467350
臺南,22.99328,120.20492,0.39,29.14,0.87,77.91,14.46,0.04,467410
永康,23.038386,120.2367,0.61,29.07,3.63,78.32,15.94,1.3,467420
嘉義,23.495925,120.432906,0.35,28.55,3.77,81.05,15.53,3.13,467480
臺中,24.145736,120.684075,0.93,28.83,0.42,76.73,5.6,-7.69,467490
阿里山,23.508208,120.813242,0.47,14.8,2.57,93.14,19.05,-8.57,467530
大武,22.35572,120.90374,0.56,28.69,1.45,78.86,13.69,-0.11,467540
玉山,23.48718,120.95943,1.48,8.78,4.22,86.27,13.12,-5.7,467550
新竹,24.827853,121.014219,0.9,28.66,0.72,77.73,2.04,-7.72,467571
恆春,22.003897,120.746339,0.41,28.87,2.71,82.59,12.6,0.98,467590
成功,23.097486,121.373428,0.45,27.58,4.03,86.32,14.52,8.38,467610
日月潭,23.881325,120.90805,0.7,22.85,6.14,91.68,19.46,1.97,467650
臺東,22.752211,121.154586,0.5,28.6,3.42,81.36,9.5,1.41,467660
馬祖,26.169467,119.923158,1.4,25.86,1.92,90.0,5.31,-1.67,467990
山佳,24.974944,121.402008,1.64,29.14,-0.88,79.91,2.45,-7.98,C0A520
坪林,24.938183,121.70975,2.68,27.28,-2.85,89.32,6.07,-6.59,C0A530
泰平,24.971197,121.823711,1.2,24.89,-0.1,94.41,7.14,-6.28,C0A550
桶後,24.848222,121.597992,1.96,26.09,-5.18,87.35,10.16,-2.87,C0A570
石碇,24.993969,121.662917,1.15,26.38,-4.45,86.86,3.25,-12.55,C0A640
大坪,25.165914,121.632969,2.19,26.96,-3.73,84.75,5.58,-8.2,C0A860
五指山,25.132153,121.608692,2.53,25.2,-2.75,90.64,4.02,-7.76,C0A870
雙溪,25.036003,121.864242,2.23,28.17,-2.81,86.14,5.07,-6.71,C0A890
三和,25.233153,121.595236,0.51,26.45,-2.27,89.27,7.23,-10.12,C0A931
金山,25.223628,121.643967,0.87,27.35,-2.65,82.91,5.55,-6.08,C0A940
鼻頭角,25.129036,121.923372,1.41,27.82,-2.66,87.14,3.2,-4.23,C0A950
三貂角,25.007606,122.002058,1.03,27.13,2.21,89.55,6.41,-1.07,C0A970
社子,25.109508,121.469681,1.82,29.69,-0.16,79.05,2.55,-6.72,C0A980
天母,25.117494,121.537169,1.02,28.8,-3.98,73.05,2.59,-7.23,C0A9C0
內湖,25.079422,121.57545,1.7,29.64,-0.53,77.82,4.3,-7.02,C0A9F0
大屯山,25.175675,121.522408,2.31,23.08,2.35,97.68,4.11,-7.73,C0AC40
三峽,24.939025,121.369728,1.61,29.44,-0.48,80.86,4.25,-7.58,C0AC60
信義,25.037822,121.564597,1.4,29.25,-2.14,78.23,4.82,-7.87,C0AC70
文山,25.00235,121.575728,0.52,27.76,-3.44,81.41,4.95,-8.79,C0AC80
新莊,25.051478,121.446756,-0.05,28.54,0.83,75.45,2.55,-7.98,C0ACA0
八里,25.150211,121.403947,1.6,29.52,8.0,86.68,2.95,-5.24,C0AD10
蘆洲,25.086594,121.472331,1.01,29.76,0.54,76.45,2.52,-6.77,C0AD30
土城,24.973208,121.445169,0.42,27.86,-0.48,82.27,9.11,-3.93,C0AD40
鶯歌,24.951533,121.346294,1.35,29.14,0.99,83.27,2.32,-7.8,C0AD50
汐止,25.066881,121.658778,0.63,28.32,-4.0,79.59,2.86,-10.06,C0AH00
永和,25.01125,121.508111,1.23,29.58,1.79,77.5,8.61,-4.06,C0AH10
五分山,25.07125,121.780794,2.36,24.9,-1.7,92.32,5.55,-9.95,C0AH30
平等,25.129142,121.577086,0.5,26.13,-0.82,81.95,3.2,-9.71,C0AH40
林口,25.072181,121.38084,1.58,28.15,0.36,85.39,2.91,-7.87,C0AH50
松山,25.04871,121.55042,0.34,28.83,9.35,79.0,5.68,-0.44,C0AH70
深坑,25.002703,121.628328,1.12,27.93,-0.66,83.86,2.93,-6.54,C0AH80
福山植物園,24.760717,121.58135,0.64,23.56,1.64,93.95,8.98,1.57,C0AH90
五股,25.07445,121.42728,1.09,28.51,0.61,82.5,2.91,-5.13,C0AI00
屈尺,24.92184,121.54475,1.97,29.06,1.06,85.41,7.59,-2.94,C0AI10
白沙灣,25.283128,121.519058,0.34,27.55,7.39,85.68,3.09,-4.35,C0AI20
三重,25.057328,121.500629,-0.93,29.4,8.32,84.36,2.16,-0.63,C0AI30
石牌,25.115597,121.513139,0.47,29.92,7.36,76.86,2.36,-5.27,C0AI40
七堵,25.094819,121.71713,1.37,29.02,-1.61,82.41,3.66,-7.36,C0B010
基隆嶼,25.19141,121.78391,-0.08,27.07,7.05,95.55,1.27,-8.48,C0B020
復興,24.820208,121.352281,0.27,24.59,-8.04,78.32,7.89,-7.11,C0C460
桃園,24.992425,121.323172,0.73,28.7,1.6,75.45,3.25,-6.88,C0C480
八德,24.928708,121.283289,0.19,27.87,-2.45,76.82,3.41,-6.46,C0C490
觀音,25.027072,121.153317,0.32,27.22,6.76,88.55,4.34,-5.17,C0C590
蘆竹,25.084275,121.265767,0.65,28.34,-0.95,80.55,2.07,-7.11,C0C620
大溪,24.882853,121.265547,0.5,26.82,2.86,80.86,4.86,-5.01,C0C630
平鎮,24.897503,121.214636,0.77,27.12,0.76,81.14,4.02,-5.24,C0C650
楊梅,24.912375,121.143047,0.02,27.65,3.77,79.68,2.5,-7.52,C0C660
龍潭,24.870056,121.221389,0.13,26.8,2.16,80.36,6.36,-2.81,C0C670
龜山,25.02846,121.38656,-0.58,25.92,-1.19,78.73,3.02,-8.58,C0C680
中壢,24.977661,121.256375,0.37,28.0,1.49,76.0,2.45,-3.59,C0C700
大溪永福,24.892936,121.324975,0.66,27.28,0.54,84.45,4.27,-5.15,C0C710
梅花,24.678347,121.208558,0.55,24.45,2.31,90.09,7.86,-2.2,C0D360
峨眉,24.6905,121.017189,0.28,27.31,2.41,88.77,4.34,-4.85,C0D430
打鐵坑,24.849664,121.150789,0.21,25.81,-1.59,84.55,1.18,-8.44,C0D480
橫山,24.71116,121.11693,0.09,25.87,10.79,96.41,5.23,-4.8,C0D540
雪霸,24.526972,121.11605,0.49,18.31,1.21,85.64,5.6,-7.01,C0D550
竹東,24.767147,121.057881,1.5,28.31,-0.54,75.41,5.05,-3.28,C0D560
寶山,24.735006,121.025192,0.54,26.7,1.5,86.27,3.77,-5.35,C0D580
新豐,24.87068,120.97721,0.49,27.07,6.18,89.64,2.3,-7.83,C0D590
湖口,24.904794,121.043628,0.33,27.98,-2.37,77.27,2.07,-7.87,C0D650
新竹市東區,24.798681,120.986942,0.03,27.99,2.03,77.32,2.48,-7.35,C0D660
竹南,24.708978,120.888897,1.89,29.37,4.13,82.64,3.0,-6.53,C0E420
南庄,24.601775,121.000214,0.46,26.08,3.09,86.36,5.66,-5.71,C0E430
明德,24.583486,120.885411,0.64,28.46,-0.72,78.73,3.48,-4.92,C0E550
通霄,24.471892,120.704622,0.19,28.04,0.27,83.0,3.89,-4.64,C0E590
馬都安,24.451272,120.930192,0.69,23.51,5.34,87.45,7.77,-4.63,C0E610
頭份,24.688247,120.912206,1.47,29.72,1.54,75.73,4.39,-4.71,C0E730
造橋,24.637056,120.864778,0.24,28.44,-1.33,79.86,3.25,-5.68,C0E740
苗栗,24.564569,120.824575,-0.1,28.51,-2.53,72.0,2.86,-6.04,C0E750
銅鑼,24.489681,120.790853,0.22,27.94,-2.9,78.59,3.7,-5.85,C0E780
西湖,24.562947,120.7485,0.4,27.8,-1.99,84.73,3.45,-5.77,C0E810
獅潭,24.539133,120.920042,0.02,26.9,-2.65,81.0,3.98,-6.51,C0E820
苑裡,24.439714,120.653053,-0.11,28.28,-0.2,78.86,2.66,-6.55,C0E830
大河,24.618069,120.948578,-1.24,26.17,1.62,81.68,4.09,-7.43,C0E850
高鐵苗栗,24.60725,120.826094,0.14,28.41,10.54,84.27,3.5,-4.25,C0E870
石岡,24.276061,120.777644,0.61,27.35,0.53,81.68,8.91,-8.45,C0F0B0
中坑,24.248517,120.903319,-0.36,21.93,-0.78,89.91,13.2,-9.72,C0F0C0
審馬陣,24.381675,121.4203,0.45,11.54,5.74,87.41,10.57,3.48,C0F0D0
東勢,24.246428,120.833047,1.2,27.61,-1.49,78.59,8.55,-7.11,C0F850
大坑,24.173142,120.722289,1.29,29.48,1.14,77.0,5.07,-7.34,C0F970
神岡,24.272481,120.658314,-0.04,27.6,-3.92,79.36,4.52,-3.94,C0F9I0
大安,24.345061,120.588025,-0.15,28.0,-1.13,82.14,3.7,-3.61,C0F9K0
后里,24.310436,120.729725,0.66,28.34,-2.46,78.82,6.3,-4.47,C0F9L0
豐原,24.254322,120.720692,1.59,29.35,-3.12,74.73,5.43,-6.76,C0F9M0
大里,24.092464,120.701378,0.98,30.04,3.27,77.77,5.8,-5.82,C0F9N0
潭子,24.213106,120.703933,0.42,29.07,2.44,78.82,5.25,-6.98,C0F9O0
清水,24.312297,120.562242,-0.06,28.54,-2.68,80.14,3.34,-3.62,C0F9P0
外埔,24.347817,120.705686,0.11,27.66,-1.86,82.55,5.66,-3.3,C0F9Q0
龍井,24.184536,120.528972,0.23,28.74,-7.81,79.23,5.27,-2.75,C0F9R0
烏日,24.107058,120.624103,0.18,28.85,-0.61,75.91,6.36,-3.56,C0F9S0
西屯,24.179494,120.641275,0.15,28.85,-2.14,74.68,5.52,-4.6,C0F9T0
南屯,24.137006,120.637969,0.01,28.98,-0.34,75.59,6.02,-3.75,C0F9U0
新社,24.200172,120.815806,0.46,25.83,-3.14,82.36,11.32,-5.2,C0F9V0
大雅(中科園區),24.21528,120.62445,0.19,27.7,1.36,81.36,4.05,-8.29,C0F9X0
桃山,24.432739,121.303808,0.51,10.92,5.04,88.32,11.09,-4.9,C0F9Y0
雪山東峰,24.388792,121.268675,0.65,11.81,3.77,85.5,9.89,-8.01,C0F9Z0
芬園,24.015678,120.6213,-0.54,27.22,8.5,91.09,8.61,-2.55,C0G620
員林,23.946503,120.585597,2.61,30.64,-3.22,79.32,9.18,-2.23,C0G650
溪湖,23.94835,120.479122,0.93,29.14,-5.54,81.4,8.61,-1.72,C0G660
溪州,23.851589,120.499093,0.92,28.8,-6.73,75.95,11.38,-2.0,C0G720
二林,23.903325,120.376081,0.33,28.28,-0.31,87.82,10.95,-2.22,C0G730
大城,23.852487,120.320935,0.28,28.12,0.28,83.64,6.27,-5.69,C0G740
福興,24.041289,120.437669,0.09,29.21,-5.57,78.18,6.11,-2.59,C0G770
秀水,24.03405,120.503869,0.47,29.19,-1.22,82.0,8.73,-0.23,C0G780
埔鹽,24.000394,120.431683,0.82,29.0,-7.28,79.42,7.02,-1.87,C0G800
埔心,23.947633,120.525456,1.49,30.35,-1.43,78.64,8.59,-2.02,C0G810
田尾,23.901669,120.509389,0.52,29.05,1.35,86.0,10.0,-1.34,C0G820
埤頭,23.866003,120.452806,0.14,28.57,2.7,90.59,8.82,-1.44,C0G830
社頭,23.897647,120.5862,0.35,29.48,8.34,83.36,7.68,-3.78,C0G860
二水,23.810742,120.6173,1.1,29.5,0.69,81.95,7.86,-4.12,C0G880
伸港,24.148933,120.484403,-0.0,28.61,-4.67,79.0,5.5,-2.08,C0G890
線西,24.143358,120.443536,-0.81,28.58,0.23,80.82,5.09,-2.74,C0G900
花壇,24.032076,120.549461,1.31,30.66,11.39,86.23,8.86,6.47,C0G910
埔里,23.972169,120.952425,0.48,26.09,1.06,86.18,17.18,-4.27,C0H890
草屯,23.973672,120.68085,0.01,28.18,1.48,79.86,8.3,-4.02,C0H960
昆陽,24.121322,121.273642,1.08,11.59,1.06,90.27,10.89,-2.6,C0H990
神木村,23.532742,120.843667,0.73,19.7,0.7,91.64,14.68,-7.33,C0H9A0
合歡山,24.143442,121.272547,1.24,10.7,6.86,93.91,15.39,-10.63,C0H9C0
廬山,24.033311,121.181808,0.96,20.26,-1.85,84.95,10.84,-8.0,C0I010
信義,23.689694,120.851036,0.47,25.03,0.95,87.73,8.89,-8.61,C0I080
竹山,23.761225,120.688156,0.81,27.64,1.57,84.91,15.73,0.92,C0I110
水里,23.812553,120.849792,0.49,26.65,-0.86,81.73,15.09,-6.7,C0I360
魚池,23.895703,120.94135,0.46,24.7,-2.06,84.77,16.09,-6.19,C0I370
集集,23.828206,120.801467,0.05,26.85,1.53,85.55,14.52,-9.51,C0I380
仁愛,24.022122,121.132206,0.88,22.08,-4.35,84.64,10.14,-16.6,C0I390
名間,23.837053,120.701447,-0.13,27.06,5.79,86.09,11.8,-4.81,C0I410
國姓,24.037803,120.855072,0.41,26.56,-0.94,85.59,13.14,-12.74,C0I420
南投,23.911469,120.687331,0.14,28.38,7.1,84.95,8.68,-9.91,C0I460
梅峰,24.085272,121.173572,1.07,16.75,-2.79,88.55,13.55,-16.17,C0I480
萬大林道,23.928228,121.091411,0.73,19.84,-5.59,85.77,11.43,-8.83,C0I490
小奇萊,24.131764,121.295717,1.13,11.58,0.94,89.64,6.17,-13.47,C0I530
崙背,23.75555,120.318925,0.13,27.99,-0.93,85.27,10.93,-4.16,C0K250
四湖,23.630414,120.227125,0.8,28.51,-2.63,83.05,12.68,1.5,C0K280
宜梧,23.536281,120.169329,0.05,28.54,-1.66,82.5,12.25,1.39,C0K291
虎尾,23.719183,120.442036,0.66,28.74,5.49,84.64,10.89,-1.0,C0K330
土庫,23.679029,120.395574,0.16,28.38,-2.74,79.73,10.8,-3.29,C0K390
斗六,23.720583,120.541127,0.18,28.37,-3.24,77.59,7.66,-7.28,C0K400
北港,23.573957,120.292802,0.13,28.44,-2.6,80.32,10.82,1.31,C0K410
西螺,23.800407,120.467394,0.21,28.59,-1.94,79.68,9.48,-3.39,C0K420
褒忠,23.690938,120.303634,0.2,28.23,-1.24,82.77,10.86,-1.38,C0K430
二崙,23.772797,120.408944,0.45,28.55,6.4,89.73,9.43,-6.07,C0K440
大埤,23.646074,120.431537,0.29,28.48,-1.13,80.18,9.34,-5.52,C0K450
斗南,23.678734,120.478359,0.23,28.48,2.15,80.0,9.14,-6.28,C0K460
林內,23.748675,120.609642,0.2,27.69,-0.7,82.05,11.68,-4.2,C0K470
莿桐,23.761192,120.502372,0.21,28.22,0.18,80.18,7.5,-7.9,C0K480
元長,23.64981,120.315024,0.31,28.63,0.01,81.5,12.5,-1.85,C0K500
水林,23.572924,120.24597,0.37,28.7,1.43,82.82,12.73,0.29,C0K510
臺西,23.701547,120.197559,0.02,28.15,0.67,83.59,13.2,-1.03,C0K530
蔦松,23.514319,120.229736,0.27,28.61,-0.14,83.36,12.5,2.32,C0K550
棋山,23.68645,120.603417,0.14,27.75,4.33,86.14,13.2,-6.01,C0K560
高鐵雲林,23.737456,120.417944,-0.33,28.02,-0.64,83.82,11.02,1.87,C0K580
東後寮,23.369908,120.248065,0.21,28.21,0.27,85.36,12.25,0.24,C0M520
奮起湖,23.493903,120.699253,0.75,20.47,2.11,94.27,20.93,-4.58,C0M530
中埔,23.42538,120.5229,-0.02,27.8,-0.95,76.95,13.41,-2.97,C0M640
朴子,23.43463,120.23902,-0.47,27.7,2.55,85.59,11.93,1.28,C0M650
溪口,23.604131,120.403569,0.11,28.26,-1.5,80.68,7.48,-4.38,C0M660
大林,23.600616,120.45841,0.23,28.71,0.35,78.86,9.91,-5.47,C0M670
太保,23.455062,120.331455,0.01,28.34,-2.55,81.0,11.91,-0.85,C0M680
水上,23.419734,120.388909,0.22,28.31,-0.93,80.73,16.18,2.92,C0M690
竹崎,23.526178,120.555508,-0.07,27.37,2.19,83.27,16.09,0.14,C0M700
東石,23.458927,120.15385,-0.16,28.6,-2.59,80.27,13.23,2.93,C0M710
番路,23.464657,120.554156,0.22,27.46,1.95,80.09,17.14,-1.82,C0M720
嘉義市東區,23.457673,120.460531,0.05,28.75,2.53,80.09,15.09,1.57,C0M730
六腳,23.492871,120.290625,0.06,28.47,1.94,81.59,12.55,2.86,C0M740
布袋,23.380878,120.167789,0.2,28.76,-2.42,80.64,11.59,-0.85,C0M750
民雄,23.551754,120.428457,0.09,28.64,-0.54,79.68,9.98,-3.93,C0M760
嘉義梅山,23.585398,120.555587,-0.21,27.75,2.98,81.64,18.43,2.03,C0M770
鹿草,23.41134,120.30835,0.26,28.65,0.75,81.86,13.95,-0.35,C0M780
新港,23.553269,120.345728,-0.05,28.35,-0.69,80.36,9.39,-2.34,C0M790
茶山,23.299075,120.664767,0.17,25.4,1.11,87.23,16.82,-6.74,C0M800
里佳,23.389125,120.716647,0.51,20.9,-0.51,87.82,22.18,-10.31,C0M810
達邦,23.453994,120.749517,0.7,22.74,2.72,88.09,13.73,-12.7,C0M820
表湖,23.24186,120.64166,-0.57,23.73,1.2,87.86,14.93,-1.09,C0M850
新美,23.338017,120.683169,-0.29,25.05,10.07,87.32,17.11,13.18,C0M860
北寮,23.079561,120.495008,-0.17,27.65,7.26,89.86,22.5,10.8,C0O830
王爺宮,23.222064,120.40085,2.03,29.73,-4.48,78.73,15.43,2.49,C0O840
大內,23.11885,120.36083,0.69,29.49,3.99,85.91,16.07,4.48,C0O860
善化,23.112883,120.297219,0.57,28.52,8.18,91.64,15.75,1.2,C0O900
崎頂,22.959547,120.369317,0.85,28.62,0.08,85.91,15.0,3.81,C0O960
虎頭埤,23.021375,120.347878,-0.17,27.85,-1.49,82.32,17.45,5.29,C0O970
新市,23.061614,120.298197,0.54,29.2,-1.96,81.5,15.18,4.88,C0O980
媽廟,22.99175,120.293525,0.24,28.89,0.86,83.5,13.82,2.29,C0O990
尾寮山,22.833111,120.683889,1.14,22.75,1.67,93.82,29.09,-1.14,C0R100
阿禮,22.742908,120.743678,0.2,22.56,-2.38,84.36,16.98,0.69,C0R130
瑪家,22.682903,120.686639,-0.52,23.76,10.76,95.23,24.7,1.53,C0R140
三地門,22.709889,120.639944,0.69,28.39,1.4,78.86,22.5,0.88,C0R150
鹽埔,22.739558,120.530778,0.32,28.68,-0.44,85.77,16.95,3.53,C0R160
赤山,22.592333,120.614306,-0.04,28.55,6.9,89.05,17.93,1.57,C0R190
潮州,22.534361,120.54,0.86,29.08,1.3,79.18,19.18,2.17,C0R220
來義,22.527306,120.625111,-0.83,27.23,9.42,90.41,18.89,3.04,C0R240
春日,22.370361,120.628306,-1.3,27.16,5.96,86.36,18.77,6.8,C0R260
琉球嶼,22.332244,120.362236,0.76,28.79,-4.08,82.05,8.68,-1.6,C0R270
車城,22.0744,120.716247,-0.56,28.69,3.91,85.45,13.93,11.52,C0R320
牡丹,22.130036,120.792639,-0.49,26.6,10.36,93.82,16.77,11.25,C0R341
貓鼻頭,21.921774,120.7358,0.58,28.57,0.94,84.73,13.2,3.43,C0R350
大漢山,22.405264,120.753181,0.28,18.25,3.66,97.86,37.23,24.37,C0R440
高樹,22.826389,120.600806,-0.3,28.35,0.65,77.45,20.05,4.72,C0R470
長治,22.693128,120.542622,0.61,29.45,-0.59,78.95,18.2,3.79,C0R480
九如,22.7405,120.490503,0.64,29.38,-1.95,79.73,19.55,5.83,C0R490
崁頂,22.514781,120.506914,-0.2,28.83,0.65,82.36,11.64,-1.07,C0R520
佳冬,22.419456,120.552375,-0.08,28.84,0.65,81.23,17.09,4.59,C0R540
新埤,22.467947,120.582894,-0.14,28.53,-4.03,78.32,18.89,7.15,C0R550
新園,22.5434,120.461558,0.91,29.81,-6.18,76.0,16.77,3.68,C0R560
麟洛,22.65078,120.52719,0.72,29.75,3.27,82.55,20.5,8.19,C0R570
南州,22.48591,120.50274,-0.22,28.57,5.37,84.91,15.89,4.11,C0R580
里港,22.77919,120.49459,0.17,28.66,1.95,83.59,18.55,6.49,C0R590
舊泰武,22.588194,120.664944,-0.14,24.32,2.62,86.73,11.81,-10.49,C0R600
墾雷,21.900836,120.855269,-0.41,28.28,8.68,92.91,14.27,6.18,C0R620
東港,22.46247,120.44074,-0.16,29.03,-0.38,82.64,12.86,9.97,C0R640
竹田,22.58486,120.54344,-0.41,28.95,0.56,80.73,18.48,13.18,C0R650
枋寮,22.367722,120.590647,-0.11,28.81,6.97,85.14,13.5,12.15,C0R660
楓港,22.190131,120.692156,-0.84,28.31,0.97,79.68,18.16,16.14,C0R670
佳樂水,21.993578,120.861633,-0.99,28.47,7.71,86.5,13.84,12.3,C0R680
墾丁,21.966756,120.810269,-0.46,26.74,3.68,91.68,15.05,13.25,C0R690
枋山,22.246844,120.661086,0.25,28.9,0.51,80.14,46.5,45.08,C0R700
龍磐,21.931672,120.838942,-0.89,27.75,5.37,89.95,12.66,11.55,C0R710
旭海,22.205403,120.887614,-0.98,26.95,6.49,85.36,12.27,8.54,C0R720
大坪頂,22.024633,120.69355,-0.69,27.55,8.91,94.45,8.82,7.8,C0R730
四林格山,22.076989,120.802439,-0.28,24.53,1.26,96.64,17.86,10.03,C0R750
南仁湖,22.084681,120.863353,-1.0,25.7,12.63,96.59,22.25,13.88,C0R760
保力,22.071122,120.764111,-0.34,27.39,4.2,89.36,14.73,8.1,C0R770
滿州,22.024403,120.839892,-0.88,27.9,5.86,85.36,15.34,12.2,C0R780
九棚,22.14195,120.889281,-1.27,27.82,10.64,84.76,7.02,1.03,C0R790
丹路,22.204481,120.750989,-0.28,27.75,3.15,84.82,25.7,19.43,C0R800
內獅,22.305064,120.642986,-0.04,28.9,15.29,91.95,21.18,18.97,C0R810
白鷺,22.454275,120.666219,0.05,25.23,3.84,87.64,25.61,23.66,C0R820
高士,22.121825,120.836781,-0.93,25.49,9.33,92.5,18.91,10.95,C0R830
牡丹池山,22.168389,120.841225,-0.76,24.62,8.81,94.77,16.39,9.74,C0R840
下馬,23.150427,121.070312,0.2,23.99,5.67,85.95,9.73,8.29,C0S660
太麻里,22.60902,120.98533,0.88,25.32,4.55,88.76,8.71,-0.56,C0S690
知本,22.684866,121.005642,0.92,25.55,4.52,90.09,16.41,6.63,C0S700
鹿野,22.917711,121.122994,1.22,26.1,5.24,88.55,12.8,4.79,C0S710
綠島,22.6672,121.47533,1.04,28.08,-1.35,85.32,15.05,8.69,C0S730
池上,23.119628,121.209469,0.78,26.45,4.95,87.95,12.59,6.39,C0S740
向陽,23.248397,120.986133,1.04,16.31,13.06,89.77,12.98,-3.88,C0S750
大溪山,22.478475,120.943325,0.83,25.89,6.15,87.95,11.89,-0.02,C0S770
金崙,22.538122,120.966875,1.04,27.84,0.87,81.82,10.18,0.54,C0S790
東河,22.972672,121.303986,0.1,28.03,3.06,87.82,15.2,8.79,C0S810
長濱,23.286817,121.411975,0.77,27.05,3.04,87.14,13.98,8.4,C0S830
南田,22.279725,120.889208,0.54,28.4,1.48,80.36,13.91,1.27,C0S840
關山,23.0395,121.175017,0.22,27.0,5.9,88.68,11.91,6.48,C0S890
蘭嶼高中,22.04909,121.51214,-0.54,28.8,7.99,87.36,19.64,18.05,C0S900
蘭嶼燈塔,22.081197,121.503117,-0.35,27.31,8.8,92.59,18.3,16.99,C0S910
金峰嘉蘭,22.594789,120.960825,-0.63,27.78,3.81,80.77,12.98,8.44,C0S920
延平,22.902581,121.084058,-1.09,26.75,11.08,84.95,12.91,10.62,C0S930
石寧山,23.223772,121.406639,-0.77,27.95,6.56,87.23,15.16,13.62,C0S940
七塊厝,22.954453,121.229922,-0.19,26.38,-1.47,84.15,15.38,9.71,C0S950
香蘭,22.587569,120.993375,-0.44,28.56,11.07,84.94,11.93,9.1,C0S960
加津林,22.416211,120.926942,-0.01,28.41,3.91,80.91,12.95,9.73,C0S970
勝林山,22.430439,120.8938,-1.82,22.92,11.79,91.5,13.68,9.48,C0S980
山豬窟,22.318619,120.857372,-1.59,25.99,12.29,86.67,16.41,12.33,C0S990
歷坵,22.520969,120.89185,0.08,25.73,1.43,87.14,12.55,8.41,C0SA00
檳榔四格山,22.810031,121.109308,-0.97,25.85,7.62,89.91,10.05,8.32,C0SA10
金崙山,22.567419,120.959667,-0.11,24.19,1.63,86.55,14.3,11.3,C0SA20
都歷,23.020333,121.323642,-0.28,28.05,1.13,80.05,13.86,10.03,C0SA30
瑞和,22.974361,121.156697,-1.01,27.02,6.18,85.18,12.23,9.11,C0SA40
知本（水試所）,22.702394,121.082761,-0.72,28.22,7.06,85.27,11.02,9.26,C0SA60
土坂,22.453108,120.887572,-0.0,27.92,8.12,83.86,14.39,9.28,C0SA80
達仁林場,22.264347,120.823972,-0.83,25.28,11.42,90.09,22.68,14.33,C0SA90
大禹嶺,24.186117,121.316086,0.59,13.52,2.79,87.45,10.66,-0.25,C0T790
天祥,24.179597,121.495639,0.89,24.45,5.24,87.18,10.02,4.61,C0T820
鯉魚潭,23.935639,121.508944,0.5,26.01,1.56,90.86,11.98,5.22,C0T870
西林,23.8119,121.441458,0.73,26.94,7.23,87.82,8.98,2.68,C0T900
光復,23.660694,121.424964,1.2,27.54,-1.49,85.86,10.84,3.29,C0T960
月眉山,23.809928,121.539828,1.23,25.2,-1.0,92.55,8.23,2.14,C0T9A0
水源,23.991861,121.537169,0.94,24.5,0.07,91.91,14.23,6.89,C0T9B0
和中,24.26676,121.74103,0.67,27.53,10.39,100.0,10.8,3.2,C0T9D0
大坑,23.880628,121.581981,0.89,25.51,4.03,92.73,15.82,9.28,C0T9E0
水璉,23.797131,121.542514,0.5,26.58,4.27,91.27,7.95,1.97,C0T9F0
鳳林山,23.735269,121.420131,0.08,24.65,0.94,93.59,13.23,5.21,C0T9G0
加路蘭山,23.682947,121.5274,1.21,24.66,6.44,98.64,9.98,2.02,C0T9H0
豐濱,23.583897,121.514806,1.2,26.98,-3.16,85.95,8.82,2.01,C0T9I0
靜浦,23.455167,121.495028,0.89,27.3,6.71,93.09,13.32,7.41,C0T9M0
富里,23.171639,121.249378,-0.91,26.88,19.62,98.95,10.66,8.94,C0T9N0
雙連埤,24.753033,121.641303,0.06,23.75,-2.15,93.32,7.7,-2.71,C0U520
礁溪,24.817539,121.765608,1.0,27.61,-2.65,84.23,4.27,-4.55,C0U600
玉蘭,24.675286,121.587061,1.13,25.58,-1.73,83.86,8.5,-1.37,C0U650
太平山,24.505486,121.525656,1.14,18.15,-0.55,92.09,14.32,1.99,C0U710
南山,24.43742,121.38167,0.42,22.1,-5.46,84.64,5.52,-0.39,C0U720
龜山島,24.841667,121.953133,-0.14,24.55,-1.08,93.32,3.2,-1.13,C0U750
東澳,24.52196,121.83318,0.83,27.82,-3.91,83.73,5.59,-3.58,C0U760
南澳,24.44935,121.81022,0.27,27.37,2.29,88.77,3.07,-3.46,C0U770
五結,24.68637,121.79794,0.01,27.65,-1.13,83.45,5.23,-1.07,C0U780
頭城,24.85323,121.8308,0.05,27.59,-0.76,88.68,4.7,-2.78,C0U860
大礁溪,24.791042,121.675047,0.3,24.92,6.22,93.36,8.64,1.36,C0U870
三星,24.66812,121.65302,0.22,26.94,-6.05,82.55,7.09,0.43,C0U890
內城,24.71813,121.68766,0.72,27.56,-2.03,85.09,5.43,-1.61,C0U900
冬山,24.63373,121.7937,0.79,28.11,-0.27,80.32,6.43,-1.4,C0U910
羅東,24.68184,121.74934,0.8,28.01,1.15,83.77,4.16,-2.24,C0U940
鶯子嶺,24.89754,121.79244,0.66,21.9,-3.74,91.41,9.16,-1.29,C0U950
翠峰湖,24.510856,121.608044,1.08,18.01,1.42,93.55,13.43,5.22,C0U960
大福,24.80064,121.81389,-0.14,27.1,1.74,85.91,4.09,-2.1,C0U970
坪林石牌,24.86478,121.77396,0.44,24.09,2.21,95.64,7.23,-1.22,C0U980
員山,24.74435,121.72247,0.26,27.59,3.6,86.68,4.55,-2.19,C0U990
土場,24.576533,121.495333,-0.04,25.44,-2.7,86.32,5.77,-0.72,C0UA00
鴛鴦湖,24.590269,121.412228,0.7,18.61,2.43,96.41,15.59,3.91,C0UA10
白嶺,24.527819,121.519031,0.56,20.8,-1.93,92.45,15.14,5.24,C0UA30
西德山,24.560647,121.752608,0.66,21.93,1.91,94.27,10.25,2.35,C0UA40
西帽山,24.555361,121.802628,0.44,23.4,-4.65,88.0,10.55,0.5,C0UA50
樟樹山,24.41393,121.78325,0.36,24.81,3.0,89.1,4.83,-2.85,C0UA60
桃源谷,24.962606,121.888875,0.44,24.33,-0.38,95.77,8.36,-2.39,C0UA70
復興,23.222403,120.806089,0.57,24.48,3.11,84.95,16.16,-1.08,C0V210
溪埔,22.738578,120.446797,0.01,28.49,4.57,85.95,20.09,7.04,C0V350
內門,22.975481,120.466769,0.95,28.48,2.0,85.82,24.11,9.26,C0V360
古亭坑,22.893178,120.401947,0.25,27.52,2.29,86.94,21.94,4.97,C0V370
阿公店,22.804194,120.355528,-0.22,28.17,2.1,84.27,14.75,3.1,C0V400
鳳山,22.646653,120.356122,-0.56,28.53,7.83,85.86,12.68,1.66,C0V440
鳳森,22.545064,120.392592,-0.23,28.36,-0.15,83.05,15.45,3.22,C0V450
新興,22.627422,120.298803,0.46,29.54,-2.37,76.77,15.95,4.38,C0V490
阿蓮,22.883208,120.327508,-0.01,28.95,0.92,82.18,16.12,2.3,C0V530
梓官,22.760558,120.267211,-0.2,28.95,-0.7,80.5,16.36,4.48,C0V610
永安,22.82315,120.236856,-0.23,28.71,-2.66,81.5,13.39,1.61,C0V620
茄萣,22.906642,120.182608,0.19,29.32,3.79,82.14,18.14,7.15,C0V630
湖內,22.887139,120.2445,-0.56,28.43,-0.5,80.82,13.95,2.87,C0V640
彌陀,22.783806,120.246361,0.0,28.88,-2.65,82.14,14.43,3.09,C0V650
岡山,22.797078,120.294958,0.29,29.69,0.63,79.23,19.16,6.25,C0V660
仁武,22.701083,120.347722,0.14,29.71,1.14,79.14,15.68,3.82,C0V680
鼓山,22.623325,120.275575,-0.15,29.04,0.07,81.09,13.64,3.7,C0V690
三民,22.645017,120.311233,-0.07,29.59,3.12,76.36,16.7,4.98,C0V700
苓雅,22.622742,120.330669,0.51,29.86,6.44,80.15,16.92,5.83,C0V710
林園,22.507747,120.394511,0.39,30.04,3.59,80.27,13.59,1.92,C0V720
大寮,22.605614,120.395717,-0.3,29.03,6.47,83.45,19.66,8.24,C0V730
旗山,22.888614,120.483597,1.0,29.31,-0.94,78.86,22.95,9.18,C0V740
路竹,22.854997,120.259439,0.42,29.6,-0.68,78.82,14.43,1.27,C0V750
橋頭,22.757806,120.30575,0.34,29.73,-3.66,75.82,16.48,5.0,C0V760
大社,22.730306,120.346639,0.2,29.57,3.96,80.73,17.52,5.18,C0V770
萬山,22.905944,120.688056,0.42,26.26,4.09,85.64,18.13,2.08,C0V790
六龜,22.997889,120.633583,0.24,27.39,4.01,83.41,24.64,5.74,C0V800
左營,22.67491,120.28491,-0.17,28.85,-0.99,79.86,16.25,3.24,C0V810
小林,23.148408,120.63325,-0.14,25.93,7.69,87.32,15.02,4.01,C0V820
東莒,25.9652,119.98069,1.16,25.91,-1.14,87.38,1.88,-5.69,C0W110
西嶼,23.5626,119.468436,0.66,26.9,-1.26,92.25,10.0,4.49,C0W120
花嶼,23.40007,119.32276,0.49,27.14,0.45,90.5,3.39,-3.14,C0W130
金沙,24.488292,118.408778,0.93,27.35,-3.0,84.27,1.75,-3.4,C0W140
金寧,24.457703,118.328989,0.02,27.21,-4.74,83.73,1.43,-3.12,C0W150
東河,23.296598,120.385608,-0.2,28.17,-2.51,79.41,14.75,0.29,C0X050
下營,23.22695,120.256261,0.39,28.64,-3.66,80.05,15.09,1.78,C0X060
佳里,23.173039,120.145086,0.7,28.87,2.58,87.5,18.18,5.86,C0X080
臺南市北區,23.010394,120.194228,-0.09,29.49,5.2,80.14,12.36,2.49,C0X100
臺南市南區,22.961189,120.188378,-0.07,29.24,0.8,82.0,13.68,3.97,C0X110
麻豆,23.183289,120.248611,0.56,29.64,1.29,82.77,15.75,5.29,C0X120
官田,23.193217,120.315422,0.05,28.97,7.82,87.45,13.39,3.04,C0X130
西港,23.125608,120.203108,-0.32,28.95,-0.34,79.14,18.7,8.82,C0X140
安定,23.102614,120.227839,0.22,29.3,2.89,83.55,17.14,7.93,C0X150
仁德,22.968258,120.257689,0.22,29.26,2.41,81.77,14.84,4.06,C0X160
關廟,22.963017,120.327797,-0.17,29.05,7.07,82.86,13.68,1.63,C0X170
山上,23.0757,120.363253,0.05,28.44,1.89,82.95,16.93,5.45,C0X180
安平,22.993161,120.152181,-0.06,29.16,-4.74,77.5,13.73,4.88,C0X190
左鎮,23.056758,120.408522,0.88,28.72,-1.08,83.23,16.75,5.25,C0X200
白河,23.347466,120.414427,0.02,28.24,1.59,81.91,13.82,0.02,C0X210
學甲,23.230367,120.182187,0.17,28.67,1.9,81.5,13.95,4.86,C0X220
鹽水,23.272621,120.247641,0.13,28.35,0.26,83.18,14.0,2.92,C0X230
關子嶺,23.331169,120.508025,0.03,26.05,3.73,87.73,23.64,3.57,C0X240
新營,23.310689,120.316681,-0.18,28.76,2.15,80.09,16.48,5.12,C0X250
後壁,23.366358,120.362326,-0.03,28.45,-0.15,80.32,14.57,3.58,C0X260
將軍,23.214999,120.13577,0.17,28.55,-0.27,81.91,13.64,3.13,C0X280
北門,23.267772,120.125481,-0.13,28.64,-2.11,82.23,12.48,1.49,C0X290
鹿寮,23.386047,120.477331,0.04,27.57,-0.8,83.77,16.67,2.27,C0X300
柳營,23.253328,120.375253,-0.6,28.19,6.65,82.82,13.0,11.5,C0X320
明里,23.208717,121.262342,0.23,26.45,1.82,90.18,12.07,5.5,C0Z020
佳心,23.34567,121.21316,0.9,23.2,10.05,94.95,14.11,7.08,C0Z050
玉里,23.3215,121.339656,0.81,27.45,7.96,96.36,15.66,8.3,C0Z061
舞鶴,23.46811,121.37407,1.2,26.57,9.4,99.59,17.55,11.96,C0Z070
富源,23.587642,121.378225,0.7,26.63,-0.09,89.09,11.98,4.16,C0Z080
東華,23.89525,121.549833,0.56,27.84,3.3,89.23,4.43,0.31,C0Z100
吉安光華,23.930925,121.595153,0.42,27.32,-2.57,85.05,14.32,10.04,C0Z150
鳳林,23.746114,121.453411,0.31,27.0,-0.4,83.14,8.73,2.02,C0Z160
卓溪,23.3443,121.3029,-0.23,27.14,-0.3,81.18,15.95,9.66,C0Z170
新城,24.040486,121.604878,0.29,27.53,15.79,98.68,10.27,5.56,C0Z180
富世,24.14743,121.6297,0.23,27.49,-2.1,85.68,12.25,6.33,C0Z190
萬榮,23.709219,121.420106,0.57,26.92,-1.99,84.32,11.66,5.44,C0Z200
瑞穗,23.5239,121.39021,0.8,27.4,1.73,87.14,13.09,7.91,C0Z210
和平林道,24.343922,121.656317,0.23,24.5,-2.92,88.59,9.91,6.42,C0Z220
和平,24.30717,121.77007,-0.73,26.75,-1.38,83.27,10.61,3.66,C0Z230
瑞穗林道,23.49284,121.30688,0.5,22.1,2.8,96.55,15.34,6.95,C0Z250
蕃薯寮,23.73835,121.540108,0.61,25.78,-2.82,89.36,8.45,1.04,C0Z270
德武,23.47426,121.41071,0.55,26.9,0.55,87.64,18.16,14.15,C0Z280
赤柯山,23.36893,121.38293,0.65,23.16,-0.71,89.64,17.36,12.83,C0Z290
東里,23.26853,121.30547,0.32,27.21,-3.01,84.59,18.32,14.66,C0Z300
清水斷崖,24.218294,121.689142,-0.24,26.84,-2.38,87.59,8.25,1.22,C0Z310
清水林道,23.27125,121.188272,0.09,24.35,0.45,85.27,13.11,7.74,C0Z320
安通山,23.290728,121.348528,0.12,25.47,4.19,89.45,17.91,14.1,C0Z330
口湖工作站,23.589978,120.180394,0.04,28.26,0.67,77.18,11.43,8.28,12J990
東港工作站,22.479997,120.466058,-0.32,29.03,1.77,70.23,13.16,10.09,12Q970
恆春工作站,22.079678,120.714425,-0.42,28.73,3.97,79.18,12.66,6.7,12Q980
萬大發電廠,23.978875,121.139639,0.64,22.58,-7.17,83.0,9.75,-0.75,42HA10
桃改樹林分場,24.944503,121.386972,-1.03,27.59,1.31,78.73,5.05,0.42,72AI40
桃園農改場,24.950944,121.030583,1.1,28.02,-0.15,82.86,1.5,-6.95,72C440
桃改五峰分場,24.612194,121.157167,1.08,22.63,1.29,89.59,5.18,-4.56,72D080
臺中農改場,24.003028,120.534389,0.57,28.21,4.53,87.55,9.91,0.11,72G600
中改埔里分場,23.903208,120.963364,0.36,24.19,1.88,91.36,14.48,-3.39,72HA00
南改斗南分場,23.634556,120.477333,0.75,28.47,0.71,83.45,7.0,-4.29,72K220
南改義竹分場,23.360694,120.279361,0.18,28.17,-4.22,81.64,13.82,1.94,72M360
南改鹿草分場,23.416869,120.283061,-0.08,28.36,4.09,84.77,10.52,3.48,72M700
臺南農改場,23.0605,120.342194,0.18,28.16,3.82,86.82,16.18,4.79,72N100
七股研究中心,23.081672,120.062894,0.04,29.03,2.17,83.55,18.18,12.77,72N240
高雄農改場,22.709333,120.525889,0.34,28.64,3.78,84.68,16.89,-0.28,72Q010
東改班鳩分場,22.829528,121.077694,0.45,26.44,0.92,84.67,9.1,0.83,72S200
東改賓朗果園,22.813889,121.071278,-6.26,19.3,3.3,93.47,11.32,3.81,72S590
花蓮農改場,23.975222,121.563889,1.01,27.51,-1.0,83.23,13.1,7.48,72T250
花改蘭陽分場,24.686306,121.716583,0.99,27.53,-1.62,84.59,5.73,-1.66,72U480
高改旗南分場,22.857861,120.516667,-0.64,28.1,6.83,83.45,2.44,-15.1,72V140
茶改北部分場,24.955778,121.631222,1.51,25.62,1.15,87.14,5.64,-8.39,82A750
茶改場,24.908472,121.185333,0.84,27.19,-3.84,79.77,3.16,-6.17,82C160
茶改中部分場,23.875611,120.913583,0.13,23.26,1.76,90.93,19.54,2.45,82H320
茶改南部分場,23.762528,120.7405,-0.2,25.34,0.29,88.95,19.69,4.03,82H840
茶改東部分場,22.907694,121.130139,0.15,26.94,3.46,85.73,12.95,4.89,82S580
農工中心,24.985917,121.239833,1.17,28.06,1.83,77.27,2.32,-5.65,A2C560
水試臺西試驗場,23.717231,120.190522,0.23,28.53,2.72,87.59,12.25,5.4,A2K360
臺大雲林校區,23.730628,120.423903,-0.3,28.04,3.34,83.64,10.23,7.54,A2K630
臺南蘭花園區,23.340258,120.379661,-0.16,28.07,4.58,85.91,12.75,10.0,A2N290
畜試北區分所,24.527806,120.770972,2.29,29.38,-4.1,77.86,2.98,-5.89,B2E890
畜產試驗所,23.058972,120.336406,0.02,27.8,1.91,86.32,16.98,1.67,B2N890
畜試南區分所,21.945583,120.802167,-0.09,28.03,-1.58,82.36,14.5,4.46,B2Q810
畜試東區分所,24.669039,121.832561,-0.31,27.61,7.25,90.95,6.68,3.56,B2U990
蓮華池,23.918333,120.885278,-0.71,24.05,5.96,89.64,18.57,1.01,E2H360
林試畢祿溪站,24.226944,121.308522,-0.05,15.69,12.95,91.05,10.0,9.8,E2HA20
四湖植物園,23.676986,120.163433,0.04,28.34,9.86,95.09,14.27,7.65,E2K600
林試六龜中心,22.991703,120.645722,-0.79,26.38,11.49,87.86,21.73,19.54,E2P980
林試太麻里2,22.598,120.99775,-0.42,28.07,3.85,80.68,0.62,-2.05,E2S960
林試太麻里1,22.598922,120.980044,-0.3,27.74,5.35,82.68,13.32,10.09,E2S980
農試所(霧峰),24.031261,120.688133,1.09,28.63,-0.57,82.38,8.95,-2.88,G2F820
農試嘉義分所,23.485028,120.473806,0.05,27.75,1.94,82.5,17.18,7.38,G2L020
農試溪口農場,23.58565,120.408111,0.93,28.43,0.66,82.23,8.0,2.92,G2M350
農試鳳山分所,22.646611,120.356083,-0.0,28.66,2.63,80.86,15.89,1.75,G2P820
苗栗農改場,24.495722,120.829111,0.43,27.75,-0.6,78.59,3.34,-6.67,K2E360
苗改生物防治研究中心,24.422861,120.871833,-0.01,26.15,0.87,82.36,6.77,-3.49,K2E710
種苗改良場,24.225972,120.800917,0.73,26.03,6.05,88.0,8.89,-7.1,K2F750
臺大和社,23.590856,120.888864,1.16,23.87,3.21,89.73,9.95,-1.05,U2HA30
臺大內茅埔,23.689722,120.851117,0.35,25.0,2.3,87.09,7.95,-3.38,U2HA40
臺大竹山,23.756972,120.681556,0.09,27.39,1.86,82.86,14.84,0.88,U2HA50
