站名,緯度,經度,平均溫距平,本年度平均溫,平均溼度距平,本年度日均相對溼度,本年度日均降水量,日均降水量距平,站號
淡水,25.164889,121.448906,0.2,25.16,1.32,80.28,7.75,-0.78,466900
鞍部,25.182586,121.529731,-0.23,19.54,4.46,91.83,9.25,-2.44,466910
臺北,25.037658,121.514853,0.33,26.14,-0.53,74.34,11.81,3.41,466920
竹子湖,25.162078,121.544547,0.03,21.39,2.64,86.93,9.41,-0.13,466930
基隆,25.133314,121.740475,0.4,25.31,1.48,78.31,11.23,1.16,466940
花蓮,23.975128,121.613275,-0.04,25.32,2.27,82.45,8.22,2.1,466990
新屋,25.006725,121.047492,-0.02,25.27,-1.24,82.17,10.09,0.39,467050
宜蘭,24.763975,121.756528,-0.04,24.81,3.01,84.59,5.38,-2.6,467080
金門,24.407306,118.289281,0.91,24.21,3.08,86.31,3.57,-2.4,467110
田中,23.873803,120.581286,-0.43,26.9,-7.48,76.66,3.4,-9.77,467270
澎湖,23.565503,119.563094,0.49,26.49,-1.65,81.24,0.85,-3.35,467350
臺南,22.99328,120.20492,0.59,28.27,-4.07,70.83,1.24,-4.32,467410
永康,23.038386,120.2367,0.93,28.29,-1.11,71.72,1.63,-4.14,467420
嘉義,23.495925,120.432906,0.44,27.03,-0.75,78.1,1.72,-3.86,467480
臺中,24.145736,120.684075,0.34,26.94,-1.68,73.48,5.02,-3.75,467490
阿里山,23.508208,120.813242,-0.16,13.13,-0.14,89.79,6.75,-10.09,467530
大武,22.35572,120.90374,0.49,27.31,-1.39,75.28,1.17,-4.34,467540
玉山,23.48718,120.95943,0.35,6.42,-0.13,81.31,6.22,-6.94,467550
新竹,24.827853,121.014219,0.42,25.95,-0.75,76.52,8.87,0.74,467571
恆春,22.003897,120.746339,0.89,28.38,-1.99,73.55,0.84,-4.31,467590
成功,23.097486,121.373428,0.25,25.79,2.42,83.69,6.85,1.55,467610
日月潭,23.881325,120.90805,0.29,21.47,4.07,88.59,8.11,-4.04,467650
臺東,22.752211,121.154586,0.29,26.84,1.19,78.79,5.17,0.3,467660
馬祖,26.169467,119.923158,1.1,22.33,3.32,90.07,5.43,0.82,467990
山佳,24.974944,121.402008,0.66,26.08,-4.08,76.66,8.9,2.07,C0A520
坪林,24.938183,121.70975,1.24,23.84,-3.47,88.28,11.64,2.32,C0A530
泰平,24.971197,121.823711,0.27,21.75,-0.58,94.41,12.5,1.18,C0A550
桶後,24.848222,121.597992,0.48,22.67,-4.63,88.17,8.95,-1.29,C0A570
石碇,24.993969,121.662917,0.54,23.5,-4.82,85.48,13.48,2.11,C0A640
大坪,25.165914,121.632969,0.95,23.38,-2.52,87.86,14.21,1.2,C0A860
五指山,25.132153,121.608692,1.46,21.86,-3.44,90.9,11.21,1.85,C0A870
雙溪,25.036003,121.864242,0.92,24.66,-3.31,87.03,13.45,3.68,C0A890
三和,25.233153,121.595236,-0.03,23.2,-3.67,88.0,15.19,0.09,C0A931
金山,25.223628,121.643967,0.28,24.35,-4.68,81.79,12.9,2.82,C0A940
鼻頭角,25.129036,121.923372,1.19,25.34,-4.34,84.59,6.41,1.65,C0A950
三貂角,25.007606,122.002058,0.82,24.74,3.67,86.59,9.02,1.01,C0A970
社子,25.109508,121.469681,1.06,26.73,-0.95,79.21,8.48,1.33,C0A980
天母,25.117494,121.537169,0.07,25.7,-4.69,72.17,8.38,1.37,C0A9C0
內湖,25.079422,121.57545,0.87,26.61,-2.38,76.07,10.48,2.99,C0A9F0
大屯山,25.175675,121.522408,1.52,19.99,2.24,96.31,9.83,-0.36,C0AC40
三峽,24.939025,121.369728,1.39,26.86,-3.38,78.24,9.36,0.21,C0AC60
信義,25.037822,121.564597,1.81,27.13,-3.25,78.47,11.69,1.93,C0AC70
文山,25.00235,121.575728,-0.04,24.88,-4.48,79.48,11.69,1.38,C0AC80
新莊,25.051478,121.446756,0.09,26.1,-2.17,73.79,10.12,0.94,C0ACA0
八里,25.150211,121.403947,1.24,26.72,4.6,84.38,8.16,-1.32,C0AD10
蘆洲,25.086594,121.472331,0.72,26.88,-2.29,74.93,8.55,0.1,C0AD30
土城,24.973208,121.445169,0.12,25.26,-1.63,80.28,11.98,3.0,C0AD40
鶯歌,24.951533,121.346294,1.31,26.63,-3.83,80.1,8.81,0.31,C0AD50
汐止,25.066881,121.658778,0.04,25.17,-5.7,79.38,11.48,1.19,C0AH00
永和,25.01125,121.508111,0.91,26.76,-1.16,75.97,11.29,1.95,C0AH10
五分山,25.07125,121.780794,1.53,21.61,-3.28,92.72,12.84,2.96,C0AH30
平等,25.129142,121.577086,-0.21,22.98,-5.52,81.83,8.59,1.3,C0AH40
林口,25.072181,121.38084,1.37,25.45,-3.91,82.42,9.16,2.54,C0AH50
松山,25.04871,121.55042,0.09,26.2,2.89,72.55,10.62,1.89,C0AH70
深坑,25.002703,121.628328,0.82,25.43,-1.35,82.7,12.43,3.94,C0AH80
福山植物園,24.760717,121.58135,-0.37,20.29,1.07,94.14,8.17,-2.74,C0AH90
五股,25.07445,121.42728,-0.25,23.99,-7.52,81.52,9.69,-1.49,C0AI00
屈尺,24.92184,121.54475,0.72,25.73,-0.7,83.34,12.97,2.3,C0AI10
白沙灣,25.283128,121.519058,0.7,24.83,2.85,83.62,7.38,-4.05,C0AI20
三重,25.057328,121.500629,0.05,26.59,-5.66,81.17,8.86,-2.05,C0AI30
石牌,25.115597,121.513139,1.08,27.11,2.03,75.38,7.48,-3.07,C0AI40
七堵,25.094819,121.71713,1.63,25.99,-5.88,82.55,11.28,-2.95,C0B010
基隆嶼,25.19141,121.78391,0.65,24.44,2.06,92.86,8.4,0.33,C0B020
復興,24.820208,121.352281,0.27,22.58,-3.87,82.07,10.28,-0.1,C0C460
桃園,24.992425,121.323172,0.55,25.96,-0.86,73.21,9.38,1.15,C0C480
八德,24.928708,121.283289,0.08,25.27,-6.8,73.9,9.86,0.8,C0C490
觀音,25.027072,121.153317,-0.07,24.43,6.12,87.28,11.1,2.03,C0C590
蘆竹,25.084275,121.265767,0.2,25.5,-2.48,79.41,8.52,-0.04,C0C620
大溪,24.882853,121.265547,0.42,24.38,-0.88,77.69,10.0,2.21,C0C630
平鎮,24.897503,121.214636,0.67,24.55,-2.12,78.45,11.9,4.05,C0C650
楊梅,24.912375,121.143047,-0.01,24.93,-1.0,77.31,10.43,1.07,C0C660
龍潭,24.870056,121.221389,0.31,24.37,-2.07,78.45,9.88,0.42,C0C670
龜山,25.02846,121.38656,-0.76,23.31,-3.5,76.83,9.6,1.43,C0C680
中壢,24.977661,121.256375,0.05,25.26,-3.27,73.86,7.91,-0.9,C0C700
大溪永福,24.892936,121.324975,1.06,24.62,-4.9,81.86,10.67,-2.33,C0C710
梅花,24.678347,121.208558,-0.05,22.13,-0.01,88.31,9.52,-0.35,C0D360
峨眉,24.6905,121.017189,-0.21,24.56,0.65,88.62,9.28,-0.5,C0D430
打鐵坑,24.849664,121.150789,-0.03,23.28,-2.97,83.1,7.41,-1.08,C0D480
橫山,24.71116,121.11693,-0.27,23.39,9.71,95.59,7.04,-2.39,C0D540
雪霸,24.526972,121.11605,-0.07,16.11,-2.51,83.55,15.1,4.86,C0D550
竹東,24.767147,121.057881,1.26,25.71,-15.3,61.28,8.43,0.66,C0D560
寶山,24.735006,121.025192,0.07,23.96,0.79,86.21,9.81,1.05,C0D580
新豐,24.87068,120.97721,0.14,24.4,4.79,87.59,10.76,2.39,C0D590
湖口,24.904794,121.043628,0.12,25.27,-6.68,76.07,9.78,1.27,C0D650
新竹市東區,24.798681,120.986942,-0.21,25.31,-1.16,76.31,9.24,0.75,C0D660
竹南,24.708978,120.888897,1.17,26.4,1.73,82.21,5.23,-2.45,C0E420
南庄,24.601775,121.000214,-0.15,23.53,1.27,86.72,12.17,2.82,C0E430
明德,24.583486,120.885411,0.38,25.58,-3.64,80.83,7.62,-1.52,C0E550
通霄,24.471892,120.704622,-0.15,25.44,-1.67,82.93,6.86,-1.82,C0E590
馬都安,24.451272,120.930192,0.2,21.78,2.91,84.9,9.17,0.69,C0E610
頭份,24.688247,120.912206,1.12,26.87,-0.28,75.93,8.21,0.15,C0E730
造橋,24.637056,120.864778,-0.41,25.48,-2.82,81.31,7.36,-2.35,C0E740
苗栗,24.564569,120.824575,-0.27,25.98,-5.28,72.38,7.41,-2.14,C0E750
銅鑼,24.489681,120.790853,-0.23,25.32,-4.81,78.24,7.78,-1.22,C0E780
西湖,24.562947,120.7485,-0.14,25.05,-2.41,85.52,3.68,-5.37,C0E810
獅潭,24.539133,120.920042,-0.48,24.22,-3.98,82.57,11.48,0.85,C0E820
苑裡,24.439714,120.653053,-0.3,25.79,-3.33,78.17,5.31,-3.34,C0E830
大河,24.618069,120.948578,-1.92,23.06,-1.8,83.17,8.84,0.32,C0E850
高鐵苗栗,24.60725,120.826094,-0.35,25.55,5.04,84.65,6.95,0.4,C0E870
石岡,24.276061,120.777644,0.43,25.35,3.06,87.17,7.38,-1.91,C0F0B0
中坑,24.248517,120.903319,-0.91,20.34,-4.93,87.41,13.28,-2.8,C0F0C0
審馬陣,24.381675,121.4203,-0.28,9.6,-6.51,79.1,6.43,-0.51,C0F0D0
東勢,24.246428,120.833047,1.12,25.9,-5.4,76.55,8.83,-5.46,C0F850
大坑,24.173142,120.722289,0.95,27.47,-2.11,75.41,5.38,-6.57,C0F970
神岡,24.272481,120.658314,-0.07,25.44,-8.1,76.86,5.78,-3.44,C0F9I0
大安,24.345061,120.588025,-0.45,25.67,-3.47,80.93,4.1,-3.57,C0F9K0
后里,24.310436,120.729725,0.39,26.06,-6.66,77.17,5.66,-4.7,C0F9L0
豐原,24.254322,120.720692,1.34,27.27,-7.25,73.24,7.95,-3.77,C0F9M0
大里,24.092464,120.701378,-0.02,27.39,4.53,80.62,7.57,-3.48,C0F9N0
潭子,24.213106,120.703933,0.17,27.0,0.75,78.93,5.71,-5.98,C0F9O0
清水,24.312297,120.562242,-0.26,26.19,-5.1,79.24,3.6,-3.81,C0F9P0
外埔,24.347817,120.705686,-0.13,25.41,-4.11,82.31,5.02,-4.1,C0F9Q0
龍井,24.184536,120.528972,0.04,26.6,-10.57,76.93,2.62,-5.56,C0F9R0
烏日,24.107058,120.624103,-0.01,26.93,-4.55,72.76,4.72,-4.08,C0F9S0
西屯,24.179494,120.641275,-0.03,26.77,-5.9,72.38,3.14,-7.32,C0F9T0
南屯,24.137006,120.637969,-0.21,27.05,-4.36,72.31,4.5,-5.34,C0F9U0
新社,24.200172,120.815806,0.28,24.16,-5.97,79.62,10.5,-5.16,C0F9V0
大雅(中科園區),24.21528,120.62445,-0.35,25.66,-1.52,78.1,5.1,-1.02,C0F9X0
桃山,24.432739,121.303808,-0.07,9.04,-4.72,78.34,8.64,-3.17,C0F9Y0
雪山東峰,24.388792,121.268675,-0.18,9.73,-4.83,77.52,9.81,0.18,C0F9Z0
芬園,24.015678,120.6213,-0.53,25.49,3.08,86.41,7.67,-1.19,C0G620
員林,23.946503,120.585597,2.18,28.88,-9.08,74.55,4.9,-1.48,C0G650
溪湖,23.94835,120.479122,0.36,26.93,2.04,89.67,7.81,0.39,C0G660
溪州,23.851589,120.499093,0.24,26.65,-8.14,74.14,2.5,-2.39,C0G720
二林,23.903325,120.376081,0.14,26.33,-2.94,85.31,5.14,1.25,C0G730
大城,23.852487,120.320935,0.17,26.36,-2.25,79.45,3.33,-0.92,C0G740
福興,24.041289,120.437669,0.12,27.24,-7.84,75.59,2.72,-4.65,C0G770
秀水,24.03405,120.503869,0.46,27.32,-4.59,79.03,3.78,-3.14,C0G780
埔鹽,24.000394,120.431683,1.6,27.94,-4.81,82.07,2.41,-4.43,C0G800
埔心,23.947633,120.525456,2.22,29.24,-10.32,73.21,9.97,1.5,C0G810
田尾,23.901669,120.509389,0.42,27.23,-1.6,83.62,3.5,-4.96,C0G820
埤頭,23.866003,120.452806,0.19,26.66,-2.94,86.62,2.5,-5.69,C0G830
社頭,23.897647,120.5862,0.51,27.87,2.47,80.1,3.41,-5.23,C0G860
二水,23.810742,120.6173,1.77,28.6,-4.25,78.97,3.52,-5.01,C0G880
伸港,24.148933,120.484403,-0.18,26.46,-6.99,77.07,2.03,-5.51,C0G890
線西,24.143358,120.443536,-0.92,26.51,-5.02,78.48,1.83,-4.91,C0G900
花壇,24.032076,120.549461,0.94,28.31,2.6,83.07,4.69,-2.84,C0G910
埔里,23.972169,120.952425,0.1,24.86,-1.94,81.45,7.64,-4.86,C0H890
草屯,23.973672,120.68085,-0.12,26.53,-4.02,74.97,6.28,-2.95,C0H960
昆陽,24.121322,121.273642,0.02,9.28,-4.8,84.17,10.17,-1.38,C0H990
神木村,23.532742,120.843667,0.34,18.2,-2.04,89.38,7.1,-5.79,C0H9A0
合歡山,24.143442,121.272547,0.8,8.69,-3.24,86.28,16.03,-5.99,C0H9C0
廬山,24.033311,121.181808,0.31,18.59,-3.51,82.86,11.07,-2.62,C0I010
信義,23.689694,120.851036,-0.04,23.78,-3.42,82.72,6.62,-3.77,C0I080
竹山,23.761225,120.688156,0.48,26.17,-4.22,81.1,3.33,-4.22,C0I110
水里,23.812553,120.849792,0.16,25.3,-4.45,78.07,6.76,-3.71,C0I360
魚池,23.895703,120.94135,0.19,23.48,-5.93,81.0,8.55,-3.86,C0I370
集集,23.828206,120.801467,-0.12,25.64,-3.08,80.66,9.12,0.31,C0I380
仁愛,24.022122,121.132206,0.29,20.47,-6.34,82.48,9.91,-6.72,C0I390
名間,23.837053,120.701447,-0.32,25.68,-0.98,79.48,3.45,-2.91,C0I410
國姓,24.037803,120.855072,-0.2,25.26,-3.81,80.93,10.57,-1.66,C0I420
南投,23.911469,120.687331,-0.23,26.78,1.73,79.41,3.31,-3.65,C0I460
梅峰,24.085272,121.173572,0.04,14.6,-2.61,88.45,11.17,-6.29,C0I480
萬大林道,23.928228,121.091411,0.29,18.28,-7.51,83.45,15.98,1.17,C0I490
小奇萊,24.131764,121.295717,-0.27,9.2,-3.07,85.48,14.93,-8.58,C0I530
崙背,23.75555,120.318925,-0.17,26.08,-3.73,81.17,2.16,-2.26,C0K250
四湖,23.630414,120.227125,0.69,27.08,-6.05,77.24,1.45,-3.14,C0K280
宜梧,23.536281,120.169329,0.47,27.03,-5.14,78.0,0.9,-4.56,C0K291
虎尾,23.719183,120.442036,0.63,27.29,-0.09,79.07,1.86,-3.24,C0K330
土庫,23.679029,120.395574,0.29,26.81,-8.28,75.03,1.07,-2.93,C0K390
斗六,23.720583,120.541127,0.1,26.84,-7.33,73.79,2.03,-3.21,C0K400
北港,23.573957,120.292802,0.33,26.98,-7.34,74.97,1.16,-3.67,C0K410
西螺,23.800407,120.467394,0.19,26.86,-6.19,76.1,1.72,-4.3,C0K420
褒忠,23.690938,120.303634,0.32,26.59,-6.61,77.66,1.52,-3.77,C0K430
二崙,23.772797,120.408944,0.13,26.53,-1.76,81.66,1.5,-2.47,C0K440
大埤,23.646074,120.431537,0.28,26.98,-6.38,75.69,1.38,-2.49,C0K450
斗南,23.678734,120.478359,0.28,26.93,-2.87,75.9,1.71,-2.66,C0K460
林內,23.748675,120.609642,0.08,26.25,-5.63,78.03,3.26,-2.74,C0K470
莿桐,23.761192,120.502372,0.1,26.51,-7.05,76.38,2.05,-3.25,C0K480
元長,23.64981,120.315024,0.35,26.99,-2.77,77.14,1.24,-2.85,C0K500
水林,23.572924,120.24597,0.54,27.26,-4.81,76.52,1.16,-3.19,C0K510
臺西,23.701547,120.197559,0.06,26.47,-2.02,79.55,1.6,-2.9,C0K530
蔦松,23.514319,120.229736,0.32,27.14,-3.62,78.17,1.17,-3.15,C0K550
棋山,23.68645,120.603417,0.17,26.53,-0.77,80.79,2.16,-3.83,C0K560
高鐵雲林,23.737456,120.417944,-0.21,26.51,-5.67,79.24,1.28,-5.4,C0K580
東後寮,23.369908,120.248065,0.37,26.93,-4.32,79.17,1.55,-3.01,C0M520
奮起湖,23.493903,120.699253,0.47,19.23,-0.24,92.21,6.12,-9.63,C0M530
中埔,23.42538,120.5229,0.24,26.63,-6.43,73.76,1.78,-4.5,C0M640
朴子,23.43463,120.23902,-0.27,26.36,-2.09,80.1,2.66,-1.45,C0M650
溪口,23.604131,120.403569,0.3,26.75,-7.0,76.38,1.72,-3.27,C0M660
大林,23.600616,120.45841,0.33,27.32,-5.56,72.93,2.02,-2.55,C0M670
太保,23.455062,120.331455,0.05,27.03,-6.73,75.34,4.05,-0.62,C0M680
水上,23.419734,120.388909,0.26,26.95,-4.45,76.9,2.19,-2.96,C0M690
竹崎,23.526178,120.555508,0.26,26.42,-4.85,78.14,2.85,-4.7,C0M700
東石,23.458927,120.15385,0.26,27.11,-7.68,75.14,1.07,-4.21,C0M710
番路,23.464657,120.554156,0.4,26.27,-3.78,76.9,1.48,-6.32,C0M720
嘉義市東區,23.457673,120.460531,0.36,27.93,-2.21,73.86,2.36,-3.37,C0M730
六腳,23.492871,120.290625,0.29,27.01,-3.19,76.03,3.21,-2.28,C0M740
布袋,23.380878,120.167789,0.36,27.31,-7.32,74.52,1.53,-2.61,C0M750
民雄,23.551754,120.428457,0.19,27.24,-5.78,74.28,1.95,-2.28,C0M760
嘉義梅山,23.585398,120.555587,0.26,26.56,-4.89,77.07,1.98,-4.53,C0M770
鹿草,23.41134,120.30835,0.51,27.42,-5.07,75.48,2.93,-2.36,C0M780
新港,23.553269,120.345728,0.2,27.16,-4.93,74.83,1.86,-2.26,C0M790
茶山,23.299075,120.664767,0.54,25.15,-4.69,79.62,5.43,-4.96,C0M800
里佳,23.389125,120.716647,0.33,19.67,-4.17,85.14,9.07,-6.47,C0M810
達邦,23.453994,120.749517,0.48,21.81,-1.11,82.79,6.5,-5.91,C0M820
表湖,23.24186,120.64166,0.17,23.47,-5.57,82.1,2.66,-11.89,C0M850
新美,23.338017,120.683169,0.63,24.69,-1.54,79.76,6.53,-12.97,C0M860
北寮,23.079561,120.495008,0.74,27.28,0.45,83.41,2.12,-6.71,C0O830
王爺宮,23.222064,120.40085,2.67,29.0,-10.7,73.34,1.14,-6.03,C0O840
大內,23.11885,120.36083,1.43,28.86,-2.14,80.69,0.95,-6.14,C0O860
善化,23.112883,120.297219,0.86,27.7,0.99,85.45,1.05,-4.26,C0O900
崎頂,22.959547,120.369317,1.61,28.11,-4.32,78.48,1.93,-5.99,C0O960
虎頭埤,23.021375,120.347878,0.57,27.3,-5.98,76.79,1.64,-5.5,C0O970
新市,23.061614,120.298197,1.34,28.61,-8.75,76.0,1.69,-5.26,C0O980
媽廟,22.99175,120.293525,0.42,27.65,-13.01,70.14,1.69,-6.0,C0O990
尾寮山,22.833111,120.683889,1.29,22.09,-0.91,90.59,12.07,-5.14,C0R100
阿禮,22.742908,120.743678,0.2,21.47,-6.0,82.66,12.31,-1.6,C0R130
瑪家,22.682903,120.686639,0.17,23.17,4.62,91.28,3.95,-11.69,C0R140
三地門,22.709889,120.639944,1.52,28.71,-8.76,69.29,2.78,-8.36,C0R150
鹽埔,22.739558,120.530778,0.84,28.11,-5.23,81.48,3.17,-5.37,C0R160
赤山,22.592333,120.614306,1.19,28.55,-2.47,80.86,1.07,-9.05,C0R190
潮州,22.534361,120.54,1.56,28.93,-8.0,72.0,1.05,-6.74,C0R220
來義,22.527306,120.625111,0.65,27.48,-1.8,79.03,0.29,-10.52,C0R240
春日,22.370361,120.628306,-0.3,27.11,-2.76,76.38,0.57,-7.3,C0R260
琉球嶼,22.332244,120.362236,1.42,28.69,-11.99,72.59,0.6,-4.7,C0R270
車城,22.0744,120.716247,0.45,28.29,-6.0,75.86,0.6,-10.66,C0R320
牡丹,22.130036,120.792639,0.16,26.11,0.73,85.86,0.34,-15.87,C0R341
貓鼻頭,21.921774,120.7358,1.02,27.97,-9.27,76.9,0.98,-3.6,C0R350
大漢山,22.405264,120.753181,-0.1,17.19,-0.84,94.66,2.64,-41.46,C0R440
高樹,22.826389,120.600806,0.68,28.2,-4.97,72.24,2.74,-6.63,C0R470
長治,22.693128,120.542622,1.67,29.36,-9.69,71.9,3.03,-5.29,C0R480
九如,22.7405,120.490503,1.47,29.06,-8.65,74.03,2.07,-6.17,C0R490
崁頂,22.514781,120.506914,0.73,28.33,-7.75,75.59,0.36,-8.04,C0R520
佳冬,22.419456,120.552375,0.7,28.25,-5.58,76.24,0.21,-7.65,C0R540
新埤,22.467947,120.582894,0.85,28.24,-11.44,71.52,0.26,-7.86,C0R550
新園,22.5434,120.461558,1.79,29.36,-12.45,70.34,2.48,-6.38,C0R560
麟洛,22.65078,120.52719,1.97,29.74,-3.56,75.97,2.03,-5.55,C0R570
南州,22.48591,120.50274,0.6,28.0,-2.19,79.45,0.86,-7.3,C0R580
里港,22.77919,120.49459,0.87,28.31,-3.73,77.0,1.93,-6.32,C0R590
舊泰武,22.588194,120.664944,0.77,23.73,-4.24,83.03,1.0,-14.75,C0R600
墾雷,21.900836,120.855269,0.45,27.44,3.72,86.9,0.78,-3.5,C0R620
東港,22.46247,120.44074,1.24,28.47,-11.98,74.48,0.76,-14.41,C0R640
竹田,22.58486,120.54344,1.29,28.62,-13.12,74.34,1.47,-15.66,C0R650
枋寮,22.367722,120.590647,0.59,28.01,-1.62,81.45,0.64,-21.88,C0R660
楓港,22.190131,120.692156,-0.04,27.62,-9.14,71.9,0.21,-24.99,C0R670
佳樂水,21.993578,120.861633,-0.01,27.65,-4.52,78.52,0.83,-7.21,C0R680
墾丁,21.966756,120.810269,0.52,26.17,-7.37,83.0,0.67,-8.16,C0R690
枋山,22.246844,120.661086,0.84,28.25,-8.3,72.97,0.12,-25.1,C0R700
龍磐,21.931672,120.838942,0.25,27.07,-5.73,82.24,0.52,-6.68,C0R710
旭海,22.205403,120.887614,0.02,25.93,-5.44,81.16,2.06,-14.09,C0R720
大坪頂,22.024633,120.69355,0.34,27.14,-0.24,84.86,0.69,-6.14,C0R730
四林格山,22.076989,120.802439,0.16,23.7,-5.56,90.31,1.69,-10.38,C0R750
南仁湖,22.084681,120.863353,-0.34,24.56,3.5,93.07,2.95,-9.79,C0R760
保力,22.071122,120.764111,0.49,26.93,-5.7,79.9,0.78,-9.69,C0R770
滿州,22.024403,120.839892,-0.04,27.03,-4.48,78.62,0.83,-7.26,C0R780
九棚,22.14195,120.889281,0.1,27.1,-3.97,78.0,1.88,-11.82,C0R790
丹路,22.204481,120.750989,0.7,27.39,-7.59,75.17,0.67,-27.26,C0R800
內獅,22.305064,120.642986,0.91,28.44,10.29,90.69,0.12,-24.88,C0R810
白鷺,22.454275,120.666219,0.89,25.3,-5.59,79.24,0.48,-28.47,C0R820
高士,22.121825,120.836781,-0.15,24.58,-2.46,86.14,1.64,-12.61,C0R830
牡丹池山,22.168389,120.841225,-0.29,23.55,-1.57,89.9,0.97,-17.22,C0R840
下馬,23.150427,121.070312,-0.13,22.21,0.6,86.74,2.24,-1.51,C0S660
太麻里,22.60902,120.98533,0.66,23.28,-0.25,90.38,1.48,-3.54,C0S690
知本,22.684866,121.005642,0.77,23.53,-0.5,90.93,3.33,-3.48,C0S700
鹿野,22.917711,121.122994,0.81,23.99,-0.79,88.41,1.02,-4.13,C0S710
綠島,22.6672,121.47533,0.93,26.43,-8.6,82.97,5.33,0.12,C0S730
池上,23.119628,121.209469,0.4,24.31,-1.34,87.93,1.53,-2.24,C0S740
向陽,23.248397,120.986133,1.0,14.9,1.02,87.22,5.72,-4.5,C0S750
大溪山,22.478475,120.943325,0.46,23.89,-2.04,88.93,2.19,-4.05,C0S770
金崙,22.538122,120.966875,0.81,26.29,-4.69,80.34,0.48,-4.65,C0S790
東河,22.972672,121.303986,-0.18,26.2,-3.21,85.76,4.55,-0.51,C0S810
長濱,23.286817,121.411975,0.45,24.96,-5.53,85.07,3.53,-1.89,C0S830
南田,22.279725,120.889208,0.84,27.48,-11.22,74.52,1.88,-3.97,C0S840
關山,23.0395,121.175017,-0.09,25.06,-1.18,86.48,2.41,-1.6,C0S890
蘭嶼高中,22.04909,121.51214,0.55,27.54,4.59,85.14,6.48,-0.32,C0S900
蘭嶼燈塔,22.081197,121.503117,0.78,26.11,5.01,90.38,3.24,-3.5,C0S910
金峰嘉蘭,22.594789,120.960825,-0.27,26.25,-2.04,81.66,0.83,-5.89,C0S920
延平,22.902581,121.084058,-0.44,24.87,-0.78,83.72,0.88,-4.58,C0S930
石寧山,23.223772,121.406639,-0.03,25.66,-4.12,86.45,5.95,-0.06,C0S940
七塊厝,22.954453,121.229922,0.52,24.7,-9.54,82.39,14.63,8.72,C0S950
香蘭,22.587569,120.993375,0.13,27.02,1.65,83.48,0.88,-5.99,C0S960
加津林,22.416211,120.926942,0.03,26.88,-3.29,78.45,2.36,-7.06,C0S970
勝林山,22.430439,120.8938,-1.2,21.21,0.24,91.34,1.83,-9.27,C0S980
山豬窟,22.318619,120.857372,-0.29,24.84,-3.56,82.21,2.1,-10.44,C0S990
歷坵,22.520969,120.89185,0.01,23.99,-3.59,87.28,0.78,-8.36,C0SA00
檳榔四格山,22.810031,121.109308,-0.59,23.78,1.01,91.41,1.71,-6.27,C0SA10
金崙山,22.567419,120.959667,-0.31,21.7,-1.75,90.52,1.72,-6.38,C0SA20
都歷,23.020333,121.323642,0.14,25.83,-8.27,78.7,1.6,-4.44,C0SA30
瑞和,22.974361,121.156697,-0.45,25.03,-3.6,82.9,2.07,-3.35,C0SA40
知本（水試所）,22.702394,121.082761,-0.13,26.59,-2.25,82.59,2.84,-4.44,C0SA60
土坂,22.453108,120.887572,0.51,26.35,-2.2,81.83,0.74,-11.61,C0SA80
達仁林場,22.264347,120.823972,-0.03,24.16,-2.39,85.31,2.52,-23.07,C0SA90
大禹嶺,24.186117,121.316086,-0.13,11.64,-4.72,80.45,9.09,0.61,C0T790
天祥,24.179597,121.495639,0.26,22.16,0.53,84.83,3.09,-1.22,C0T820
鯉魚潭,23.935639,121.508944,-0.27,23.26,0.76,91.38,6.74,-0.28,C0T870
西林,23.8119,121.441458,0.4,24.38,5.62,87.86,10.16,4.14,C0T900
光復,23.660694,121.424964,0.59,24.9,-2.52,86.9,13.6,7.14,C0T960
月眉山,23.809928,121.539828,0.52,22.53,-1.47,93.17,2.69,-3.16,C0T9A0
水源,23.991861,121.537169,0.32,21.93,-1.13,91.24,11.36,3.03,C0T9B0
和中,24.26676,121.74103,-0.14,24.7,9.57,99.72,19.78,11.27,C0T9D0
大坑,23.880628,121.581981,0.33,22.85,1.86,92.76,8.21,0.74,C0T9E0
水璉,23.797131,121.542514,-0.08,24.06,1.78,90.28,6.86,0.59,C0T9F0
鳳林山,23.735269,121.420131,-0.6,21.94,-1.3,92.86,12.1,4.07,C0T9G0
加路蘭山,23.682947,121.5274,0.53,21.91,4.31,98.66,8.55,0.05,C0T9H0
豐濱,23.583897,121.514806,0.59,24.46,-5.38,86.17,14.52,5.84,C0T9I0
靜浦,23.455167,121.495028,0.39,25.04,-0.77,90.79,11.98,5.71,C0T9M0
富里,23.171639,121.249378,0.06,25.04,10.77,98.74,3.8,-2.99,C0T9N0
雙連埤,24.753033,121.641303,-0.4,20.87,-2.43,92.45,8.22,-2.77,C0U520
礁溪,24.817539,121.765608,0.2,24.74,-4.1,83.41,6.33,-3.25,C0U600
玉蘭,24.675286,121.587061,0.43,22.6,-3.88,83.72,8.62,-1.15,C0U650
太平山,24.505486,121.525656,0.03,15.41,-0.67,92.38,7.47,-0.84,C0U710
南山,24.43742,121.38167,-0.37,18.89,-6.41,87.1,5.14,-1.07,C0U720
龜山島,24.841667,121.953133,-0.56,22.08,-4.36,89.83,6.16,1.61,C0U750
東澳,24.52196,121.83318,-0.3,24.54,-2.42,86.38,10.07,0.54,C0U760
南澳,24.44935,121.81022,-0.38,24.73,-0.09,86.07,4.83,-2.37,C0U770
五結,24.68637,121.79794,-0.33,24.58,-1.31,84.24,4.57,-2.85,C0U780
頭城,24.85323,121.8308,-0.23,24.88,-0.67,87.21,6.09,-1.62,C0U860
大礁溪,24.791042,121.675047,-0.18,22.11,2.55,91.55,7.88,-1.11,C0U870
三星,24.66812,121.65302,-0.31,24.04,-7.36,82.24,5.5,-1.66,C0U890
內城,24.71813,121.68766,0.19,24.67,-3.92,84.86,5.28,-1.26,C0U900
冬山,24.63373,121.7937,0.03,25.0,-1.54,80.79,6.59,1.32,C0U910
羅東,24.68184,121.74934,0.25,25.0,-1.37,84.07,6.62,0.19,C0U940
鶯子嶺,24.89754,121.79244,0.04,18.91,-7.44,89.86,11.07,-0.0,C0U950
翠峰湖,24.510856,121.608044,-0.26,14.78,0.72,94.52,8.91,-0.26,C0U960
大福,24.80064,121.81389,-0.56,24.31,0.68,84.79,5.12,-2.12,C0U970
坪林石牌,24.86478,121.77396,-0.03,21.23,2.23,93.97,9.91,0.35,C0U980
員山,24.74435,121.72247,-0.19,24.69,1.03,85.97,5.41,-1.24,C0U990
土場,24.576533,121.495333,-0.53,22.77,-3.1,85.24,5.24,-1.37,C0UA00
鴛鴦湖,24.590269,121.412228,-0.34,15.74,2.77,95.72,9.59,0.14,C0UA10
白嶺,24.527819,121.519031,-0.41,17.7,-1.57,93.48,7.6,0.54,C0UA30
西德山,24.560647,121.752608,0.03,18.97,-1.68,93.28,10.4,1.9,C0UA40
西帽山,24.555361,121.802628,0.03,20.41,-6.63,87.86,17.6,6.93,C0UA50
樟樹山,24.41393,121.78325,-0.15,21.84,-0.08,88.68,7.62,2.88,C0UA60
桃源谷,24.962606,121.888875,0.08,21.51,-0.45,94.72,12.33,2.41,C0UA70
復興,23.222403,120.806089,0.9,23.72,-2.63,79.59,4.74,-12.02,C0V210
溪埔,22.738578,120.446797,0.84,28.16,-2.29,77.41,2.07,-5.96,C0V350
內門,22.975481,120.466769,1.65,28.08,-4.61,77.72,1.57,-6.16,C0V360
古亭坑,22.893178,120.401947,1.03,27.61,-6.45,78.28,2.0,-5.23,C0V370
阿公店,22.804194,120.355528,0.45,27.5,-7.13,76.21,1.98,-6.18,C0V400
鳳山,22.646653,120.356122,0.39,28.27,2.18,78.28,1.53,-6.73,C0V440
鳳森,22.545064,120.392592,0.84,28.11,-8.1,74.93,3.69,-5.28,C0V450
新興,22.627422,120.298803,1.1,28.81,-8.41,71.07,1.31,-7.1,C0V490
阿蓮,22.883208,120.327508,1.22,28.73,-7.88,73.67,1.59,-6.01,C0V530
梓官,22.760558,120.267211,0.46,28.11,-6.15,74.38,2.09,-5.86,C0V610
永安,22.82315,120.236856,0.37,27.76,-7.61,75.72,3.28,-5.21,C0V620
茄萣,22.906642,120.182608,0.74,28.2,-2.14,76.72,2.76,-4.85,C0V630
湖內,22.887139,120.2445,0.05,27.51,-6.52,74.38,4.48,-3.68,C0V640
彌陀,22.783806,120.246361,1.02,28.48,-6.02,76.72,2.62,-5.27,C0V650
岡山,22.797078,120.294958,1.06,29.04,-7.55,71.31,2.97,-5.72,C0V660
仁武,22.701083,120.347722,1.01,29.05,-6.86,72.45,1.26,-6.34,C0V680
鼓山,22.623325,120.275575,0.34,28.08,-7.88,73.69,1.79,-5.7,C0V690
三民,22.645017,120.311233,0.51,28.81,-2.54,71.38,1.53,-6.54,C0V700
苓雅,22.622742,120.330669,1.27,29.32,0.77,74.34,0.02,-7.66,C0V710
林園,22.507747,120.394511,1.23,29.6,-3.23,73.21,2.72,-5.34,C0V720
大寮,22.605614,120.395717,0.64,28.69,-3.23,74.03,1.74,-6.49,C0V730
旗山,22.888614,120.483597,1.86,29.09,-6.19,72.21,1.29,-7.25,C0V740
路竹,22.854997,120.259439,1.14,28.85,-7.13,71.76,3.43,-5.06,C0V750
橋頭,22.757806,120.30575,1.0,29.04,-9.49,69.93,2.03,-6.08,C0V760
大社,22.730306,120.346639,0.7,28.71,-5.64,71.88,1.71,-6.36,C0V770
萬山,22.905944,120.688056,1.1,26.03,-3.51,77.28,8.19,-4.23,C0V790
六龜,22.997889,120.633583,0.96,27.14,-1.79,77.38,3.28,-9.11,C0V800
左營,22.67491,120.28491,0.33,27.92,-6.32,74.31,1.24,-2.82,C0V810
小林,23.148408,120.63325,1.12,25.58,-3.72,80.93,4.72,-13.97,C0V820
花嶼,23.40007,119.32276,0.82,25.8,-2.58,84.48,0.6,-2.16,C0W130
金沙,24.488292,118.408778,-1.81,22.5,8.89,90.0,10.0,6.07,C0W140
金寧,24.457703,118.328989,0.06,25.19,-4.03,78.17,0.86,-3.84,C0W150
東河,23.296598,120.385608,0.31,27.4,-8.38,72.97,1.0,-3.8,C0X050
下營,23.22695,120.256261,0.57,27.54,-7.15,74.17,1.28,-2.63,C0X060
佳里,23.173039,120.145086,0.62,27.69,-3.26,78.14,1.66,-2.85,C0X080
臺南市北區,23.010394,120.194228,0.55,28.38,-3.61,73.62,1.47,-5.41,C0X100
臺南市南區,22.961189,120.188378,0.59,28.37,-4.74,75.83,1.31,-5.87,C0X110
麻豆,23.183289,120.248611,1.16,28.59,-3.63,77.59,1.17,-5.01,C0X120
官田,23.193217,120.315422,0.8,28.17,-0.89,79.62,1.03,-6.1,C0X130
西港,23.125608,120.203108,0.3,27.88,-7.3,74.76,0.9,-5.34,C0X140
安定,23.102614,120.227839,0.86,28.18,-4.05,78.48,1.31,-5.13,C0X150
仁德,22.968258,120.257689,0.96,28.54,-3.08,76.76,1.64,-6.13,C0X160
關廟,22.963017,120.327797,0.03,27.8,-0.04,76.82,1.47,-7.05,C0X170
山上,23.0757,120.363253,0.86,27.86,-3.88,78.45,2.17,-5.08,C0X180
安平,22.993161,120.152181,0.49,28.07,-14.56,68.17,1.67,-5.07,C0X190
左鎮,23.056758,120.408522,1.59,28.02,-6.05,78.76,1.79,-5.38,C0X200
白河,23.347466,120.414427,0.24,27.17,-3.99,75.83,2.24,-2.3,C0X210
學甲,23.230367,120.182187,0.6,27.48,-3.27,75.62,0.78,-4.98,C0X220
鹽水,23.272621,120.247641,0.35,27.17,-3.47,76.97,0.71,-3.22,C0X230
關子嶺,23.331169,120.508025,0.17,24.87,0.44,85.86,2.9,-5.35,C0X240
新營,23.310689,120.316681,0.38,27.69,-4.14,73.83,0.91,-4.57,C0X250
後壁,23.366358,120.362326,0.39,27.24,-6.13,75.1,1.12,-4.96,C0X260
將軍,23.214999,120.13577,0.3,27.18,-4.54,75.97,1.09,-3.15,C0X280
北門,23.267772,120.125481,0.31,27.24,-5.28,76.93,0.95,-3.15,C0X290
鹿寮,23.386047,120.477331,0.12,26.47,-4.13,79.41,4.19,-1.4,C0X300
柳營,23.253328,120.375253,0.34,27.59,-5.11,74.83,0.71,-11.09,C0X320
明里,23.208717,121.262342,0.35,24.3,-0.34,90.24,3.36,-1.97,C0Z020
佳心,23.34567,121.21316,0.26,20.83,6.84,94.55,3.4,-1.29,C0Z050
玉里,23.3215,121.339656,0.89,25.3,4.59,91.66,2.91,-2.33,C0Z061
舞鶴,23.46811,121.37407,0.66,24.1,8.77,99.31,3.78,-0.99,C0Z070
富源,23.587642,121.378225,0.47,24.07,-0.66,90.1,10.41,3.67,C0Z080
東華,23.89525,121.549833,0.23,25.18,0.72,89.62,3.14,-1.82,C0Z100
吉安光華,23.930925,121.595153,0.11,24.94,-8.66,79.59,6.59,2.23,C0Z150
鳳林,23.746114,121.453411,-0.17,24.4,-2.25,83.48,9.36,4.2,C0Z160
卓溪,23.3443,121.3029,-0.36,24.98,-3.27,79.55,3.43,-1.43,C0Z170
新城,24.040486,121.604878,-0.06,24.94,13.73,97.76,12.17,7.27,C0Z180
富世,24.14743,121.6297,0.03,25.0,-3.15,84.38,11.22,6.57,C0Z190
萬榮,23.709219,121.420106,0.1,24.33,-3.4,84.9,10.76,6.21,C0Z200
瑞穗,23.5239,121.39021,0.33,24.84,0.88,87.69,6.29,1.5,C0Z210
和平林道,24.343922,121.656317,-0.4,21.6,-3.88,88.66,3.65,-0.8,C0Z220
和平,24.30717,121.77007,-0.88,24.23,-2.88,80.59,11.4,7.82,C0Z230
瑞穗林道,23.49284,121.30688,-0.18,19.39,2.51,97.45,9.9,1.59,C0Z250
蕃薯寮,23.73835,121.540108,0.11,23.12,-3.5,89.59,9.57,5.13,C0Z270
德武,23.47426,121.41071,0.02,24.37,-0.03,88.45,3.19,-0.54,C0Z280
赤柯山,23.36893,121.38293,0.17,20.59,-0.95,91.31,4.28,-0.87,C0Z290
東里,23.26853,121.30547,0.19,25.0,-3.86,84.66,2.5,-2.38,C0Z300
清水斷崖,24.218294,121.689142,-0.47,24.33,-2.86,86.14,14.33,8.58,C0Z310
清水林道,23.27125,121.188272,0.19,22.13,-1.95,86.1,2.67,-2.45,C0Z320
安通山,23.290728,121.348528,-0.19,23.01,2.73,90.34,2.66,-1.5,C0Z330
口湖工作站,23.589978,120.180394,1.08,26.8,-5.15,72.57,1.04,-5.6,12J990
東港工作站,22.479997,120.466058,1.2,28.48,-8.09,64.89,1.21,-12.76,12Q970
恆春工作站,22.079678,120.714425,1.85,28.16,-1.73,71.14,0.62,-1.68,12Q980
萬大發電廠,23.978875,121.139639,0.42,21.14,-9.59,81.21,13.57,-5.86,42HA10
桃改樹林分場,24.944503,121.386972,-0.33,25.27,-6.88,75.29,10.04,-6.16,72AI40
桃園農改場,24.950944,121.030583,0.47,25.32,-2.39,81.96,11.09,3.96,72C440
桃改五峰分場,24.612194,121.157167,0.58,20.43,-1.0,88.36,7.88,-1.27,72D080
臺中農改場,24.003028,120.534389,0.28,26.37,2.7,85.07,6.18,0.41,72G600
中改埔里分場,23.903208,120.963364,0.52,22.91,-3.55,88.07,8.39,-12.04,72HA00
南改斗南分場,23.634556,120.477333,0.9,27.18,-3.99,78.86,0.8,-5.61,72K220
南改義竹分場,23.360694,120.279361,0.57,27.06,-8.65,76.18,1.52,-3.77,72M360
南改鹿草分場,23.416869,120.283061,1.01,26.89,-4.75,80.54,4.07,-3.85,72M700
臺南農改場,23.0605,120.342194,0.54,27.45,-1.02,79.96,0.57,-5.82,72N100
七股研究中心,23.081672,120.062894,1.09,27.74,-5.1,78.07,1.84,-7.31,72N240
高雄農改場,22.709333,120.525889,0.93,28.56,-1.23,77.14,4.14,-2.34,72Q010
東改班鳩分場,22.829528,121.077694,0.41,24.64,-0.41,84.07,1.81,-3.86,72S200
東改賓朗果園,22.813889,121.071278,-2.05,21.8,-1.88,88.59,1.86,-3.66,72S590
花蓮農改場,23.975222,121.563889,0.46,25.02,-1.2,82.79,6.8,1.26,72T250
花改蘭陽分場,24.686306,121.716583,0.33,24.7,-1.57,84.04,6.29,-0.4,72U480
高改旗南分場,22.857861,120.516667,-0.45,27.65,2.44,76.61,1.25,-4.83,72V140
茶改北部分場,24.955778,121.631222,0.59,22.77,0.2,84.96,12.88,2.78,82A750
茶改場,24.908472,121.185333,0.37,24.52,-5.15,78.64,10.79,3.41,82C160
茶改中部分場,23.875611,120.913583,-0.64,21.54,0.0,87.68,9.25,-2.63,82H320
茶改南部分場,23.762528,120.7405,-0.38,23.99,-1.49,84.96,5.81,-0.78,82H840
茶改東部分場,22.907694,121.130139,-0.04,25.22,-1.67,82.71,1.5,-3.74,82S580
農工中心,24.985917,121.239833,0.63,25.34,0.52,75.68,10.29,3.04,A2C560
水試臺西試驗場,23.717231,120.190522,-0.06,26.97,1.21,83.14,2.0,-3.44,A2K360
臺大雲林校區,23.730628,120.423903,-0.24,26.5,-2.74,79.39,1.55,-11.66,A2K630
臺南蘭花園區,23.340258,120.379661,0.32,27.15,-2.78,79.86,1.68,-8.25,A2N290
畜試北區分所,24.527806,120.770972,14.04,39.0,-18.26,66.75,8.14,0.12,B2E890
畜產試驗所,23.058972,120.336406,0.54,27.31,-2.31,79.21,1.43,-4.53,B2N890
畜試南區分所,21.945583,120.802167,0.58,27.71,-5.61,73.36,0.75,-3.91,B2Q810
畜試東區分所,24.669039,121.832561,-0.06,24.71,1.7,90.43,6.88,1.06,B2U990
蓮華池,23.918333,120.885278,-1.02,22.73,3.23,86.61,8.12,-3.75,E2H360
林試畢祿溪站,24.226944,121.308522,-0.54,14.04,0.85,85.07,8.52,0.05,E2HA20
四湖植物園,23.676986,120.163433,0.94,26.77,5.3,91.32,2.29,-5.38,E2K600
林試六龜中心,22.991703,120.645722,0.48,26.13,0.23,81.46,4.84,-15.08,E2P980
林試太麻里2,22.598,120.99775,-0.05,26.76,-5.06,77.18,0.95,-2.97,E2S960
林試太麻里1,22.598922,120.980044,0.27,26.44,-3.32,79.64,1.48,-2.71,E2S980
農試所(霧峰),24.031261,120.688133,0.5,26.7,3.78,86.75,9.04,1.79,G2F820
農試嘉義分所,23.485028,120.473806,0.49,26.59,-4.64,76.75,2.04,-4.66,G2L020
農試溪口農場,23.58565,120.408111,1.63,26.93,-5.85,78.86,1.73,-5.06,G2M350
農試鳳山分所,22.646611,120.356083,0.46,28.44,-2.08,72.25,1.32,-5.9,G2P820
苗栗農改場,24.495722,120.829111,-0.05,25.09,-0.56,80.54,10.0,3.01,K2E360
苗改生物防治研究中心,24.422861,120.871833,-0.55,23.8,-2.27,82.21,8.46,-1.43,K2E710
種苗改良場,24.225972,120.800917,0.27,24.21,6.08,86.79,9.09,-2.22,K2F750
溪頭,23.670306,120.798194,1.97,20.86,-3.37,88.3,1.45,-10.24,U2H480
臺大和社,23.590856,120.888864,1.14,22.52,-3.21,86.36,6.8,-7.4,U2HA30
臺大內茅埔,23.689722,120.851117,0.61,23.8,-5.09,82.86,6.8,-8.87,U2HA40
臺大竹山,23.756972,120.681556,0.13,26.13,-3.99,77.75,3.48,-6.65,U2HA50
