站名,緯度,經度,平均溫距平,本年度平均溫,平均溼度距平,本年度日均相對溼度,本年度日均降水量,日均降水量距平,站號
淡水,25.164889,121.448906,0.72,27.19,4.52,85.46,4.94,-8.95,466900
鞍部,25.182586,121.529731,0.73,22.06,6.77,95.85,6.31,-11.33,466910
臺北,25.037658,121.514853,0.75,28.07,4.56,81.15,7.19,-6.96,466920
竹子湖,25.162078,121.544547,0.86,23.73,5.15,91.31,6.15,-9.34,466930
基隆,25.133314,121.740475,0.95,27.41,2.97,82.08,6.02,-8.95,466940
花蓮,23.975128,121.613275,0.55,27.32,5.09,86.38,19.94,12.8,466990
新屋,25.006725,121.047492,-0.05,27.3,2.4,86.85,2.47,-11.52,467050
宜蘭,24.763975,121.756528,0.86,27.26,4.44,87.0,6.62,-4.08,467080
金門,24.407306,118.289281,0.99,26.57,1.8,87.69,0.74,-4.98,467110
田中,23.873803,120.581286,-0.32,28.41,1.36,84.5,7.26,4.57,467270
澎湖,23.565503,119.563094,0.58,27.85,3.16,88.46,8.43,2.03,467350
臺南,22.99328,120.20492,0.37,28.78,4.18,81.85,23.31,6.52,467410
永康,23.038386,120.2367,0.59,28.71,7.13,82.46,26.31,9.78,467420
嘉義,23.495925,120.432906,0.34,28.15,6.56,85.0,23.63,8.87,467480
臺中,24.145736,120.684075,1.03,28.55,3.35,80.31,8.47,-8.24,467490
阿里山,23.508208,120.813242,0.97,15.03,4.14,95.54,28.93,-6.43,467530
大武,22.35572,120.90374,0.6,28.38,3.83,81.77,22.08,6.38,467540
玉山,23.48718,120.95943,2.35,9.32,6.33,90.54,18.78,-5.04,467550
新竹,24.827853,121.014219,0.81,28.02,5.04,82.5,3.17,-9.7,467571
恆春,22.003897,120.746339,0.39,28.61,4.08,83.69,20.04,6.68,467590
成功,23.097486,121.373428,0.41,27.16,6.29,88.77,24.56,17.59,467610
日月潭,23.881325,120.90805,0.97,22.85,9.28,94.92,25.55,4.12,467650
臺東,22.752211,121.154586,0.39,28.11,6.24,84.77,15.91,7.35,467660
馬祖,26.169467,119.923158,1.35,25.02,3.15,90.92,5.22,-1.77,467990
山佳,24.974944,121.402008,1.35,28.28,1.4,83.23,4.04,-8.45,C0A520
坪林,24.938183,121.70975,2.66,26.73,-2.65,90.15,8.46,-5.84,C0A530
泰平,24.971197,121.823711,1.28,24.42,0.6,95.77,11.38,-4.71,C0A550
桶後,24.848222,121.597992,2.32,25.95,-5.26,87.62,15.77,1.61,C0A570
石碇,24.993969,121.662917,1.08,25.85,-3.69,88.31,4.69,-12.79,C0A640
大坪,25.165914,121.632969,2.68,26.75,-2.4,87.09,10.05,-7.45,C0A860
五指山,25.132153,121.608692,2.47,24.47,-1.52,92.69,6.77,-7.46,C0A870
雙溪,25.036003,121.864242,2.34,27.66,-2.56,87.31,8.08,-6.31,C0A890
三和,25.233153,121.595236,0.31,25.72,-1.68,91.46,11.65,-9.66,C0A931
金山,25.223628,121.643967,0.78,26.58,-0.5,86.62,8.96,-5.98,C0A940
鼻頭角,25.129036,121.923372,1.3,27.2,-1.26,89.08,5.42,-4.43,C0A950
三貂角,25.007606,122.002058,0.99,26.57,3.7,90.77,9.73,0.38,C0A970
社子,25.109508,121.469681,1.52,28.74,2.32,82.54,4.12,-8.21,C0A980
天母,25.117494,121.537169,0.91,28.09,-2.22,75.62,3.96,-8.6,C0A9C0
內湖,25.079422,121.57545,1.5,28.75,2.14,81.92,6.54,-6.63,C0A9F0
大屯山,25.175675,121.522408,2.39,22.66,3.47,98.77,6.62,-9.54,C0AC40
三峽,24.939025,121.369728,1.4,28.75,2.19,84.54,6.62,-7.55,C0AC60
信義,25.037822,121.564597,1.09,28.37,0.48,82.62,7.62,-6.91,C0AC70
文山,25.00235,121.575728,0.36,27.12,-2.07,83.62,7.81,-7.09,C0AC80
新莊,25.051478,121.446756,-0.17,27.88,4.85,80.92,4.27,-9.01,C0ACA0
八里,25.150211,121.403947,1.33,28.71,11.29,91.38,4.88,-6.66,C0AD10
蘆洲,25.086594,121.472331,0.72,28.91,2.87,80.08,4.19,-7.75,C0AD30
土城,24.973208,121.445169,0.14,27.13,2.06,85.38,14.73,-0.24,C0AD40
鶯歌,24.951533,121.346294,1.05,28.35,4.03,87.62,3.85,-8.77,C0AD50
汐止,25.066881,121.658778,0.33,27.54,-1.52,83.31,4.58,-10.02,C0AH00
永和,25.01125,121.508111,0.93,28.83,4.56,81.15,10.54,-4.12,C0AH10
五分山,25.07125,121.780794,2.12,24.21,-0.56,95.08,8.69,-9.31,C0AH30
平等,25.129142,121.577086,0.3,25.47,1.46,85.77,5.31,-12.01,C0AH40
林口,25.072181,121.38084,1.1,27.19,5.29,92.44,4.73,-8.29,C0AH50
松山,25.04871,121.55042,0.01,28.01,11.63,83.0,8.12,-0.21,C0AH70
深坑,25.002703,121.628328,1.02,27.35,-0.08,85.54,4.69,-4.7,C0AH80
福山植物園,24.760717,121.58135,0.66,23.24,2.09,94.85,11.15,2.59,C0AH90
五股,25.07445,121.42728,0.85,27.66,-0.73,85.85,4.73,-5.2,C0AI00
屈尺,24.92184,121.54475,1.93,28.51,1.24,86.62,9.88,-2.09,C0AI10
白沙灣,25.283128,121.519058,0.21,26.88,8.07,88.54,5.0,-3.83,C0AI20
三重,25.057328,121.500629,-1.03,28.38,9.29,90.15,3.15,-1.31,C0AI30
石牌,25.115597,121.513139,0.58,29.25,7.84,80.54,3.88,-5.52,C0AI40
七堵,25.094819,121.71713,1.32,28.29,-1.38,85.54,5.85,-6.57,C0B010
基隆嶼,25.19141,121.78391,-0.15,26.41,6.89,96.92,2.08,-9.06,C0B020
復興,24.820208,121.352281,0.74,24.65,-6.01,80.85,8.27,-8.16,C0C460
桃園,24.992425,121.323172,0.32,27.72,6.01,81.15,5.46,-7.28,C0C480
八德,24.928708,121.283289,-0.18,27.11,1.23,81.31,5.65,-6.45,C0C490
觀音,25.027072,121.153317,0.26,26.58,9.04,91.85,7.31,-5.04,C0C590
蘆竹,25.084275,121.265767,0.25,27.55,2.44,84.85,3.46,-7.78,C0C620
大溪,24.882853,121.265547,0.35,26.15,5.64,85.0,6.58,-4.8,C0C630
平鎮,24.897503,121.214636,0.56,26.38,4.11,85.54,6.46,-5.09,C0C650
楊梅,24.912375,121.143047,-0.26,26.95,7.99,85.08,4.0,-7.8,C0C660
龍潭,24.870056,121.221389,-0.05,26.21,5.23,84.62,7.12,-3.73,C0C670
龜山,25.02846,121.38656,-0.86,25.2,2.07,83.77,5.08,-9.91,C0C680
中壢,24.977661,121.256375,0.05,27.12,4.76,81.0,4.04,-4.84,C0C700
大溪永福,24.892936,121.324975,0.59,26.68,1.42,87.38,6.08,-6.61,C0C710
梅花,24.678347,121.208558,0.75,24.23,3.83,92.08,9.58,-1.66,C0D360
峨眉,24.6905,121.017189,0.19,26.95,5.17,92.0,6.27,-3.82,C0D430
打鐵坑,24.849664,121.150789,0.16,25.31,0.98,87.85,1.62,-10.75,C0D480
橫山,24.71116,121.11693,0.11,25.48,11.01,97.77,5.85,-5.75,C0D540
雪霸,24.526972,121.11605,0.78,18.28,4.76,90.0,7.73,-8.79,C0D550
竹東,24.767147,121.057881,1.39,27.69,1.38,78.23,4.15,-6.16,C0D560
寶山,24.735006,121.025192,0.51,26.26,4.61,90.0,4.73,-6.18,C0D580
新豐,24.87068,120.97721,0.39,26.45,9.82,94.0,3.65,-9.34,C0D590
湖口,24.904794,121.043628,0.01,27.23,1.12,81.85,2.96,-8.82,C0D650
新竹市東區,24.798681,120.986942,-0.35,27.3,5.94,82.08,4.08,-5.77,C0D660
竹南,24.708978,120.888897,1.97,28.92,8.9,88.38,4.85,-7.39,C0E420
南庄,24.601775,121.000214,0.62,25.82,5.45,89.46,4.38,-9.73,C0E430
明德,24.583486,120.885411,0.34,27.89,3.68,83.85,5.77,-2.98,C0E550
通霄,24.471892,120.704622,-0.04,27.51,3.43,87.15,6.5,-2.76,C0E590
馬都安,24.451272,120.930192,0.79,23.29,10.89,91.85,8.42,-6.78,C0E610
頭份,24.688247,120.912206,1.26,28.99,5.95,81.23,6.85,-3.88,C0E730
造橋,24.637056,120.864778,-0.04,27.82,2.61,84.62,5.46,-4.39,C0E740
苗栗,24.564569,120.824575,-0.24,28.04,0.1,75.69,4.69,-5.28,C0E750
銅鑼,24.489681,120.790853,0.01,27.45,0.64,83.46,6.12,-4.53,C0E780
西湖,24.562947,120.7485,0.17,27.27,1.54,88.92,5.77,-4.05,C0E810
獅潭,24.539133,120.920042,-0.16,26.46,0.72,85.38,5.85,-5.95,C0E820
苑裡,24.439714,120.653053,-0.34,27.75,3.28,82.92,4.35,-5.7,C0E830
大河,24.618069,120.948578,-1.58,25.48,5.25,86.77,5.38,-8.67,C0E850
高鐵苗栗,24.60725,120.826094,-0.13,27.77,15.87,90.69,5.88,-2.73,C0E870
石岡,24.276061,120.777644,0.54,27.14,2.99,85.08,10.85,-7.56,C0F0B0
中坑,24.248517,120.903319,-0.44,21.85,1.11,92.31,13.58,-12.16,C0F0C0
審馬陣,24.381675,121.4203,1.12,11.9,6.33,90.62,14.85,6.89,C0F0D0
東勢,24.246428,120.833047,1.2,27.47,0.99,81.62,10.31,-6.61,C0F850
大坑,24.173142,120.722289,1.25,29.25,4.2,80.69,7.69,-6.27,C0F970
神岡,24.272481,120.658314,-0.2,27.21,-0.09,83.62,7.27,-1.56,C0F9I0
大安,24.345061,120.588025,-0.31,27.57,1.71,85.69,5.38,-2.4,C0F9K0
后里,24.310436,120.729725,0.49,27.91,2.39,84.69,8.81,-3.52,C0F9L0
豐原,24.254322,120.720692,1.39,28.94,0.01,79.08,7.12,-5.91,C0F9M0
大里,24.092464,120.701378,0.78,29.68,6.24,81.46,8.81,-4.43,C0F9N0
潭子,24.213106,120.703933,-0.59,27.85,6.29,83.31,7.73,-5.95,C0F9O0
清水,24.312297,120.562242,-0.27,28.04,0.38,84.08,5.35,-2.25,C0F9P0
外埔,24.347817,120.705686,0.1,27.37,0.59,86.15,7.69,-2.64,C0F9Q0
龍井,24.184536,120.528972,0.09,28.35,-5.07,82.62,7.96,-0.08,C0F9R0
烏日,24.107058,120.624103,0.19,28.64,1.76,78.85,10.12,-0.29,C0F9S0
西屯,24.179494,120.641275,-0.03,28.42,0.97,78.69,8.73,-2.1,C0F9T0
南屯,24.137006,120.637969,-0.05,28.72,2.35,78.77,9.69,-0.54,C0F9U0
新社,24.200172,120.815806,0.51,25.74,-0.39,85.54,13.58,-4.78,C0F9V0
大雅(中科園區),24.21528,120.62445,0.0,27.38,4.92,85.0,6.23,-6.48,C0F9X0
桃山,24.432739,121.303808,1.15,11.28,6.13,91.77,16.08,-3.51,C0F9Y0
雪山東峰,24.388792,121.268675,1.26,12.16,5.71,89.54,13.69,-7.56,C0F9Z0
芬園,24.015678,120.6213,-0.42,27.15,10.66,93.69,11.46,-0.89,C0G620
員林,23.946503,120.585597,2.82,30.4,-1.07,82.23,13.31,-1.07,C0G650
溪湖,23.94835,120.479122,0.93,28.95,-3.9,84.18,12.92,1.8,C0G660
溪州,23.851589,120.499093,0.66,28.41,-3.0,80.23,12.15,-2.75,C0G720
二林,23.903325,120.376081,0.14,27.92,2.31,91.0,12.38,-2.34,C0G730
大城,23.852487,120.320935,0.09,27.81,3.2,86.69,8.31,-3.71,C0G740
福興,24.041289,120.437669,-0.02,28.87,-2.89,81.15,8.42,-0.66,C0G770
秀水,24.03405,120.503869,0.33,28.85,1.65,85.38,13.38,3.8,C0G780
埔鹽,24.000394,120.431683,0.75,28.72,-5.09,82.3,9.69,0.24,C0G800
埔心,23.947633,120.525456,1.41,30.05,0.33,81.92,13.58,1.64,C0G810
田尾,23.901669,120.509389,0.42,28.75,3.4,88.77,14.15,1.34,C0G820
埤頭,23.866003,120.452806,0.09,28.27,5.77,94.46,12.5,1.1,C0G830
社頭,23.897647,120.5862,0.23,29.14,10.48,86.54,11.54,-0.9,C0G860
伸港,24.148933,120.484403,-0.17,28.2,-1.82,82.46,7.96,0.66,C0G890
線西,24.143358,120.443536,-0.89,28.15,2.43,84.23,6.96,-4.37,C0G900
花壇,24.032076,120.549461,1.16,30.12,12.28,89.08,14.08,10.24,C0G910
埔里,23.972169,120.952425,0.33,25.88,3.82,89.23,24.69,-2.18,C0H890
草屯,23.973672,120.68085,0.06,28.06,4.06,83.15,11.85,-1.36,C0H960
昆陽,24.121322,121.273642,1.8,11.96,2.32,93.77,14.92,-2.25,C0H990
神木村,23.532742,120.843667,1.09,19.78,3.77,95.15,17.96,-10.13,C0H9A0
合歡山,24.143442,121.272547,1.95,11.03,6.66,96.0,21.58,-11.05,C0H9C0
廬山,24.033311,121.181808,1.24,20.22,-0.29,87.62,15.81,-9.13,C0I010
信義,23.689694,120.851036,0.75,25.12,2.26,89.62,11.85,-10.51,C0I080
竹山,23.761225,120.688156,1.07,27.59,3.01,87.54,16.62,-0.83,C0I110
水里,23.812553,120.849792,0.47,26.51,2.06,85.15,21.62,-4.96,C0I360
魚池,23.895703,120.94135,0.34,24.52,0.18,87.54,21.19,-5.67,C0I370
集集,23.828206,120.801467,0.02,26.66,4.76,89.31,18.92,-9.09,C0I380
仁愛,24.022122,121.132206,1.0,22.17,-3.08,86.77,13.69,-20.77,C0I390
名間,23.837053,120.701447,-0.13,26.92,8.39,89.23,14.31,-5.05,C0I410
國姓,24.037803,120.855072,0.37,26.48,1.3,88.23,17.23,-12.8,C0I420
南投,23.911469,120.687331,0.24,28.35,9.46,87.77,8.65,-14.06,C0I460
梅峰,24.085272,121.173572,1.37,16.99,-1.85,90.23,18.04,-18.75,C0I480
萬大林道,23.928228,121.091411,0.86,19.82,-3.76,88.62,15.85,-9.54,C0I490
小奇萊,24.131764,121.295717,1.68,11.88,2.44,93.15,6.17,-18.6,C0I530
崙背,23.75555,120.318925,0.03,27.78,2.11,88.69,15.73,-1.14,C0K250
四湖,23.630414,120.227125,0.87,28.23,0.32,86.08,16.31,2.57,C0K280
宜梧,23.536281,120.169329,-0.17,28.18,0.55,85.62,16.54,5.21,C0K291
虎尾,23.719183,120.442036,0.67,28.34,9.72,89.23,15.62,0.8,C0K330
土庫,23.679029,120.395574,-0.11,28.03,0.61,83.69,14.54,-2.77,C0K390
斗六,23.720583,120.541127,0.04,28.09,0.23,81.54,8.65,-10.4,C0K400
北港,23.573957,120.292802,-0.07,28.14,0.32,83.54,10.85,0.6,C0K410
西螺,23.800407,120.467394,0.04,28.25,1.78,83.77,13.31,-1.85,C0K420
褒忠,23.690938,120.303634,0.03,27.89,2.35,87.15,15.15,1.74,C0K430
二崙,23.772797,120.408944,-0.1,27.83,13.26,97.23,13.46,-4.1,C0K440
大埤,23.646074,120.431537,0.06,28.13,2.57,84.46,11.46,-6.97,C0K450
斗南,23.678734,120.478359,0.0,28.12,5.6,84.08,11.42,-8.24,C0K460
林內,23.748675,120.609642,0.09,27.46,2.55,85.85,13.88,-5.3,C0K470
莿桐,23.761192,120.502372,0.03,27.87,4.06,84.77,11.15,-7.41,C0K480
元長,23.64981,120.315024,0.04,28.22,3.12,85.31,15.77,-0.28,C0K500
水林,23.572924,120.24597,0.07,28.3,5.15,86.85,15.5,3.01,C0K510
臺西,23.701547,120.197559,-0.26,27.75,4.01,87.08,18.42,3.54,C0K530
蔦松,23.514319,120.229736,0.06,28.32,2.78,86.38,12.42,1.16,C0K550
棋山,23.68645,120.603417,0.07,27.57,7.2,89.62,12.77,-11.14,C0K560
高鐵雲林,23.737456,120.417944,-0.6,27.69,3.27,87.38,13.96,4.75,C0K580
東後寮,23.369908,120.248065,-0.03,27.93,3.72,88.62,15.58,4.34,C0M520
奮起湖,23.493903,120.699253,0.91,20.42,4.41,97.15,28.81,-3.12,C0M530
中埔,23.42538,120.5229,-0.38,27.38,3.21,81.69,16.81,-0.89,C0M640
朴子,23.43463,120.23902,-0.7,27.42,5.76,88.69,14.69,4.69,C0M650
溪口,23.604131,120.403569,-0.07,27.93,1.45,84.31,9.0,-5.08,C0M660
大林,23.600616,120.45841,-0.04,28.33,4.54,83.54,12.15,-6.64,C0M670
太保,23.455062,120.331455,-0.26,28.03,1.77,85.54,13.15,1.03,C0M680
水上,23.419734,120.388909,-0.12,27.98,3.0,84.77,22.42,9.62,C0M690
竹崎,23.526178,120.555508,-0.24,27.13,6.02,87.31,18.31,2.28,C0M700
東石,23.458927,120.15385,-0.36,28.25,-0.11,83.15,16.08,5.68,C0M710
番路,23.464657,120.554156,-0.11,27.03,6.41,85.38,19.81,-0.42,C0M720
嘉義市東區,23.457673,120.460531,-0.31,28.38,6.83,84.46,23.46,10.05,C0M730
六腳,23.492871,120.290625,-0.16,28.17,5.48,84.92,12.88,3.41,C0M740
布袋,23.380878,120.167789,-0.07,28.41,1.49,84.46,14.31,2.56,C0M750
民雄,23.551754,120.428457,-0.24,28.23,3.46,83.85,12.15,-3.43,C0M760
嘉義梅山,23.585398,120.555587,-0.38,27.46,7.01,86.46,21.42,1.59,C0M770
鹿草,23.41134,120.30835,-0.01,28.36,4.47,85.85,18.19,4.72,C0M780
新港,23.553269,120.345728,-0.28,28.05,2.66,83.85,10.54,-2.11,C0M790
茶山,23.299075,120.664767,0.05,25.25,4.52,90.77,25.15,-3.41,C0M800
里佳,23.389125,120.716647,0.42,20.77,2.75,91.62,27.08,-10.66,C0M810
達邦,23.453994,120.749517,0.82,22.75,4.58,90.92,19.38,-14.38,C0M820
表湖,23.24186,120.64166,-0.81,23.48,4.83,90.92,23.08,6.49,C0M850
新美,23.338017,120.683169,-0.15,24.88,11.65,90.38,25.69,20.73,C0M860
北寮,23.079561,120.495008,-0.35,27.36,9.73,92.92,31.65,18.59,C0O830
王爺宮,23.222064,120.40085,1.87,29.42,-1.4,81.92,23.77,10.46,C0O840
大內,23.11885,120.36083,0.55,29.23,5.98,88.15,24.35,12.43,C0O860
善化,23.112883,120.297219,0.63,28.25,9.9,93.77,23.92,6.76,C0O900
崎頂,22.959547,120.369317,0.56,28.28,5.28,89.92,24.46,12.37,C0O960
虎頭埤,23.021375,120.347878,-0.28,27.61,0.54,84.38,28.46,14.95,C0O970
新市,23.061614,120.298197,0.41,28.92,0.11,84.15,23.81,13.11,C0O980
媽廟,22.99175,120.293525,0.1,28.62,4.42,87.38,22.54,10.02,C0O990
尾寮山,22.833111,120.683889,1.36,22.72,3.4,96.08,40.58,4.7,C0R100
阿禮,22.742908,120.743678,0.19,22.43,-0.18,86.54,24.12,4.53,C0R130
瑪家,22.682903,120.686639,-0.69,23.47,13.21,97.77,35.08,6.95,C0R140
三地門,22.709889,120.639944,0.77,28.15,3.9,82.38,28.88,2.07,C0R150
鹽埔,22.739558,120.530778,0.12,28.32,2.0,88.69,27.85,11.7,C0R160
赤山,22.592333,120.614306,-0.07,28.35,9.33,92.38,27.27,7.62,C0R190
潮州,22.534361,120.54,0.83,28.78,4.58,82.77,28.85,8.37,C0R220
來義,22.527306,120.625111,-0.8,27.09,11.08,92.62,28.04,9.58,C0R240
春日,22.370361,120.628306,-1.47,26.91,8.11,88.31,30.46,17.28,C0R260
琉球嶼,22.332244,120.362236,0.8,28.58,-2.19,83.85,12.0,-0.49,C0R270
車城,22.0744,120.716247,-0.36,28.43,3.54,86.54,21.5,17.63,C0R320
牡丹,22.130036,120.792639,-0.41,26.32,10.16,95.69,25.23,16.4,C0R341
貓鼻頭,21.921774,120.7358,0.54,28.29,1.05,85.85,21.92,10.73,C0R350
大漢山,22.405264,120.753181,0.53,18.43,4.28,98.62,56.08,37.14,C0R440
高樹,22.826389,120.600806,-0.45,28.04,2.34,79.92,30.19,12.36,C0R470
長治,22.693128,120.542622,0.48,29.12,4.29,84.69,28.65,12.0,C0R480
九如,22.7405,120.490503,0.5,29.03,-0.1,82.92,32.08,15.84,C0R490
崁頂,22.514781,120.506914,-0.32,28.54,3.9,86.38,19.27,4.64,C0R520
佳冬,22.419456,120.552375,-0.26,28.52,3.65,84.92,26.81,12.73,C0R540
新埤,22.467947,120.582894,-0.2,28.33,-1.52,81.62,28.46,15.13,C0R550
新園,22.5434,120.461558,0.82,29.55,-3.64,79.85,25.38,11.13,C0R560
麟洛,22.65078,120.52719,0.63,29.48,5.86,85.62,29.5,15.68,C0R570
南州,22.48591,120.50274,-0.32,28.32,8.48,89.08,23.96,10.54,C0R580
里港,22.77919,120.49459,-0.02,28.33,4.9,86.77,29.92,15.57,C0R590
舊泰武,22.588194,120.664944,-0.43,23.89,7.24,91.77,20.86,-5.13,C0R600
墾雷,21.900836,120.855269,-0.82,27.89,10.65,94.62,24.08,18.24,C0R620
東港,22.46247,120.44074,-0.22,28.73,1.85,85.85,18.35,14.3,C0R640
竹田,22.58486,120.54344,-0.37,28.69,1.89,83.69,26.19,18.01,C0R650
枋寮,22.367722,120.590647,-0.28,28.48,10.45,88.38,21.92,19.79,C0R660
楓港,22.190131,120.692156,-0.85,27.96,2.5,81.77,30.12,26.88,C0R670
佳樂水,21.993578,120.861633,-0.96,28.11,8.41,89.08,21.46,18.99,C0R680
墾丁,21.966756,120.810269,-0.47,26.5,3.76,92.69,23.08,20.21,C0R690
枋山,22.246844,120.661086,0.35,28.69,1.65,81.85,46.5,44.23,C0R700
龍磐,21.931672,120.838942,-1.02,27.38,6.23,91.69,20.58,18.81,C0R710
旭海,22.205403,120.887614,-1.1,26.49,8.0,89.0,19.23,13.26,C0R720
大坪頂,22.024633,120.69355,-0.54,27.3,7.44,94.77,14.5,12.87,C0R730
四林格山,22.076989,120.802439,-0.32,24.42,2.43,97.23,27.92,15.39,C0R750
南仁湖,22.084681,120.863353,-1.07,25.3,12.58,98.38,33.27,19.87,C0R760
保力,22.071122,120.764111,-0.08,27.25,3.62,90.15,22.04,11.44,C0R770
滿州,22.024403,120.839892,-0.77,27.6,5.82,87.15,23.08,18.04,C0R780
九棚,22.14195,120.889281,-1.02,27.69,9.83,86.7,8.59,-1.01,C0R790
丹路,22.204481,120.750989,-0.19,27.5,4.54,87.08,40.77,30.84,C0R800
內獅,22.305064,120.642986,-0.25,28.58,20.19,96.46,34.92,31.39,C0R810
白鷺,22.454275,120.666219,-0.07,25.11,7.81,90.54,39.54,36.71,C0R820
高士,22.121825,120.836781,-0.96,25.17,10.23,95.23,27.81,15.07,C0R830
牡丹池山,22.168389,120.841225,-0.93,24.26,10.05,97.38,25.42,14.79,C0R840
下馬,23.150427,121.070312,0.64,23.88,6.96,89.38,15.96,13.89,C0S660
太麻里,22.60902,120.98533,0.57,24.54,9.21,94.25,13.25,2.79,C0S690
知本,22.684866,121.005642,0.98,25.12,7.69,93.69,26.65,15.9,C0S700
鹿野,22.917711,121.122994,1.08,25.52,7.26,92.38,21.58,12.8,C0S710
綠島,22.6672,121.47533,0.84,27.57,1.19,87.77,21.88,15.08,C0S730
池上,23.119628,121.209469,0.93,26.05,4.81,91.31,20.85,14.18,C0S740
向陽,23.248397,120.986133,1.45,16.38,14.03,94.15,20.62,-0.76,C0S750
大溪山,22.478475,120.943325,0.79,25.44,4.69,91.69,19.27,6.0,C0S770
金崙,22.538122,120.966875,0.94,27.24,4.64,86.85,16.54,5.65,C0S790
東河,22.972672,121.303986,-0.06,27.46,5.24,91.15,25.69,17.55,C0S810
長濱,23.286817,121.411975,0.72,26.47,4.97,89.85,23.0,16.1,C0S830
南田,22.279725,120.889208,0.58,28.12,1.9,82.69,22.08,7.84,C0S840
關山,23.0395,121.175017,0.16,26.57,6.02,91.31,19.88,12.09,C0S890
蘭嶼高中,22.04909,121.51214,-0.77,28.45,9.7,89.23,32.65,30.29,C0S900
蘭嶼燈塔,22.081197,121.503117,-0.73,26.91,11.07,94.77,30.62,28.83,C0S910
金峰嘉蘭,22.594789,120.960825,-0.86,27.38,9.48,87.62,20.12,12.9,C0S920
延平,22.902581,121.084058,-0.87,26.27,12.58,89.38,21.5,18.68,C0S930
石寧山,23.223772,121.406639,-0.88,27.34,7.91,90.31,25.54,23.19,C0S940
七塊厝,22.954453,121.229922,0.01,26.15,0.9,87.77,23.62,14.63,C0S950
香蘭,22.587569,120.993375,-0.51,28.17,13.55,88.62,19.27,14.74,C0S960
加津林,22.416211,120.926942,-0.29,27.99,7.3,84.77,20.85,15.7,C0S970
勝林山,22.430439,120.8938,-1.71,22.5,12.48,95.62,22.0,15.33,C0S980
山豬窟,22.318619,120.857372,-1.52,25.53,13.07,91.0,26.5,20.0,C0S990
歷坵,22.520969,120.89185,-0.15,25.24,5.84,92.31,19.0,12.57,C0SA00
檳榔四格山,22.810031,121.109308,-0.94,25.3,9.89,94.15,16.85,14.1,C0SA10
金崙山,22.567419,120.959667,-0.23,23.59,5.17,91.77,23.15,16.94,C0SA20
都歷,23.020333,121.323642,-0.66,27.42,4.42,84.15,23.46,17.36,C0SA30
瑞和,22.974361,121.156697,-0.84,26.56,7.03,88.23,20.62,15.77,C0SA40
知本（水試所）,22.702394,121.082761,-0.74,27.8,9.23,88.69,18.27,15.38,C0SA60
土坂,22.453108,120.887572,-0.05,27.45,9.98,88.15,22.69,14.53,C0SA80
達仁林場,22.264347,120.823972,-0.98,24.82,12.91,93.85,36.08,22.71,C0SA90
大禹嶺,24.186117,121.316086,1.24,13.78,4.28,90.54,15.19,1.14,C0T790
天祥,24.179597,121.495639,1.09,24.28,5.5,88.23,15.54,9.45,C0T820
鯉魚潭,23.935639,121.508944,0.62,25.65,2.23,92.23,18.96,10.81,C0T870
西林,23.8119,121.441458,0.69,26.45,8.86,90.77,13.92,5.65,C0T900
光復,23.660694,121.424964,1.36,27.13,-0.61,88.08,16.5,7.75,C0T960
月眉山,23.809928,121.539828,1.39,24.88,-0.04,93.92,13.42,6.36,C0T9A0
水源,23.991861,121.537169,1.04,24.11,0.77,93.54,23.12,14.99,C0T9B0
和中,24.26676,121.74103,0.78,27.13,10.38,100.0,16.65,7.68,C0T9D0
大坑,23.880628,121.581981,1.02,25.14,4.63,93.92,21.69,13.14,C0T9E0
水璉,23.797131,121.542514,0.59,26.17,4.95,92.77,12.96,5.57,C0T9F0
鳳林山,23.735269,121.420131,0.13,24.17,2.1,95.46,18.81,8.83,C0T9G0
加路蘭山,23.682947,121.5274,1.38,24.29,5.06,98.85,16.23,6.61,C0T9H0
豐濱,23.583897,121.514806,1.28,26.59,-2.65,88.0,14.77,6.07,C0T9I0
靜浦,23.455167,121.495028,0.93,26.86,7.51,94.85,22.5,15.99,C0T9M0
富里,23.171639,121.249378,-0.69,26.5,17.59,99.46,17.27,14.82,C0T9N0
雙連埤,24.753033,121.641303,0.05,23.32,-1.04,94.69,8.42,-4.18,C0U520
礁溪,24.817539,121.765608,1.12,27.15,-1.6,85.69,6.12,-5.01,C0U600
玉蘭,24.675286,121.587061,1.17,25.0,-0.59,86.38,11.77,-0.41,C0U650
太平山,24.505486,121.525656,1.4,18.01,1.71,95.31,14.31,2.6,C0U710
南山,24.43742,121.38167,0.49,21.65,-2.59,89.23,6.81,-0.86,C0U720
龜山島,24.841667,121.953133,-0.11,24.12,0.05,94.85,5.12,-0.36,C0U750
東澳,24.52196,121.83318,0.95,27.4,-2.9,84.92,9.19,-1.97,C0U760
南澳,24.44935,121.81022,0.38,27.04,2.6,89.31,4.81,-3.0,C0U770
五結,24.68637,121.79794,-0.13,27.07,-0.19,85.54,6.27,-1.14,C0U780
頭城,24.85323,121.8308,-0.09,27.04,0.38,90.0,7.58,-2.18,C0U860
大礁溪,24.791042,121.675047,0.2,24.42,7.24,95.0,8.12,-1.9,C0U870
三星,24.66812,121.65302,0.15,26.44,-4.55,84.85,7.31,-0.71,C0U890
內城,24.71813,121.68766,0.63,27.05,-0.97,87.08,7.15,-2.34,C0U900
冬山,24.63373,121.7937,0.64,27.48,0.76,82.54,9.12,-1.13,C0U910
羅東,24.68184,121.74934,0.74,27.47,1.55,85.62,5.81,-2.87,C0U940
鶯子嶺,24.89754,121.79244,0.74,21.45,-1.35,95.08,13.19,0.83,C0U950
翠峰湖,24.510856,121.608044,1.14,17.92,2.31,95.31,18.04,8.04,C0U960
大福,24.80064,121.81389,-0.09,26.61,3.06,86.92,5.92,-3.08,C0U970
坪林石牌,24.86478,121.77396,0.44,23.72,2.54,96.38,9.65,-1.54,C0U980
員山,24.74435,121.72247,0.19,27.09,4.37,88.31,5.85,-3.48,C0U990
土場,24.576533,121.495333,0.09,25.08,-2.12,88.08,7.96,-0.53,C0UA00
鴛鴦湖,24.590269,121.412228,0.88,18.52,3.49,97.69,20.0,8.23,C0UA10
白嶺,24.527819,121.519031,0.85,20.62,-1.18,94.15,15.23,4.08,C0UA30
西德山,24.560647,121.752608,0.81,21.56,1.82,95.46,10.58,-0.25,C0UA40
西帽山,24.555361,121.802628,0.51,22.89,-3.57,90.23,13.65,-0.1,C0UA50
樟樹山,24.41393,121.78325,0.43,24.51,3.24,90.08,7.42,-0.17,C0UA60
桃源谷,24.962606,121.888875,0.41,23.78,0.51,97.0,13.54,0.53,C0UA70
復興,23.222403,120.806089,0.74,24.52,4.81,87.15,25.38,3.63,C0V210
溪埔,22.738578,120.446797,-0.13,28.18,7.17,89.38,32.88,17.84,C0V350
內門,22.975481,120.466769,0.95,28.35,4.15,87.85,38.81,22.04,C0V360
古亭坑,22.893178,120.401947,-0.35,26.61,7.87,92.71,49.07,29.37,C0V370
阿公店,22.804194,120.355528,-0.31,27.95,5.02,88.0,23.15,11.07,C0V400
鳳山,22.646653,120.356122,-0.77,28.17,11.71,89.31,22.05,10.34,C0V440
鳳森,22.545064,120.392592,-0.23,28.2,1.73,85.31,24.42,11.52,C0V450
新興,22.627422,120.298803,0.12,29.02,0.62,80.85,26.15,14.12,C0V490
阿蓮,22.883208,120.327508,-0.24,28.55,5.27,86.15,35.86,21.51,C0V530
梓官,22.760558,120.267211,-0.38,28.58,3.08,84.31,25.65,13.92,C0V610
永安,22.82315,120.236856,-0.34,28.43,0.72,84.77,20.12,7.82,C0V620
茄萣,22.906642,120.182608,0.09,29.02,6.59,85.23,27.35,16.35,C0V630
湖內,22.887139,120.2445,-0.65,28.15,3.12,84.08,21.77,9.52,C0V640
彌陀,22.783806,120.246361,-0.1,28.63,1.45,86.77,20.77,8.94,C0V650
岡山,22.797078,120.294958,0.09,29.32,4.56,83.62,28.88,15.5,C0V660
仁武,22.701083,120.347722,-0.03,29.37,4.28,83.23,24.12,10.63,C0V680
鼓山,22.623325,120.275575,-0.37,28.62,3.17,84.69,22.35,12.43,C0V690
三民,22.645017,120.311233,-0.33,29.16,6.27,79.92,26.62,14.62,C0V700
苓雅,22.622742,120.330669,0.01,29.24,11.47,84.91,29.55,17.99,C0V710
林園,22.507747,120.394511,0.16,29.62,6.68,83.92,21.38,8.92,C0V720
大寮,22.605614,120.395717,-0.56,28.62,10.31,87.85,30.96,18.64,C0V730
旗山,22.888614,120.483597,0.81,28.98,2.14,81.85,37.92,22.34,C0V740
路竹,22.854997,120.259439,0.32,29.33,2.74,82.31,22.04,7.51,C0V750
橋頭,22.757806,120.30575,0.14,29.36,-0.37,79.85,25.81,14.5,C0V760
大社,22.730306,120.346639,0.02,29.2,7.68,85.0,26.15,12.93,C0V770
萬山,22.905944,120.688056,0.47,26.15,6.95,89.08,32.05,13.14,C0V790
六龜,22.997889,120.633583,0.15,27.18,6.56,86.31,39.88,18.0,C0V800
左營,22.67491,120.28491,-0.48,28.42,2.63,83.62,26.19,12.67,C0V810
小林,23.148408,120.63325,-0.13,25.67,10.84,91.31,23.46,7.79,C0V820
東莒,25.9652,119.98069,0.66,25.08,0.7,88.64,2.58,-5.42,C0W110
西嶼,23.5626,119.468436,0.42,26.6,0.32,93.0,17.86,13.31,C0W120
花嶼,23.40007,119.32276,0.5,27.05,1.39,90.92,5.5,0.64,C0W130
金沙,24.488292,118.408778,0.73,27.08,-3.61,82.46,0.65,-2.96,C0W140
金寧,24.457703,118.328989,-0.15,26.97,-5.88,81.54,0.42,-3.35,C0W150
東河,23.296598,120.385608,-0.55,27.79,2.45,84.46,20.65,7.59,C0X050
下營,23.22695,120.256261,0.06,28.32,-0.13,83.31,22.85,10.15,C0X060
佳里,23.173039,120.145086,0.78,28.62,5.68,90.31,29.04,15.32,C0X080
臺南市北區,23.010394,120.194228,-0.34,29.08,9.13,84.46,20.12,9.72,C0X100
臺南市南區,22.961189,120.188378,-0.19,29.0,4.35,85.31,21.81,11.95,C0X110
麻豆,23.183289,120.248611,0.29,29.22,4.22,86.69,23.92,13.22,C0X120
官田,23.193217,120.315422,-0.21,28.6,11.95,91.62,19.08,8.84,C0X130
西港,23.125608,120.203108,-0.51,28.58,2.92,82.85,27.73,17.94,C0X140
安定,23.102614,120.227839,-0.04,28.86,6.27,87.46,27.31,17.86,C0X150
仁德,22.968258,120.257689,0.1,29.03,5.39,84.77,23.81,12.54,C0X160
關廟,22.963017,120.327797,-0.4,28.65,11.08,87.08,22.35,8.79,C0X170
山上,23.0757,120.363253,-0.12,28.15,4.5,85.92,25.92,13.61,C0X180
安平,22.993161,120.152181,-0.23,28.82,-0.27,82.46,21.23,11.74,C0X190
左鎮,23.056758,120.408522,0.79,28.51,1.25,85.92,27.42,14.44,C0X200
白河,23.347466,120.414427,-0.37,27.84,5.82,86.23,19.73,6.24,C0X210
學甲,23.230367,120.182187,-0.13,28.27,5.55,85.31,21.04,12.81,C0X220
鹽水,23.272621,120.247641,-0.2,27.99,3.96,86.62,20.42,9.94,C0X230
關子嶺,23.331169,120.508025,-0.16,25.79,7.27,91.85,31.88,9.79,C0X240
新營,23.310689,120.316681,-0.51,28.37,6.35,84.38,22.27,11.15,C0X250
後壁,23.366358,120.362326,-0.26,28.13,3.71,84.46,19.69,9.09,C0X260
將軍,23.214999,120.13577,-0.13,28.19,3.71,85.85,19.88,10.36,C0X280
北門,23.267772,120.125481,-0.11,28.28,0.5,85.54,17.46,8.31,C0X290
鹿寮,23.386047,120.477331,-0.25,27.3,2.6,87.31,13.95,-0.83,C0X300
柳營,23.253328,120.375253,-0.71,27.79,9.48,87.08,18.88,16.78,C0X320
明里,23.208717,121.262342,0.32,26.18,2.82,92.62,18.62,10.47,C0Z020
佳心,23.34567,121.21316,1.01,22.84,11.21,97.38,23.08,15.28,C0Z050
玉里,23.3215,121.339656,0.99,27.12,5.95,95.62,25.15,16.03,C0Z061
舞鶴,23.46811,121.37407,1.43,26.25,8.18,99.69,28.88,22.85,C0Z070
富源,23.587642,121.378225,0.81,26.3,0.84,91.08,18.88,8.78,C0Z080
東華,23.89525,121.549833,0.61,27.53,3.81,90.23,6.96,1.91,C0Z100
吉安光華,23.930925,121.595153,0.26,27.02,-2.57,85.31,22.38,16.7,C0Z150
鳳林,23.746114,121.453411,0.19,26.63,0.43,85.15,13.65,3.58,C0Z160
卓溪,23.3443,121.3029,-0.32,26.75,1.38,84.0,25.96,18.24,C0Z170
新城,24.040486,121.604878,0.19,27.11,14.78,98.69,15.69,9.34,C0Z180
富世,24.14743,121.6297,0.01,26.98,0.15,88.31,20.54,12.82,C0Z190
萬榮,23.709219,121.420106,0.44,26.52,-1.04,86.54,16.23,7.3,C0Z200
瑞穗,23.5239,121.39021,0.8,27.06,2.72,89.23,20.04,13.26,C0Z210
和平林道,24.343922,121.656317,0.18,24.08,-2.07,90.46,15.96,12.22,C0Z220
和平,24.30717,121.77007,-0.8,26.34,0.23,84.69,15.27,7.84,C0Z230
瑞穗林道,23.49284,121.30688,0.43,21.7,4.03,98.38,24.12,12.93,C0Z250
蕃薯寮,23.73835,121.540108,0.44,25.37,-2.17,90.85,13.12,3.98,C0Z270
德武,23.47426,121.41071,0.44,26.51,1.76,89.69,29.46,24.31,C0Z280
赤柯山,23.36893,121.38293,0.54,22.7,1.92,93.38,28.65,22.94,C0Z290
東里,23.26853,121.30547,0.3,26.85,-0.99,87.38,28.85,23.88,C0Z300
清水斷崖,24.218294,121.689142,-0.39,26.38,-0.53,89.54,13.12,4.48,C0Z310
清水林道,23.27125,121.188272,0.22,24.15,3.25,88.85,21.23,14.53,C0Z320
安通山,23.290728,121.348528,-0.07,24.89,6.25,92.54,27.81,22.89,C0Z330
口湖工作站,23.589978,120.180394,0.01,27.95,2.92,80.23,14.88,11.33,12J990
東港工作站,22.479997,120.466058,-0.32,28.72,3.72,73.38,19.42,14.59,12Q970
恆春工作站,22.079678,120.714425,1.01,28.46,-0.37,80.38,19.65,-8.47,12Q980
萬大發電廠,23.978875,121.139639,1.15,22.68,-7.33,84.23,14.08,-1.59,42HA10
桃改樹林分場,24.944503,121.386972,-0.87,26.99,1.41,82.08,8.0,0.6,72AI40
桃園農改場,24.950944,121.030583,0.99,27.35,2.55,86.85,2.12,-9.6,72C440
桃改五峰分場,24.612194,121.157167,1.34,22.52,3.38,92.15,3.55,-8.52,72D080
臺中農改場,24.003028,120.534389,0.68,27.9,6.42,90.38,15.81,3.35,72G600
中改埔里分場,23.903208,120.963364,0.79,24.21,2.1,93.0,19.62,-6.11,72HA00
南改斗南分場,23.634556,120.477333,0.89,28.22,2.71,86.54,8.54,-6.51,72K220
南改義竹分場,23.360694,120.279361,0.25,27.88,-1.64,84.77,18.08,4.25,72M360
南改鹿草分場,23.416869,120.283061,-0.05,28.04,6.15,88.46,13.19,3.76,72M700
臺南農改場,23.0605,120.342194,0.25,27.89,6.56,90.15,25.08,13.23,72N100
七股研究中心,23.081672,120.062894,0.06,28.68,3.86,86.46,28.96,21.69,72N240
高雄農改場,22.709333,120.525889,0.23,28.24,7.59,89.08,27.58,6.25,72Q010
東改班鳩分場,22.829528,121.077694,0.46,25.97,3.03,88.08,15.58,6.54,72S200
東改賓朗果園,22.813889,121.071278,-10.42,14.7,2.87,93.5,18.69,10.32,72S590
花蓮農改場,23.975222,121.563889,1.09,27.08,0.25,85.46,25.0,18.34,72T250
花改蘭陽分場,24.686306,121.716583,1.1,27.04,-0.44,86.54,6.0,-2.37,72U480
高改旗南分場,22.857861,120.516667,-0.68,27.77,10.3,87.54,4.56,-16.92,72V140
茶改北部分場,24.955778,121.631222,1.65,25.11,1.74,88.46,5.15,-11.44,82A750
茶改場,24.908472,121.185333,0.69,26.43,0.67,85.08,5.0,-7.0,82C160
茶改中部分場,23.875611,120.913583,0.14,22.97,3.71,93.27,23.73,2.59,82H320
茶改南部分場,23.762528,120.7405,0.09,25.31,2.6,91.77,10.83,-8.01,82H840
茶改東部分場,22.907694,121.130139,0.2,26.49,4.7,88.62,21.73,13.23,82S580
農工中心,24.985917,121.239833,1.05,27.22,5.87,82.46,3.54,-6.66,A2C560
水試臺西試驗場,23.717231,120.190522,0.11,28.12,6.51,90.69,20.94,12.06,A2K360
臺大雲林校區,23.730628,120.423903,-0.14,27.7,4.37,87.31,13.23,8.93,A2K630
臺南蘭花園區,23.340258,120.379661,-0.2,27.82,6.21,89.08,18.08,14.24,A2N290
畜試北區分所,24.527806,120.770972,0.94,27.7,8.29,91.0,4.32,-4.69,B2E890
畜產試驗所,23.058972,120.336406,0.05,27.51,4.84,89.92,26.08,7.34,B2N890
畜試南區分所,21.945583,120.802167,-0.16,27.75,0.28,83.92,22.77,11.83,B2Q810
畜試東區分所,24.669039,121.832561,-0.3,27.13,6.73,92.0,8.46,3.46,B2U990
蓮華池,23.918333,120.885278,-0.27,24.0,6.83,91.77,26.15,5.03,E2H360
林試畢祿溪站,24.226944,121.308522,0.13,16.07,11.87,91.69,13.04,12.67,E2HA20
四湖植物園,23.676986,120.163433,0.07,27.97,10.07,96.69,19.92,11.68,E2K600
林試六龜中心,22.991703,120.645722,-0.73,26.18,14.14,91.08,34.85,33.28,E2P980
林試太麻里2,22.598,120.99775,-0.49,27.69,6.61,84.54,1.14,-3.13,E2S960
林試太麻里1,22.598922,120.980044,-0.41,27.25,7.82,86.62,19.15,13.99,E2S980
農試所(霧峰),24.031261,120.688133,1.59,28.74,5.25,89.17,13.77,-0.95,G2F820
農試嘉義分所,23.485028,120.473806,0.06,27.46,5.66,87.23,27.0,16.24,G2L020
農試溪口農場,23.58565,120.408111,0.96,28.05,2.22,85.62,9.35,2.66,G2M350
農試鳳山分所,22.646611,120.356083,-0.11,28.28,5.75,84.69,25.38,8.72,G2P820
苗栗農改場,24.495722,120.829111,0.43,27.21,3.41,83.62,5.27,-7.41,K2E360
苗改生物防治研究中心,24.422861,120.871833,-0.04,25.87,3.55,85.92,8.35,-0.48,K2E710
種苗改良場,24.225972,120.800917,0.91,25.8,10.25,92.77,10.46,-8.78,K2F750
臺大和社,23.590856,120.888864,1.87,24.08,1.95,90.85,11.5,-3.69,U2HA30
臺大內茅埔,23.689722,120.851117,0.98,25.06,1.88,89.0,10.35,-4.92,U2HA40
臺大竹山,23.756972,120.681556,0.09,27.26,4.61,85.77,16.88,0.67,U2HA50
