站名,緯度,經度,平均溫距平,本年度平均溫,平均溼度距平,本年度日均相對溼度,本年度日均降水量,日均降水量距平,站號
淡水,25.164889,121.448906,0.75,24.96,-2.33,75.67,5.48,-0.22,466900
鞍部,25.182586,121.529731,-0.1,18.96,2.84,89.11,6.15,-1.83,466910
臺北,25.037658,121.514853,0.76,25.86,-3.86,69.78,9.32,3.62,466920
竹子湖,25.162078,121.544547,0.25,20.89,1.48,84.67,7.5,1.01,466930
基隆,25.133314,121.740475,0.64,24.91,-0.71,74.67,8.81,0.66,466940
花蓮,23.975128,121.613275,-0.31,24.42,2.12,81.22,11.45,6.56,466990
新屋,25.006725,121.047492,0.7,24.94,0.32,82.22,6.1,1.48,467050
宜蘭,24.763975,121.756528,-0.33,23.81,3.43,84.11,8.96,4.12,467080
金門,24.407306,118.289281,1.23,23.48,4.51,86.0,5.17,0.54,467110
田中,23.873803,120.581286,-1.87,26.71,1.78,75.89,0.78,0.78,467270
澎湖,23.565503,119.563094,0.33,25.76,1.21,82.78,0.03,-2.03,467350
臺南,22.99328,120.20492,0.96,28.2,-3.84,69.67,0.0,-2.66,467410
永康,23.038386,120.2367,1.29,28.22,-0.81,70.67,0.01,-2.79,467420
嘉義,23.495925,120.432906,0.95,27.0,-1.08,76.89,0.0,-2.81,467480
臺中,24.145736,120.684075,0.56,26.63,-0.12,73.44,5.68,1.44,467490
阿里山,23.508208,120.813242,-0.09,12.71,0.97,88.44,3.22,-6.06,467530
大武,22.35572,120.90374,0.34,26.76,-0.07,74.78,0.01,-2.77,467540
玉山,23.48718,120.95943,0.28,5.58,4.07,84.22,3.11,-5.47,467550
新竹,24.827853,121.014219,0.91,25.61,1.3,77.67,6.43,0.77,467571
恆春,22.003897,120.746339,0.81,27.93,-1.96,71.22,0.02,-1.74,467590
成功,23.097486,121.373428,0.04,25.04,1.48,81.89,2.72,-2.36,467610
日月潭,23.881325,120.90805,0.39,21.17,4.82,87.78,11.79,4.19,467650
臺東,22.752211,121.154586,0.14,26.18,1.09,77.56,1.52,-1.95,467660
馬祖,26.169467,119.923158,1.17,21.28,3.06,88.89,0.25,-4.03,467990
山佳,24.974944,121.402008,0.96,25.69,-3.69,75.33,9.5,4.65,C0A520
坪林,24.938183,121.70975,1.1,23.01,-3.65,87.33,13.78,6.49,C0A530
泰平,24.971197,121.823711,0.11,20.87,-1.55,93.0,12.78,4.39,C0A550
桶後,24.848222,121.597992,0.33,21.78,-4.36,87.67,8.94,1.54,C0A570
石碇,24.993969,121.662917,0.82,22.98,-7.2,81.67,13.67,5.22,C0A640
大坪,25.165914,121.632969,1.13,22.84,-4.18,84.56,8.56,-0.98,C0A860
五指山,25.132153,121.608692,1.43,21.1,-4.76,88.33,7.39,0.78,C0A870
雙溪,25.036003,121.864242,0.91,23.89,-4.11,85.33,14.67,7.76,C0A890
三和,25.233153,121.595236,0.4,22.58,-5.28,85.78,5.89,-3.32,C0A931
金山,25.223628,121.643967,0.67,24.03,-6.98,77.56,6.17,-2.01,C0A940
鼻頭角,25.129036,121.923372,1.37,24.74,-5.05,82.56,8.78,5.47,C0A950
三貂角,25.007606,122.002058,0.87,24.08,1.2,84.33,7.72,1.39,C0A970
社子,25.109508,121.469681,1.21,26.09,-1.19,76.33,7.94,2.68,C0A980
天母,25.117494,121.537169,0.64,25.52,-6.28,68.0,6.83,1.92,C0A9C0
內湖,25.079422,121.57545,1.25,26.23,-4.73,71.33,8.94,4.18,C0A9F0
大屯山,25.175675,121.522408,1.64,19.26,1.76,94.78,7.78,1.53,C0AC40
三峽,24.939025,121.369728,2.01,26.59,-3.16,76.89,9.61,4.07,C0AC60
文山,25.00235,121.575728,0.37,24.46,-6.58,75.89,11.89,4.39,C0AC80
新莊,25.051478,121.446756,0.48,25.63,-4.26,70.11,8.78,3.98,C0ACA0
八里,25.150211,121.403947,1.83,26.41,1.15,80.11,6.0,0.73,C0AD10
蘆洲,25.086594,121.472331,1.23,26.52,-4.22,71.56,8.06,3.54,C0AD30
土城,24.973208,121.445169,0.67,24.91,-1.98,78.56,10.17,4.45,C0AD40
鶯歌,24.951533,121.346294,1.88,26.28,-4.78,78.22,7.94,2.99,C0AD50
汐止,25.066881,121.658778,0.81,24.87,-8.42,75.0,10.17,2.34,C0AH00
永和,25.01125,121.508111,1.56,26.4,-4.07,72.89,10.44,4.71,C0AH10
五分山,25.07125,121.780794,1.0,20.74,-2.96,91.44,10.22,1.65,C0AH30
平等,25.129142,121.577086,0.18,22.43,-7.72,78.78,8.0,4.4,C0AH40
松山,25.04871,121.55042,0.67,25.84,0.17,68.67,9.56,5.06,C0AH70
深坑,25.002703,121.628328,1.39,24.66,-2.79,80.38,13.39,7.29,C0AH80
福山植物園,24.760717,121.58135,-0.06,19.13,0.6,94.33,10.89,0.04,C0AH90
五股,25.07445,121.42728,0.6,23.68,-8.76,78.44,8.39,3.44,C0AI00
屈尺,24.92184,121.54475,1.45,25.18,-2.3,80.67,13.44,5.23,C0AI10
白沙灣,25.283128,121.519058,1.13,24.3,3.52,82.67,3.28,-3.27,C0AI20
三重,25.057328,121.500629,-1.5,26.29,-4.42,76.78,6.17,5.37,C0AI30
石牌,25.115597,121.513139,1.88,26.93,-0.9,71.0,7.11,2.99,C0AI40
七堵,25.094819,121.71713,2.4,25.76,-8.83,78.67,9.11,-0.44,C0B010
基隆嶼,25.19141,121.78391,1.06,24.04,1.71,90.11,3.06,-8.94,C0B020
復興,24.820208,121.352281,0.88,22.36,-3.81,80.67,10.17,1.8,C0C460
桃園,24.992425,121.323172,1.13,25.59,-1.79,71.0,9.39,4.24,C0C480
八德,24.928708,121.283289,0.85,24.96,-6.76,72.67,8.33,2.56,C0C490
觀音,25.027072,121.153317,0.55,24.14,6.36,86.22,8.39,2.94,C0C590
蘆竹,25.084275,121.265767,0.78,25.01,-2.31,78.11,6.11,1.61,C0C620
大溪,24.882853,121.265547,1.0,24.06,0.34,77.78,7.28,2.45,C0C630
平鎮,24.897503,121.214636,1.29,24.23,-1.22,78.0,10.17,5.03,C0C650
楊梅,24.912375,121.143047,0.73,24.67,-1.2,76.89,8.28,2.92,C0C660
龍潭,24.870056,121.221389,0.93,23.97,-1.44,78.78,7.78,1.46,C0C670
龜山,25.02846,121.38656,-0.06,23.08,-4.26,74.67,9.22,5.61,C0C680
中壢,24.977661,121.256375,1.08,24.89,-3.07,72.67,6.94,2.16,C0C700
大溪永福,24.892936,121.324975,1.59,24.19,-3.62,81.78,9.0,0.45,C0C710
梅花,24.678347,121.208558,0.39,21.83,0.52,87.78,11.28,3.89,C0D360
峨眉,24.6905,121.017189,0.49,24.27,2.86,89.22,11.0,5.23,C0D430
打鐵坑,24.849664,121.150789,0.6,22.96,-1.61,83.56,6.67,1.49,C0D480
橫山,24.71116,121.11693,0.4,23.2,10.4,95.33,11.89,5.59,C0D540
雪霸,24.526972,121.11605,0.16,15.7,-4.28,81.0,14.89,6.59,C0D550
竹東,24.767147,121.057881,1.92,25.46,-14.25,61.22,11.0,6.24,C0D560
寶山,24.735006,121.025192,0.81,23.74,1.57,86.56,13.89,8.39,C0D580
新豐,24.87068,120.97721,0.73,24.16,7.6,88.56,8.33,3.35,C0D590
湖口,24.904794,121.043628,0.86,25.02,-5.49,76.67,8.61,4.35,C0D650
新竹市東區,24.798681,120.986942,0.04,24.96,0.89,77.44,7.06,1.66,C0D660
竹南,24.708978,120.888897,1.63,26.09,3.27,83.11,5.78,0.65,C0E420
南庄,24.601775,121.000214,0.25,23.22,1.59,86.89,15.39,8.25,C0E430
明德,24.583486,120.885411,1.06,25.38,-3.17,81.11,9.33,3.63,C0E550
通霄,24.471892,120.704622,0.53,25.12,0.43,84.44,7.06,2.22,C0E590
馬都安,24.451272,120.930192,0.55,21.67,4.14,83.67,8.5,2.09,C0E610
頭份,24.688247,120.912206,1.65,26.62,1.26,76.89,8.94,3.98,C0E730
造橋,24.637056,120.864778,0.37,25.24,-1.51,81.78,8.06,2.42,C0E740
苗栗,24.564569,120.824575,0.55,25.78,-4.87,72.44,7.83,1.72,C0E750
銅鑼,24.489681,120.790853,0.61,25.18,-3.03,79.11,8.0,2.36,C0E780
西湖,24.562947,120.7485,0.65,24.83,-0.68,86.44,7.75,2.11,C0E810
獅潭,24.539133,120.920042,0.36,24.22,-4.72,81.67,12.11,4.74,C0E820
苑裡,24.439714,120.653053,0.23,25.41,-0.76,80.11,6.83,1.6,C0E830
大河,24.618069,120.948578,-1.74,22.71,0.16,83.78,10.83,5.07,C0E850
高鐵苗栗,24.60725,120.826094,0.46,25.29,17.2,94.67,8.06,1.09,C0E870
石岡,24.276061,120.777644,1.19,25.48,3.96,85.56,4.28,-2.96,C0F0B0
中坑,24.248517,120.903319,-0.77,19.82,-3.41,87.44,13.39,0.32,C0F0C0
審馬陣,24.381675,121.4203,-0.48,8.71,-2.36,83.44,4.94,-2.17,C0F0D0
東勢,24.246428,120.833047,1.68,25.79,-5.38,75.67,7.06,0.65,C0F850
大坑,24.173142,120.722289,1.35,27.24,-2.06,74.89,5.17,0.23,C0F970
神岡,24.272481,120.658314,0.39,25.18,-6.74,77.11,3.0,-1.96,C0F9I0
大安,24.345061,120.588025,0.17,25.29,-0.53,83.22,5.28,1.35,C0F9K0
后里,24.310436,120.729725,1.04,25.79,-6.22,77.11,4.11,-1.51,C0F9L0
豐原,24.254322,120.720692,1.94,27.04,-6.19,73.33,3.44,-2.17,C0F9M0
大里,24.092464,120.701378,0.37,27.08,5.42,80.33,6.11,1.29,C0F9N0
潭子,24.213106,120.703933,2.77,28.84,1.75,78.67,3.06,-2.22,C0F9O0
清水,24.312297,120.562242,0.3,25.76,-1.87,81.78,4.11,0.03,C0F9P0
外埔,24.347817,120.705686,0.62,25.31,-2.68,82.78,5.0,-0.06,C0F9Q0
龍井,24.184536,120.528972,0.49,26.19,-6.96,79.22,2.83,-2.16,C0F9R0
烏日,24.107058,120.624103,0.63,26.78,-3.53,72.89,4.44,-0.07,C0F9S0
西屯,24.179494,120.641275,0.55,26.5,-5.17,72.33,2.94,-1.98,C0F9T0
南屯,24.137006,120.637969,0.24,26.76,-2.5,72.78,4.0,-0.44,C0F9U0
新社,24.200172,120.815806,0.78,24.0,-5.62,78.33,6.78,-0.04,C0F9V0
大雅(中科園區),24.21528,120.62445,-0.17,25.48,0.2,78.22,4.22,-2.39,C0F9X0
桃山,24.432739,121.303808,-0.39,8.2,2.4,82.44,10.06,-1.02,C0F9Y0
雪山東峰,24.388792,121.268675,-0.22,8.97,-0.81,79.89,9.28,-0.82,C0F9Z0
芬園,24.015678,120.6213,-0.08,25.38,4.26,85.67,2.56,-1.23,C0G620
員林,23.946503,120.585597,2.67,28.78,-8.2,74.0,2.28,-0.66,C0G650
溪湖,23.94835,120.479122,2.38,28.2,8.04,94.11,1.33,-2.08,C0G660
溪州,23.851589,120.499093,0.44,26.31,-5.31,75.33,1.44,-2.57,C0G720
二林,23.903325,120.376081,0.22,25.88,0.6,87.44,1.44,-2.12,C0G730
大城,23.852487,120.320935,0.42,26.04,-18.72,61.86,2.44,-1.44,C0G740
福興,24.041289,120.437669,0.63,26.84,-4.4,77.56,4.5,0.93,C0G770
秀水,24.03405,120.503869,1.01,26.97,-1.4,80.78,4.67,1.28,C0G780
田尾,23.901669,120.509389,0.93,26.96,0.46,83.89,3.17,-0.2,C0G820
埤頭,23.866003,120.452806,0.92,26.37,-2.25,87.0,3.11,0.27,C0G830
社頭,23.897647,120.5862,1.05,27.63,2.79,79.89,1.33,-2.62,C0G860
伸港,24.148933,120.484403,0.26,25.98,-3.04,79.56,2.94,-0.83,C0G890
線西,24.143358,120.443536,-2.07,26.02,1.58,80.78,2.56,2.56,C0G900
花壇,24.032076,120.549461,-0.15,28.16,12.33,84.33,3.83,3.83,C0G910
埔里,23.972169,120.952425,0.34,24.71,-1.86,79.22,5.11,-3.17,C0H890
草屯,23.973672,120.68085,0.53,26.48,-3.6,74.0,2.5,-1.84,C0H960
昆陽,24.121322,121.273642,-0.2,8.34,-0.16,88.0,6.5,-1.29,C0H990
神木村,23.532742,120.843667,0.3,17.76,0.38,88.44,6.39,-0.39,C0H9A0
合歡山,24.143442,121.272547,0.69,7.69,-1.27,90.33,8.5,-6.4,C0H9C0
廬山,24.033311,121.181808,0.2,18.03,-1.52,81.44,8.28,-1.09,C0I010
信義,23.689694,120.851036,-0.14,23.49,-1.86,81.56,10.5,4.21,C0I080
竹山,23.761225,120.688156,0.92,26.11,-5.11,79.44,3.22,-0.35,C0I110
水里,23.812553,120.849792,0.43,25.26,-3.96,76.0,10.44,6.09,C0I360
魚池,23.895703,120.94135,0.39,23.36,-5.9,79.0,11.72,3.05,C0I370
集集,23.828206,120.801467,0.16,25.66,-2.69,78.11,8.11,2.27,C0I380
仁愛,24.022122,121.132206,0.18,19.97,-5.7,81.0,10.33,-1.23,C0I390
名間,23.837053,120.701447,-0.03,25.61,-0.41,77.67,4.5,0.58,C0I410
國姓,24.037803,120.855072,0.13,25.14,-3.44,79.0,5.5,-1.58,C0I420
南投,23.911469,120.687331,0.24,26.78,2.42,78.0,0.78,-4.29,C0I460
梅峰,24.085272,121.173572,-0.29,13.86,-0.23,88.11,10.28,-2.0,C0I480
萬大林道,23.928228,121.091411,0.16,17.84,-6.17,82.11,17.56,7.91,C0I490
小奇萊,24.131764,121.295717,-0.34,8.23,-1.59,88.78,7.94,-19.61,C0I530
崙背,23.75555,120.318925,0.03,25.74,-2.17,81.67,0.33,-2.28,C0K250
四湖,23.630414,120.227125,0.99,26.87,-4.42,78.0,0.0,-2.21,C0K280
宜梧,23.536281,120.169329,0.91,26.62,-2.07,79.67,0.0,-2.78,C0K291
虎尾,23.719183,120.442036,0.93,27.04,-0.24,79.33,0.44,-2.28,C0K330
土庫,23.679029,120.395574,0.62,26.6,-6.78,74.78,0.0,-2.63,C0K390
斗六,23.720583,120.541127,0.41,26.64,-5.72,73.56,1.61,-1.61,C0K400
北港,23.573957,120.292802,0.55,26.77,-6.36,74.78,0.0,-1.7,C0K410
西螺,23.800407,120.467394,0.33,26.54,-3.96,76.56,0.89,-1.97,C0K420
褒忠,23.690938,120.303634,0.58,26.29,-4.8,78.56,0.0,-2.23,C0K430
二崙,23.772797,120.408944,0.27,26.13,0.31,82.33,0.11,-2.35,C0K440
大埤,23.646074,120.431537,0.67,26.83,-5.68,75.22,0.0,-2.26,C0K450
斗南,23.678734,120.478359,0.64,26.77,-2.1,75.44,0.72,-2.09,C0K460
林內,23.748675,120.609642,0.28,26.04,-5.0,77.22,2.5,-1.61,C0K470
莿桐,23.761192,120.502372,0.32,26.22,-5.67,76.89,0.5,-3.15,C0K480
元長,23.64981,120.315024,0.61,26.69,-1.38,77.44,0.0,-2.46,C0K500
水林,23.572924,120.24597,0.8,26.99,-4.18,76.78,0.0,-2.14,C0K510
臺西,23.701547,120.197559,0.13,25.96,0.46,81.22,0.11,-2.11,C0K530
蔦松,23.514319,120.229736,0.45,26.88,-2.19,78.22,0.0,-1.79,C0K550
棋山,23.68645,120.603417,0.44,26.42,-0.05,79.11,0.5,-3.31,C0K560
高鐵雲林,23.737456,120.417944,0.6,26.31,-4.8,79.33,0.0,-4.55,C0K580
東後寮,23.369908,120.248065,0.58,26.68,-3.16,79.0,0.0,-2.8,C0M520
奮起湖,23.493903,120.699253,0.58,18.94,0.96,90.56,3.44,-4.1,C0M530
中埔,23.42538,120.5229,0.48,26.52,-5.95,72.11,0.06,-3.81,C0M640
朴子,23.43463,120.23902,0.14,26.23,-2.36,79.22,0.0,-2.05,C0M650
溪口,23.604131,120.403569,0.66,26.64,-7.08,75.33,0.17,-1.84,C0M660
大林,23.600616,120.45841,0.6,27.12,-4.84,72.0,0.0,-3.16,C0M670
太保,23.455062,120.331455,0.39,26.96,-6.68,74.0,0.0,-1.87,C0M680
水上,23.419734,120.388909,0.71,26.94,-4.24,75.44,0.0,-3.05,C0M690
竹崎,23.526178,120.555508,0.53,26.43,-4.95,75.89,0.5,-2.48,C0M700
東石,23.458927,120.15385,0.3,26.66,-5.69,76.22,0.0,-1.89,C0M710
番路,23.464657,120.554156,0.53,26.12,-3.04,75.0,0.06,-4.49,C0M720
嘉義市東區,23.457673,120.460531,0.93,28.11,-2.63,70.89,0.0,-3.41,C0M730
六腳,23.492871,120.290625,0.84,27.0,-4.28,74.78,0.0,-1.46,C0M740
布袋,23.380878,120.167789,0.64,27.02,-6.67,74.67,0.0,-1.77,C0M750
民雄,23.551754,120.428457,0.56,27.13,-5.54,72.78,0.0,-2.22,C0M760
嘉義梅山,23.585398,120.555587,0.48,26.42,-3.81,75.56,0.72,-2.6,C0M770
鹿草,23.41134,120.30835,1.01,27.41,-5.22,74.0,0.0,-2.33,C0M780
新港,23.553269,120.345728,0.68,27.12,-4.82,73.78,0.0,-1.81,C0M790
茶山,23.299075,120.664767,0.36,24.84,-3.48,77.44,3.06,-1.09,C0M800
里佳,23.389125,120.716647,0.19,19.34,-3.21,82.89,1.89,-6.05,C0M810
達邦,23.453994,120.749517,0.32,21.46,0.86,81.22,5.33,-1.07,C0M820
表湖,23.24186,120.64166,0.27,23.16,-5.83,79.67,2.61,-4.17,C0M850
新美,23.338017,120.683169,-1.11,24.39,7.36,77.56,2.56,2.51,C0M860
北寮,23.079561,120.495008,1.08,27.23,-0.17,80.89,0.0,-2.96,C0O830
王爺宮,23.222064,120.40085,3.08,28.83,-9.02,72.67,0.44,-2.14,C0O840
大內,23.11885,120.36083,1.93,28.77,-1.84,79.78,0.0,-3.2,C0O860
善化,23.112883,120.297219,1.38,27.74,-0.29,83.44,0.0,-2.39,C0O900
崎頂,22.959547,120.369317,1.97,27.86,-3.98,76.89,1.17,-2.37,C0O960
虎頭埤,23.021375,120.347878,0.98,27.16,-5.66,75.44,0.33,-3.76,C0O970
新市,23.061614,120.298197,1.92,28.59,-8.52,75.0,0.0,-3.41,C0O980
阿禮,22.742908,120.743678,0.23,21.14,-7.62,79.33,19.44,13.47,C0R130
瑪家,22.682903,120.686639,0.59,23.12,2.32,87.56,0.28,-6.42,C0R140
鹽埔,22.739558,120.530778,0.64,27.46,-4.84,80.67,0.0,-4.2,C0R160
赤山,22.592333,120.614306,1.52,28.43,-5.04,76.89,0.0,-4.0,C0R190
潮州,22.534361,120.54,1.77,28.79,-11.05,69.22,0.0,-3.83,C0R220
來義,22.527306,120.625111,0.73,27.18,-3.0,76.33,0.0,-4.57,C0R240
春日,22.370361,120.628306,-0.14,26.79,-4.68,73.0,0.61,-1.6,C0R260
琉球嶼,22.332244,120.362236,1.51,28.44,-12.59,70.78,0.0,-1.66,C0R270
車城,22.0744,120.716247,-0.32,27.78,-4.77,74.33,0.0,0.0,C0R320
牡丹,22.130036,120.792639,-0.87,25.61,5.87,84.67,0.0,0.0,C0R341
貓鼻頭,21.921774,120.7358,0.87,27.49,-8.27,74.33,0.22,-1.85,C0R350
大漢山,22.405264,120.753181,-0.93,16.76,5.22,93.22,0.33,0.03,C0R440
高樹,22.826389,120.600806,0.96,28.1,-5.21,69.78,0.11,-4.03,C0R470
長治,22.693128,120.542622,2.03,29.31,-13.19,67.22,0.11,-3.91,C0R480
九如,22.7405,120.490503,1.73,28.91,-10.11,71.22,0.0,-4.01,C0R490
崁頂,22.514781,120.506914,1.11,28.17,-10.13,72.33,0.0,-4.29,C0R520
佳冬,22.419456,120.552375,0.92,27.89,-5.38,74.33,0.0,-2.79,C0R540
新埤,22.467947,120.582894,1.07,27.96,-11.65,69.78,0.0,-2.94,C0R550
新園,22.5434,120.461558,2.13,29.26,-13.11,67.89,0.28,-3.09,C0R560
麟洛,22.65078,120.52719,2.41,29.72,-5.54,72.44,0.22,-3.37,C0R570
南州,22.48591,120.50274,0.98,27.82,-3.24,77.44,0.0,-3.83,C0R580
里港,22.77919,120.49459,1.16,28.2,-5.69,73.56,0.0,-3.28,C0R590
舊泰武,22.588194,120.664944,1.16,23.6,-6.87,79.67,0.0,-6.56,C0R600
墾雷,21.900836,120.855269,0.41,26.89,2.83,84.78,0.0,-2.99,C0R620
東港,22.46247,120.44074,1.7,28.17,-15.71,69.89,0.0,-9.07,C0R640
竹田,22.58486,120.54344,1.82,28.5,-15.44,71.11,0.0,-7.55,C0R650
枋寮,22.367722,120.590647,0.07,27.62,-1.37,79.33,1.44,1.44,C0R660
楓港,22.190131,120.692156,-0.83,27.04,-8.02,70.78,0.0,0.0,C0R670
佳樂水,21.993578,120.861633,-0.94,27.1,-2.39,76.11,0.06,0.06,C0R680
墾丁,21.966756,120.810269,-0.14,25.88,-6.51,79.89,0.06,0.06,C0R690
枋山,22.246844,120.661086,0.14,27.69,-7.22,71.78,0.0,0.0,C0R700
龍磐,21.931672,120.838942,-0.74,26.51,-4.09,80.11,0.0,-0.3,C0R710
旭海,22.205403,120.887614,-1.27,25.34,-1.88,79.22,0.06,0.06,C0R720
大坪頂,22.024633,120.69355,-0.34,26.79,0.01,82.11,0.0,-0.05,C0R730
四林格山,22.076989,120.802439,-0.57,23.4,-4.87,87.33,0.11,0.06,C0R750
南仁湖,22.084681,120.863353,-1.31,24.1,7.79,91.89,0.39,0.19,C0R760
保力,22.071122,120.764111,-0.2,26.4,-4.02,78.78,0.0,0.0,C0R770
滿州,22.024403,120.839892,-0.95,26.47,-1.5,77.0,0.28,0.28,C0R780
九棚,22.14195,120.889281,-1.25,26.53,0.97,76.67,0.06,0.01,C0R790
丹路,22.204481,120.750989,-0.44,26.82,-4.29,74.11,0.0,0.0,C0R800
內獅,22.305064,120.642986,0.1,27.78,13.24,90.44,0.0,0.0,C0R810
白鷺,22.454275,120.666219,0.21,25.14,-3.71,75.89,0.0,-0.4,C0R820
高士,22.121825,120.836781,-1.2,24.12,1.2,84.0,0.17,0.17,C0R830
牡丹池山,22.168389,120.841225,-1.31,23.09,2.34,88.44,0.0,0.0,C0R840
下馬,23.150427,121.070312,-1.24,22.5,12.03,89.33,0.67,0.67,C0S660
太麻里,22.60902,120.98533,0.49,22.69,3.18,89.78,0.5,-2.95,C0S690
知本,22.684866,121.005642,0.46,22.77,3.51,91.11,1.44,-2.66,C0S700
鹿野,22.917711,121.122994,0.56,23.24,2.64,88.44,0.11,-2.15,C0S710
綠島,22.6672,121.47533,0.69,25.71,-5.14,83.56,3.17,-0.87,C0S730
池上,23.119628,121.209469,0.24,23.62,1.44,87.44,1.0,-0.43,C0S740
向陽,23.248397,120.986133,1.42,14.87,22.03,94.33,10.5,4.97,C0S750
大溪山,22.478475,120.943325,0.05,23.03,2.26,89.56,0.78,-3.11,C0S770
金崙,22.538122,120.966875,0.56,25.52,2.69,80.89,0.78,-2.37,C0S790
東河,22.972672,121.303986,-0.49,25.38,-1.24,84.56,0.67,-3.63,C0S810
長濱,23.286817,121.411975,0.21,24.18,-4.54,83.56,6.94,2.24,C0S830
南田,22.279725,120.889208,0.88,27.11,-8.36,72.44,0.0,-3.08,C0S840
關山,23.0395,121.175017,-0.7,24.42,1.43,85.33,1.0,0.46,C0S890
蘭嶼高中,22.04909,121.51214,1.16,27.23,4.37,83.67,1.44,-5.03,C0S900
蘭嶼燈塔,22.081197,121.503117,1.1,25.61,5.56,90.56,0.67,-3.91,C0S910
金峰嘉蘭,22.594789,120.960825,-1.86,25.42,4.24,82.44,0.44,0.39,C0S920
延平,22.902581,121.084058,-1.74,24.16,4.62,84.22,0.11,-0.54,C0S930
石寧山,23.223772,121.406639,-1.52,24.81,-2.64,85.56,6.78,1.38,C0S940
七塊厝,22.954453,121.229922,-0.03,24.77,-4.97,83.33,3.67,3.27,C0S950
香蘭,22.587569,120.993375,-1.22,26.38,5.68,82.78,0.39,0.29,C0S960
加津林,22.416211,120.926942,-1.15,26.33,0.66,77.56,0.11,-0.35,C0S970
勝林山,22.430439,120.8938,-2.39,20.79,4.73,90.33,1.17,1.12,C0S980
山豬窟,22.318619,120.857372,-1.51,24.3,0.87,81.67,0.22,-0.43,C0S990
歷坵,22.520969,120.89185,-1.73,23.1,3.37,88.67,1.39,1.39,C0SA00
檳榔四格山,22.810031,121.109308,-2.02,23.24,5.12,90.22,0.78,0.18,C0SA10
金崙山,22.567419,120.959667,-1.45,21.11,-0.02,89.78,2.22,1.97,C0SA20
都歷,23.020333,121.323642,-0.9,25.31,-7.06,77.44,0.83,-7.44,C0SA30
瑞和,22.974361,121.156697,-1.87,24.21,13.8,97.0,1.44,1.34,C0SA40
知本（水試所）,22.702394,121.082761,-1.54,25.82,1.72,82.22,0.39,-0.06,C0SA60
土坂,22.453108,120.887572,-1.34,25.53,7.08,82.78,0.28,0.28,C0SA80
達仁林場,22.264347,120.823972,-1.18,23.69,3.07,84.67,0.06,0.01,C0SA90
大禹嶺,24.186117,121.316086,-0.56,10.7,-0.46,83.0,6.56,0.57,C0T790
天祥,24.179597,121.495639,0.09,21.24,0.06,84.56,3.67,1.2,C0T820
鯉魚潭,23.935639,121.508944,-0.7,22.1,0.4,91.67,10.33,5.82,C0T870
西林,23.8119,121.441458,0.52,23.54,2.56,86.22,6.39,0.43,C0T900
光復,23.660694,121.424964,0.34,23.94,-3.42,86.56,8.39,3.84,C0T960
月眉山,23.809928,121.539828,0.38,21.74,-4.57,91.33,0.08,-4.55,C0T9A0
水源,23.991861,121.537169,0.33,21.21,-4.79,88.44,11.67,5.76,C0T9B0
和中,24.26676,121.74103,-0.32,23.84,9.94,99.78,10.0,3.87,C0T9D0
大坑,23.880628,121.581981,0.26,21.97,-0.33,91.33,13.0,6.1,C0T9E0
水璉,23.797131,121.542514,-0.1,23.23,-1.6,88.0,13.5,7.66,C0T9F0
鳳林山,23.735269,121.420131,-0.52,21.19,-4.31,91.22,9.89,3.92,C0T9G0
加路蘭山,23.682947,121.5274,0.66,21.16,3.17,98.67,11.94,3.84,C0T9H0
豐濱,23.583897,121.514806,0.51,23.57,-5.77,85.67,16.56,8.86,C0T9I0
靜浦,23.455167,121.495028,0.2,24.34,-1.14,88.56,16.78,11.25,C0T9M0
富里,23.171639,121.249378,-0.9,24.9,14.73,98.33,3.83,3.33,C0T9N0
雙連埤,24.753033,121.641303,-0.19,19.98,-4.83,91.33,12.33,3.83,C0U520
礁溪,24.817539,121.765608,0.09,23.93,-6.86,81.44,9.56,3.31,C0U600
玉蘭,24.675286,121.587061,0.17,21.61,-4.8,83.33,12.83,6.94,C0U650
太平山,24.505486,121.525656,0.23,15.07,-1.31,91.22,8.78,4.11,C0U710
南山,24.43742,121.38167,0.29,18.07,-9.91,87.89,5.89,-1.38,C0U720
龜山島,24.841667,121.953133,-0.32,21.44,-6.23,87.0,6.61,3.58,C0U750
東澳,24.52196,121.83318,-0.52,23.57,-4.41,85.22,14.39,9.09,C0U760
南澳,24.44935,121.81022,-0.69,23.64,-0.26,85.44,8.11,4.38,C0U770
五結,24.68637,121.79794,-0.65,23.38,-1.28,85.22,0.0,-4.99,C0U780
頭城,24.85323,121.8308,0.22,23.93,-0.99,86.44,9.94,5.48,C0U860
大礁溪,24.791042,121.675047,0.56,21.39,-0.17,89.33,11.67,3.35,C0U870
三星,24.66812,121.65302,0.04,23.01,-7.96,82.78,8.94,1.38,C0U890
內城,24.71813,121.68766,0.5,23.63,-4.31,84.89,8.61,2.01,C0U900
冬山,24.63373,121.7937,0.1,23.79,-1.0,81.33,10.28,2.86,C0U910
羅東,24.68184,121.74934,0.4,23.8,-2.3,85.11,9.94,2.28,C0U940
鶯子嶺,24.89754,121.79244,0.96,18.22,-12.9,85.33,13.5,3.0,C0U950
翠峰湖,24.510856,121.608044,0.31,14.03,0.7,94.67,8.89,1.42,C0U960
大福,24.80064,121.81389,-0.12,23.46,-0.02,83.44,8.28,3.16,C0U970
坪林石牌,24.86478,121.77396,0.65,20.49,1.43,91.89,12.22,3.44,C0U980
員山,24.74435,121.72247,0.11,23.68,0.82,85.89,9.39,3.54,C0U990
土場,24.576533,121.495333,0.01,21.7,-2.31,86.56,8.28,-0.54,C0UA00
鴛鴦湖,24.590269,121.412228,0.55,15.33,-0.09,95.11,9.28,-1.11,C0UA10
白嶺,24.527819,121.519031,0.59,17.12,-4.11,92.22,9.72,0.19,C0UA30
西德山,24.560647,121.752608,1.1,18.46,-7.74,88.89,16.94,7.08,C0UA40
西帽山,24.555361,121.802628,0.99,19.8,-10.86,84.44,25.56,11.97,C0UA50
樟樹山,24.41393,121.78325,0.42,20.98,5.07,94.5,10.44,4.89,C0UA60
桃源谷,24.962606,121.888875,0.77,20.77,-2.64,92.89,11.17,3.08,C0UA70
復興,23.222403,120.806089,0.68,23.31,-1.46,78.33,2.72,-5.1,C0V210
溪埔,22.738578,120.446797,1.27,28.11,-3.55,73.33,0.11,-3.5,C0V350
內門,22.975481,120.466769,1.77,27.76,-4.18,75.89,0.44,-2.92,C0V360
古亭坑,22.893178,120.401947,1.21,27.49,-7.78,75.56,0.0,-2.42,C0V370
阿公店,22.804194,120.355528,0.91,27.39,-8.72,73.33,0.0,-2.59,C0V400
鳳山,22.646653,120.356122,0.66,28.06,1.94,76.11,0.0,-3.81,C0V440
鳳森,22.545064,120.392592,1.32,28.12,-10.29,70.89,0.0,-3.4,C0V450
新興,22.627422,120.298803,1.42,28.62,-8.44,69.22,0.0,-3.51,C0V490
梓官,22.760558,120.267211,0.92,27.93,-6.37,72.67,0.0,-3.16,C0V610
永安,22.82315,120.236856,0.84,27.56,-8.56,73.78,0.0,-3.45,C0V620
茄萣,22.906642,120.182608,1.19,27.96,-1.71,75.89,0.0,-3.54,C0V630
湖內,22.887139,120.2445,0.59,27.38,-6.83,72.67,0.0,-3.34,C0V640
彌陀,22.783806,120.246361,1.42,28.22,-6.01,75.22,0.0,-3.03,C0V650
岡山,22.797078,120.294958,1.56,28.91,-8.32,69.0,0.0,-2.87,C0V660
仁武,22.701083,120.347722,1.46,28.93,-6.95,70.44,0.0,-3.16,C0V680
鼓山,22.623325,120.275575,0.76,27.89,-9.94,70.78,0.0,-4.13,C0V690
三民,22.645017,120.311233,0.81,28.51,-2.65,70.33,0.0,-3.86,C0V700
苓雅,22.622742,120.330669,1.56,29.04,0.63,73.11,0.06,-3.62,C0V710
林園,22.507747,120.394511,1.51,29.38,-5.03,69.89,0.0,-3.4,C0V720
大寮,22.605614,120.395717,0.98,28.5,-4.63,71.22,0.22,-3.51,C0V730
旗山,22.888614,120.483597,2.11,28.97,-6.41,69.89,0.0,-3.34,C0V740
路竹,22.854997,120.259439,1.69,28.74,-7.24,69.78,0.0,-3.5,C0V750
橋頭,22.757806,120.30575,1.44,28.89,-9.11,68.89,0.0,-2.95,C0V760
萬山,22.905944,120.688056,1.46,26.14,-5.95,72.33,0.67,-5.25,C0V790
六龜,22.997889,120.633583,1.0,27.01,-2.11,74.22,1.33,-4.6,C0V800
左營,22.67491,120.28491,0.44,27.62,-5.69,73.56,0.0,-3.73,C0V810
小林,23.148408,120.63325,1.04,25.51,-2.96,77.44,0.0,-6.9,C0V820
花嶼,23.40007,119.32276,0.62,25.01,0.29,85.89,0.11,-1.43,C0W130
金寧,24.457703,118.328989,0.71,24.57,-3.98,76.67,0.39,-8.19,C0W150
東河,23.296598,120.385608,0.73,27.38,-8.71,71.33,0.0,-2.6,C0X050
下營,23.22695,120.256261,0.74,27.34,-5.03,74.33,0.0,-1.39,C0X060
佳里,23.173039,120.145086,0.99,27.64,-2.75,77.11,0.0,-2.58,C0X080
臺南市南區,22.961189,120.188378,1.47,28.46,-4.88,74.33,0.0,-3.54,C0X110
麻豆,23.183289,120.248611,1.81,28.43,-2.73,77.44,0.0,-2.28,C0X120
官田,23.193217,120.315422,1.48,28.13,-1.07,78.33,0.06,-2.31,C0X130
西港,23.125608,120.203108,1.03,27.74,-7.25,74.78,0.0,-2.78,C0X140
安定,23.102614,120.227839,1.54,27.98,-3.5,78.33,0.0,-2.92,C0X150
仁德,22.968258,120.257689,1.68,28.53,-3.11,75.44,0.0,-4.01,C0X160
關廟,22.963017,120.327797,-0.44,26.72,-1.0,74.8,0.0,-4.99,C0X170
山上,23.0757,120.363253,1.4,27.72,-3.73,77.67,0.83,-2.34,C0X180
安平,22.993161,120.152181,1.24,27.96,-15.12,66.56,0.0,-3.82,C0X190
左鎮,23.056758,120.408522,2.04,27.81,-5.41,77.89,0.0,-2.98,C0X200
白河,23.347466,120.414427,0.61,27.09,-3.7,74.44,0.0,-3.09,C0X210
學甲,23.230367,120.182187,0.86,27.24,-2.13,75.89,0.0,-2.24,C0X220
鹽水,23.272621,120.247641,0.54,26.9,-1.72,77.22,0.0,-1.88,C0X230
關子嶺,23.331169,120.508025,0.35,24.74,0.52,83.78,0.56,-3.05,C0X240
新營,23.310689,120.316681,0.69,27.53,-3.36,73.22,0.0,-1.6,C0X250
後壁,23.366358,120.362326,0.81,27.19,-5.87,73.89,0.0,-1.92,C0X260
將軍,23.214999,120.13577,0.43,26.84,-2.8,76.56,0.0,-2.27,C0X280
北門,23.267772,120.125481,0.47,26.9,-3.56,77.44,0.0,-1.97,C0X290
鹿寮,23.386047,120.477331,0.51,26.41,-4.7,77.0,0.0,-3.23,C0X300
柳營,23.253328,120.375253,-0.74,27.48,0.37,73.67,0.17,0.12,C0X320
明里,23.208717,121.262342,0.27,23.49,-0.82,90.44,3.67,0.53,C0Z020
佳心,23.34567,121.21316,0.17,20.17,6.0,95.0,1.67,-0.51,C0Z050
玉里,23.3215,121.339656,0.76,24.34,4.19,91.22,3.83,0.59,C0Z061
舞鶴,23.46811,121.37407,0.36,23.2,8.4,99.33,5.17,2.48,C0Z070
富源,23.587642,121.378225,0.66,23.32,-2.42,89.11,5.28,-0.63,C0Z080
東華,23.89525,121.549833,0.01,23.94,-0.58,89.89,6.67,1.11,C0Z100
吉安光華,23.930925,121.595153,0.17,23.92,-9.0,79.0,10.83,5.82,C0Z150
鳳林,23.746114,121.453411,0.19,23.51,-4.0,82.67,9.39,4.82,C0Z160
卓溪,23.3443,121.3029,-0.11,24.04,-2.0,80.0,2.22,-0.16,C0Z170
新城,24.040486,121.604878,0.1,24.0,14.71,98.11,11.33,5.95,C0Z180
富世,24.14743,121.6297,0.5,24.27,-6.0,82.0,8.83,4.05,C0Z190
萬榮,23.709219,121.420106,0.42,23.46,-4.82,84.11,7.17,2.75,C0Z200
瑞穗,23.5239,121.39021,0.58,23.92,0.74,87.78,6.61,3.04,C0Z210
和平林道,24.343922,121.656317,-0.14,20.56,-6.16,87.78,3.83,-0.53,C0Z220
和平,24.30717,121.77007,-0.55,23.46,-3.5,78.33,7.56,3.87,C0Z230
瑞穗林道,23.49284,121.30688,0.41,18.64,1.11,97.44,7.83,1.18,C0Z250
蕃薯寮,23.73835,121.540108,0.56,22.32,-5.2,88.0,16.39,11.69,C0Z270
德武,23.47426,121.41071,0.32,23.44,-0.84,88.22,4.5,1.23,C0Z280
赤柯山,23.36893,121.38293,0.7,19.87,-2.86,89.78,5.61,1.14,C0Z290
東里,23.26853,121.30547,0.52,24.09,-4.16,85.11,2.33,-0.7,C0Z300
清水斷崖,24.218294,121.689142,0.19,23.76,-7.46,82.11,7.78,2.31,C0Z310
清水林道,23.27125,121.188272,0.6,21.23,-1.29,87.44,0.0,-4.5,C0Z320
安通山,23.290728,121.348528,0.26,22.14,1.82,90.22,3.17,-0.23,C0Z330
口湖工作站,23.589978,120.180394,1.68,26.51,-2.65,73.75,0.0,-0.14,12J990
東港工作站,22.479997,120.466058,1.84,28.39,-10.35,62.25,0.0,-3.71,12Q970
恆春工作站,22.079678,120.714425,2.94,27.69,1.03,69.62,0.0,-3.35,12Q980
萬大發電廠,23.978875,121.139639,0.91,21.1,-8.14,79.12,10.56,3.44,42HA10
桃改樹林分場,24.944503,121.386972,-2.05,24.81,-1.65,74.25,11.69,10.14,72AI40
桃園農改場,24.950944,121.030583,1.1,25.12,-0.53,81.88,9.75,4.56,72C440
桃改五峰分場,24.612194,121.157167,1.16,20.44,-1.27,86.62,12.19,5.09,72D080
臺中農改場,24.003028,120.534389,0.71,26.21,3.6,85.25,3.06,-0.0,72G600
中改埔里分場,23.903208,120.963364,0.63,22.85,-2.55,86.5,12.62,-1.3,72HA00
南改斗南分場,23.634556,120.477333,1.51,27.24,-3.28,78.25,0.0,-2.55,72K220
南改義竹分場,23.360694,120.279361,1.0,26.92,-6.41,76.75,0.0,-2.55,72M360
南改鹿草分場,23.416869,120.283061,1.85,26.84,-3.05,80.5,0.0,-2.58,72M700
臺南農改場,23.0605,120.342194,1.24,27.41,-1.24,78.5,0.06,-2.33,72N100
七股研究中心,23.081672,120.062894,1.92,27.54,-5.1,77.5,0.0,-4.1,72N240
高雄農改場,22.709333,120.525889,1.41,28.8,-4.69,71.25,0.12,-2.14,72Q010
東改班鳩分場,22.829528,121.077694,0.24,23.92,0.72,84.25,1.06,-1.76,72S200
東改賓朗果園,22.813889,121.071278,-8.48,14.88,-0.95,88.62,2.69,0.05,72S590
花蓮農改場,23.975222,121.563889,-0.04,23.88,0.14,83.12,12.69,8.84,72T250
花改蘭陽分場,24.686306,121.716583,-0.18,23.5,0.65,85.5,10.31,6.78,72U480
高改旗南分場,22.857861,120.516667,-0.28,27.6,2.31,73.5,0.0,-2.2,72V140
茶改北部分場,24.955778,121.631222,0.56,22.25,-1.65,82.0,18.19,10.85,82A750
茶改場,24.908472,121.185333,0.8,24.18,-2.9,79.25,9.0,3.32,82C160
茶改中部分場,23.875611,120.913583,-0.28,21.42,-0.53,86.5,12.69,4.8,82H320
茶改南部分場,23.762528,120.7405,-0.02,24.06,-1.14,83.12,2.0,-1.28,82H840
茶改東部分場,22.907694,121.130139,-0.03,24.59,-1.22,82.25,0.31,-1.94,82S580
農工中心,24.985917,121.239833,1.08,25.04,1.34,74.5,10.38,4.54,A2C560
水試臺西試驗場,23.717231,120.190522,-0.09,26.64,3.21,84.12,0.06,-4.06,A2K360
臺大雲林校區,23.730628,120.423903,-1.51,26.34,6.15,80.25,0.0,0.0,A2K630
臺南蘭花園區,23.340258,120.379661,-0.38,27.26,3.7,78.5,0.0,0.0,A2N290
畜產試驗所,23.058972,120.336406,0.93,27.28,-1.3,78.0,0.0,-2.49,B2N890
畜試南區分所,21.945583,120.802167,0.6,27.4,-6.36,70.75,0.0,-2.45,B2Q810
畜試東區分所,24.669039,121.832561,-1.89,23.55,3.65,90.25,11.81,11.51,B2U990
蓮華池,23.918333,120.885278,-0.51,22.7,2.48,84.5,12.69,5.52,E2H360
林試畢祿溪站,24.226944,121.308522,-2.27,13.34,15.83,87.62,5.62,5.52,E2HA20
四湖植物園,23.676986,120.163433,1.35,26.33,8.17,92.38,0.0,-1.95,E2K600
林試六龜中心,22.991703,120.645722,-1.08,26.26,8.65,77.25,1.5,1.5,E2P980
林試太麻里2,22.598,120.99775,-1.47,26.09,0.33,77.12,0.44,0.34,E2S960
林試太麻里1,22.598922,120.980044,-1.24,25.7,2.83,80.12,0.88,0.88,E2S980
農試所(霧峰),24.031261,120.688133,0.99,26.65,-3.81,77.75,6.0,2.5,G2F820
農試嘉義分所,23.485028,120.473806,1.1,26.61,-2.16,77.38,0.0,-2.92,G2L020
農試溪口農場,23.58565,120.408111,2.87,27.01,-6.64,78.0,0.0,-2.76,G2M350
農試鳳山分所,22.646611,120.356083,0.85,28.49,-2.99,69.12,0.0,-2.24,G2P820
苗栗農改場,24.495722,120.829111,0.7,25.04,-0.44,80.62,11.94,7.08,K2E360
苗改生物防治研究中心,24.422861,120.871833,0.35,23.84,-1.38,82.0,9.25,-1.28,K2E710
種苗改良場,24.225972,120.800917,0.82,24.12,4.18,85.25,7.31,1.5,K2F750
臺大和社,23.590856,120.888864,0.61,22.19,2.18,86.5,4.19,-3.97,U2HA30
臺大內茅埔,23.689722,120.851117,0.43,23.6,-1.85,82.25,11.81,0.74,U2HA40
臺大竹山,23.756972,120.681556,0.89,26.2,-3.09,76.38,3.56,-4.07,U2HA50
