站名,緯度,經度,平均溫距平,本年度平均溫,平均溼度距平,本年度日均相對溼度,本年度日均降水量,日均降水量距平,站號
淡水,25.164889,121.448906,0.79,25.43,-0.51,78.38,6.74,-2.01,466900
鞍部,25.182586,121.529731,0.19,19.7,3.59,90.81,7.61,-4.05,466910
臺北,25.037658,121.514853,0.84,26.36,-2.17,72.71,12.32,3.7,466920
竹子湖,25.162078,121.544547,0.48,21.56,1.75,85.86,8.14,-1.46,466930
基隆,25.133314,121.740475,0.86,25.48,0.32,77.0,10.85,0.76,466940
花蓮,23.975128,121.613275,0.09,25.2,2.39,82.38,10.85,5.11,466990
新屋,25.006725,121.047492,0.55,25.48,-1.94,81.05,7.88,-2.83,467050
宜蘭,24.763975,121.756528,0.32,24.9,1.87,83.38,5.93,-1.21,467080
金門,24.407306,118.289281,1.19,24.06,4.4,87.19,3.93,-2.13,467110
田中,23.873803,120.581286,-0.66,26.88,-4.1,76.86,4.63,-3.6,467270
澎湖,23.565503,119.563094,0.61,26.38,-1.12,81.43,1.11,-3.29,467350
臺南,22.99328,120.20492,0.61,28.11,-2.99,71.57,1.7,-3.67,467410
永康,23.038386,120.2367,0.98,28.13,0.07,72.48,2.25,-3.22,467420
嘉義,23.495925,120.432906,0.6,26.95,0.37,78.9,2.37,-3.23,467480
臺中,24.145736,120.684075,0.57,26.93,-1.38,73.57,6.24,-2.1,467490
阿里山,23.508208,120.813242,-0.1,13.01,0.85,89.76,6.91,-9.17,467530
大武,22.35572,120.90374,0.5,27.19,-0.42,75.76,1.58,-3.38,467540
玉山,23.48718,120.95943,0.52,6.26,0.23,81.05,6.67,-6.36,467550
新竹,24.827853,121.014219,0.96,26.15,-1.59,75.57,7.84,-0.8,467571
恆春,22.003897,120.746339,0.9,28.27,-0.95,73.95,1.11,-3.15,467590
成功,23.097486,121.373428,0.34,25.69,2.73,83.81,9.0,3.78,467610
日月潭,23.881325,120.90805,0.35,21.38,4.57,88.38,9.08,-2.37,467650
臺東,22.752211,121.154586,0.34,26.71,1.96,79.24,7.04,2.28,467660
馬祖,26.169467,119.923158,1.53,22.27,3.51,90.1,5.16,-0.02,467990
山佳,24.974944,121.402008,1.21,26.36,-4.96,75.48,10.26,3.25,C0A520
坪林,24.938183,121.70975,1.54,23.9,-4.19,87.38,14.07,5.13,C0A530
泰平,24.971197,121.823711,0.62,21.83,-1.63,93.19,13.76,3.28,C0A550
桶後,24.848222,121.597992,0.78,22.71,-5.32,87.33,8.38,-1.19,C0A570
石碇,24.993969,121.662917,0.94,23.66,-6.33,83.62,16.6,6.07,C0A640
大坪,25.165914,121.632969,1.49,23.64,-3.85,86.14,11.9,-0.65,C0A860
五指山,25.132153,121.608692,1.94,22.07,-4.38,89.71,10.43,1.2,C0A870
雙溪,25.036003,121.864242,1.18,24.62,-4.08,86.1,17.5,8.15,C0A890
三和,25.233153,121.595236,0.51,23.41,-4.4,86.86,11.93,-3.0,C0A931
金山,25.223628,121.643967,0.82,24.58,-6.26,79.95,10.9,0.62,C0A940
鼻頭角,25.129036,121.923372,1.64,25.44,-5.07,83.81,7.19,2.48,C0A950
三貂角,25.007606,122.002058,1.25,24.87,2.26,85.62,10.26,2.49,C0A970
社子,25.109508,121.469681,1.24,26.58,-1.88,78.1,8.17,0.47,C0A980
天母,25.117494,121.537169,0.58,25.89,-5.45,71.0,8.64,1.28,C0A9C0
內湖,25.079422,121.57545,1.42,26.87,-3.95,74.1,10.26,2.73,C0A9F0
大屯山,25.175675,121.522408,2.01,20.18,1.81,95.57,8.29,-1.37,C0AC40
三峽,24.939025,121.369728,1.89,27.07,-4.14,77.24,10.02,0.56,C0AC60
信義,25.037822,121.564597,3.78,28.86,-6.73,74.57,13.6,3.66,C0AC70
文山,25.00235,121.575728,0.37,25.04,-5.53,78.05,14.14,4.27,C0AC80
新莊,25.051478,121.446756,0.6,26.33,-3.61,72.1,10.36,0.71,C0ACA0
八里,25.150211,121.403947,1.73,26.92,3.06,82.86,7.31,-2.87,C0AD10
蘆洲,25.086594,121.472331,1.27,27.14,-3.42,73.67,8.4,-0.63,C0AD30
土城,24.973208,121.445169,0.61,25.47,-2.51,79.14,12.74,3.72,C0AD40
鶯歌,24.951533,121.346294,1.83,26.85,-5.02,78.81,9.76,0.99,C0AD50
汐止,25.066881,121.658778,0.65,25.43,-7.3,77.38,13.83,3.18,C0AH00
永和,25.01125,121.508111,1.38,26.94,-2.28,74.76,12.62,3.07,C0AH10
五分山,25.07125,121.780794,1.76,21.67,-3.81,91.81,14.26,4.69,C0AH30
平等,25.129142,121.577086,0.13,23.19,-6.64,80.52,8.71,1.04,C0AH40
林口,25.072181,121.38084,3.18,27.11,-3.15,82.76,8.24,1.39,C0AH50
松山,25.04871,121.55042,0.46,26.43,1.35,70.76,11.62,4.76,C0AH70
深坑,25.002703,121.628328,1.49,25.89,-2.77,80.87,15.29,8.6,C0AH80
福山植物園,24.760717,121.58135,-0.11,20.25,0.21,93.24,8.79,-3.03,C0AH90
五股,25.07445,121.42728,0.21,24.3,-8.35,79.86,9.29,-1.59,C0AI00
屈尺,24.92184,121.54475,1.05,25.86,-1.86,81.76,15.19,6.1,C0AI10
白沙灣,25.283128,121.519058,1.02,25.0,2.28,82.71,5.93,-6.89,C0AI20
三重,25.057328,121.500629,-0.03,26.78,-5.15,79.81,9.24,0.9,C0AI30
石牌,25.115597,121.513139,1.44,27.39,1.13,73.81,7.57,-3.14,C0AI40
七堵,25.094819,121.71713,1.96,26.2,-7.27,81.05,12.88,-0.12,C0B010
基隆嶼,25.19141,121.78391,0.99,24.65,1.95,91.9,7.24,-1.83,C0B020
復興,24.820208,121.352281,0.81,22.78,-4.94,80.57,10.52,0.14,C0C460
桃園,24.992425,121.323172,1.16,26.23,-2.22,71.52,9.64,1.19,C0C480
八德,24.928708,121.283289,0.72,25.51,-8.01,72.48,10.33,0.51,C0C490
觀音,25.027072,121.153317,0.53,24.7,4.76,85.62,9.74,-0.13,C0C590
蘆竹,25.084275,121.265767,0.75,25.66,-3.11,78.48,6.9,-2.82,C0C620
大溪,24.882853,121.265547,1.01,24.65,-1.97,76.33,10.31,2.89,C0C630
平鎮,24.897503,121.214636,1.26,24.81,-3.33,76.86,13.5,5.85,C0C650
楊梅,24.912375,121.143047,0.5,25.17,-1.89,75.86,10.86,1.52,C0C660
龍潭,24.870056,121.221389,0.92,24.66,-3.09,76.86,9.88,0.74,C0C670
龜山,25.02846,121.38656,-0.32,23.64,-4.63,75.19,9.48,1.39,C0C680
中壢,24.977661,121.256375,0.56,25.52,-4.32,72.29,8.31,-0.63,C0C700
大溪永福,24.892936,121.324975,1.37,24.8,-5.51,80.76,9.83,-2.36,C0C710
梅花,24.678347,121.208558,0.37,22.28,-0.45,87.48,9.57,-0.13,C0D360
峨眉,24.6905,121.017189,0.21,24.6,0.97,88.57,9.88,-0.11,C0D430
打鐵坑,24.849664,121.150789,0.47,23.42,-3.62,82.19,7.43,-0.63,C0D480
橫山,24.71116,121.11693,0.25,23.61,9.81,95.24,5.97,-2.73,C0D540
雪霸,24.526972,121.11605,0.01,15.95,-1.79,83.52,17.43,7.33,C0D550
竹東,24.767147,121.057881,1.86,25.98,-16.46,59.81,8.67,1.05,C0D560
寶山,24.735006,121.025192,0.54,24.07,0.42,85.76,9.95,1.64,C0D580
新豐,24.87068,120.97721,0.71,24.64,3.88,86.29,10.02,0.9,C0D590
湖口,24.904794,121.043628,0.71,25.52,-7.51,74.67,10.14,0.93,C0D650
新竹市東區,24.798681,120.986942,0.25,25.54,-1.66,75.24,8.0,-0.37,C0D660
竹南,24.708978,120.888897,1.54,26.43,1.46,81.86,2.6,-5.16,C0E420
南庄,24.601775,121.000214,0.18,23.58,1.29,86.57,12.98,3.64,C0E430
明德,24.583486,120.885411,0.76,25.67,-3.63,80.86,8.17,-1.38,C0E550
通霄,24.471892,120.704622,0.3,25.54,-1.31,83.05,5.05,-4.34,C0E590
馬都安,24.451272,120.930192,0.4,21.8,4.05,84.48,10.1,1.99,C0E610
頭份,24.688247,120.912206,1.62,27.03,-0.99,75.24,7.45,-0.34,C0E730
造橋,24.637056,120.864778,0.09,25.6,-2.88,81.14,7.52,-2.57,C0E740
苗栗,24.564569,120.824575,0.25,26.16,-5.83,71.67,7.0,-2.67,C0E750
銅鑼,24.489681,120.790853,0.36,25.55,-5.27,77.52,7.21,-2.51,C0E780
西湖,24.562947,120.7485,0.35,25.18,-2.05,85.62,0.0,-9.32,C0E810
獅潭,24.539133,120.920042,0.03,24.43,-4.62,81.9,11.9,0.58,C0E820
苑裡,24.439714,120.653053,0.16,25.92,-2.98,78.14,4.29,-4.85,C0E830
大河,24.618069,120.948578,-1.57,23.13,-1.78,82.9,9.76,1.24,C0E850
高鐵苗栗,24.60725,120.826094,-0.03,25.64,3.94,83.0,7.24,1.79,C0E870
石岡,24.276061,120.777644,1.4,26.14,2.83,86.19,5.64,-3.5,C0F0B0
中坑,24.248517,120.903319,-0.91,20.19,-4.15,87.48,14.93,-1.84,C0F0C0
審馬陣,24.381675,121.4203,-0.24,9.5,-6.81,78.19,6.48,-1.18,C0F0D0
東勢,24.246428,120.833047,1.43,25.95,-5.53,76.0,8.83,-5.57,C0F850
大坑,24.173142,120.722289,1.19,27.42,-2.14,75.33,6.02,-5.78,C0F970
神岡,24.272481,120.658314,0.4,25.63,-8.67,76.14,3.9,-5.95,C0F9I0
大安,24.345061,120.588025,0.05,25.82,-3.3,80.9,3.36,-4.98,C0F9K0
后里,24.310436,120.729725,0.83,26.15,-7.07,76.57,4.5,-6.95,C0F9L0
豐原,24.254322,120.720692,1.72,27.34,-7.58,72.76,4.64,-7.66,C0F9M0
大里,24.092464,120.701378,0.17,27.3,3.89,79.67,10.26,-0.44,C0F9N0
潭子,24.213106,120.703933,0.48,27.0,0.38,78.29,4.24,-7.98,C0F9O0
清水,24.312297,120.562242,0.27,26.36,-5.0,79.19,3.02,-5.19,C0F9P0
外埔,24.347817,120.705686,0.32,25.52,-3.96,82.19,4.14,-5.65,C0F9Q0
龍井,24.184536,120.528972,0.52,26.76,-10.44,76.81,3.12,-5.17,C0F9R0
烏日,24.107058,120.624103,0.38,27.01,-4.47,72.67,6.24,-3.02,C0F9S0
西屯,24.179494,120.641275,0.45,26.91,-6.24,71.86,3.17,-7.68,C0F9T0
南屯,24.137006,120.637969,0.14,27.1,-4.03,72.33,5.31,-4.42,C0F9U0
新社,24.200172,120.815806,0.51,24.14,-5.98,78.95,10.26,-4.75,C0F9V0
大雅(中科園區),24.21528,120.62445,0.1,25.86,-1.88,77.48,4.43,-2.13,C0F9X0
桃山,24.432739,121.303808,0.08,8.9,-5.36,76.43,8.88,-2.37,C0F9Y0
雪山東峰,24.388792,121.268675,0.1,9.7,-5.57,75.1,10.48,0.52,C0F9Z0
芬園,24.015678,120.6213,-0.28,25.47,3.26,86.29,10.57,1.94,C0G620
員林,23.946503,120.585597,2.39,28.82,-8.5,74.9,6.76,0.63,C0G650
溪湖,23.94835,120.479122,1.27,27.53,7.0,94.17,10.79,2.96,C0G660
溪州,23.851589,120.499093,0.48,26.62,-7.43,74.57,3.45,-1.39,C0G720
二林,23.903325,120.376081,0.43,26.33,-2.56,85.57,7.1,3.05,C0G730
大城,23.852487,120.320935,0.45,26.36,-1.72,79.92,4.6,-0.06,C0G740
福興,24.041289,120.437669,0.54,27.33,-7.54,75.67,3.52,-4.18,C0G770
秀水,24.03405,120.503869,0.88,27.41,-4.6,78.86,5.12,-1.94,C0G780
埔鹽,24.000394,120.431683,3.39,29.38,-7.43,79.33,3.24,-3.98,C0G800
埔心,23.947633,120.525456,3.75,30.45,-11.93,71.67,17.23,9.05,C0G810
田尾,23.901669,120.509389,0.69,27.18,-0.86,84.1,4.81,-3.77,C0G820
埤頭,23.866003,120.452806,0.61,26.69,-3.25,86.48,3.36,-4.72,C0G830
社頭,23.897647,120.5862,0.83,27.88,2.41,80.19,4.6,-4.15,C0G860
二水,23.810742,120.6173,2.87,29.42,-4.52,78.52,3.43,-4.42,C0G880
伸港,24.148933,120.484403,0.3,26.6,-6.85,76.95,2.6,-5.18,C0G890
線西,24.143358,120.443536,-0.89,26.6,-3.71,78.43,2.29,-4.03,C0G900
花壇,24.032076,120.549461,0.93,28.4,5.32,83.1,7.83,1.72,C0G910
埔里,23.972169,120.952425,0.26,24.79,-2.14,80.57,7.5,-4.62,C0H890
草屯,23.973672,120.68085,0.16,26.55,-3.32,75.24,8.05,-0.98,C0H960
昆陽,24.121322,121.273642,0.09,9.1,-4.58,83.86,7.14,-4.39,C0H990
神木村,23.532742,120.843667,0.34,18.06,-0.79,89.52,7.71,-4.43,C0H9A0
合歡山,24.143442,121.272547,1.0,8.55,-3.91,85.38,12.4,-8.98,C0H9C0
廬山,24.033311,121.181808,0.38,18.5,-3.15,82.1,11.31,-2.4,C0I010
信義,23.689694,120.851036,0.1,23.74,-3.22,81.9,6.98,-2.03,C0I080
竹山,23.761225,120.688156,0.65,26.13,-4.8,80.86,4.21,-2.73,C0I110
水里,23.812553,120.849792,0.35,25.31,-4.2,77.24,7.43,-1.7,C0I360
魚池,23.895703,120.94135,0.37,23.45,-6.22,79.95,9.33,-2.3,C0I370
集集,23.828206,120.801467,0.06,25.63,-2.44,80.24,11.07,2.59,C0I380
仁愛,24.022122,121.132206,0.39,20.34,-6.58,81.71,10.12,-6.48,C0I390
名間,23.837053,120.701447,-0.11,25.68,-0.44,79.14,3.69,-1.54,C0I410
國姓,24.037803,120.855072,-0.0,25.2,-3.88,80.19,12.48,0.27,C0I420
南投,23.911469,120.687331,0.03,26.79,2.54,79.71,3.88,-2.73,C0I460
梅峰,24.085272,121.173572,0.15,14.45,-2.54,87.9,10.45,-6.35,C0I480
萬大林道,23.928228,121.091411,0.38,18.21,-7.09,82.76,17.31,4.39,C0I490
小奇萊,24.131764,121.295717,-0.16,9.09,-4.06,84.67,10.57,-15.81,C0I530
崙背,23.75555,120.318925,0.02,25.96,-2.38,82.57,2.98,-1.18,C0K250
四湖,23.630414,120.227125,0.84,26.99,-4.84,78.29,1.81,-2.65,C0K280
宜梧,23.536281,120.169329,0.67,26.93,-3.92,78.9,1.24,-4.85,C0K291
虎尾,23.719183,120.442036,0.89,27.28,0.4,79.67,2.57,-2.83,C0K330
土庫,23.679029,120.395574,0.57,26.83,-7.73,75.24,1.48,-1.88,C0K390
斗六,23.720583,120.541127,0.34,26.81,-6.64,74.24,2.05,-1.88,C0K400
北港,23.573957,120.292802,0.52,26.98,-6.62,75.29,1.6,-2.01,C0K410
西螺,23.800407,120.467394,0.36,26.82,-5.06,76.71,2.38,-1.93,C0K420
褒忠,23.690938,120.303634,0.58,26.58,-5.93,78.19,2.1,-1.83,C0K430
二崙,23.772797,120.408944,0.43,26.55,-0.88,82.38,2.07,-1.47,C0K440
大埤,23.646074,120.431537,0.56,27.0,-5.99,75.95,1.69,-1.44,C0K450
斗南,23.678734,120.478359,0.56,26.95,-2.45,76.1,1.71,-1.71,C0K460
林內,23.748675,120.609642,0.26,26.2,-5.37,78.1,3.67,-1.05,C0K470
莿桐,23.761192,120.502372,0.36,26.5,-6.97,76.67,2.83,-1.37,C0K480
元長,23.64981,120.315024,0.6,26.95,-1.64,77.67,1.71,-2.11,C0K500
水林,23.572924,120.24597,0.75,27.2,-4.34,77.19,1.6,-2.35,C0K510
臺西,23.701547,120.197559,0.28,26.39,-1.51,80.05,2.19,-2.64,C0K530
蔦松,23.514319,120.229736,0.52,27.09,-2.75,78.81,1.62,-2.24,C0K550
棋山,23.68645,120.603417,0.32,26.46,-0.09,80.9,2.86,-2.2,C0K560
高鐵雲林,23.737456,120.417944,-0.0,26.46,-4.79,80.0,1.76,-3.71,C0K580
東後寮,23.369908,120.248065,0.52,26.82,-2.89,80.38,2.14,-2.28,C0M520
奮起湖,23.493903,120.699253,0.52,19.15,0.25,91.81,0.88,-13.08,C0M530
中埔,23.42538,120.5229,0.38,26.54,-5.7,74.1,2.4,-4.44,C0M640
朴子,23.43463,120.23902,-0.07,26.31,-1.39,80.71,3.67,-0.34,C0M650
溪口,23.604131,120.403569,0.53,26.76,-6.54,76.57,1.93,-1.9,C0M660
大林,23.600616,120.45841,0.58,27.31,-4.7,73.52,2.57,-1.66,C0M670
太保,23.455062,120.331455,0.22,26.99,-5.57,76.05,5.6,1.28,C0M680
水上,23.419734,120.388909,0.48,26.92,-3.3,77.71,3.02,-1.9,C0M690
竹崎,23.526178,120.555508,0.38,26.35,-4.29,78.29,3.79,-2.06,C0M700
東石,23.458927,120.15385,0.38,27.0,-6.44,76.0,1.48,-2.49,C0M710
番路,23.464657,120.554156,0.53,26.18,-2.85,77.19,2.02,-6.67,C0M720
嘉義市東區,23.457673,120.460531,0.49,27.82,-0.94,74.62,3.24,-2.38,C0M730
六腳,23.492871,120.290625,0.47,26.91,-2.19,77.05,4.43,0.36,C0M740
布袋,23.380878,120.167789,0.54,27.21,-6.46,75.33,2.1,-1.95,C0M750
民雄,23.551754,120.428457,0.42,27.21,-4.98,74.71,2.62,-1.37,C0M760
嘉義梅山,23.585398,120.555587,0.43,26.52,-3.73,77.52,2.64,-2.76,C0M770
鹿草,23.41134,120.30835,0.71,27.37,-3.76,76.57,4.05,-0.71,C0M780
新港,23.553269,120.345728,0.46,27.16,-4.43,75.19,2.55,-1.21,C0M790
茶山,23.299075,120.664767,0.52,25.01,-4.0,79.19,5.95,-3.68,C0M800
里佳,23.389125,120.716647,0.32,19.53,-3.64,84.52,7.76,-6.55,C0M810
達邦,23.453994,120.749517,0.51,21.69,-0.31,82.48,5.95,-6.88,C0M820
表湖,23.24186,120.64166,0.21,23.36,-5.56,81.38,3.4,-12.38,C0M850
新美,23.338017,120.683169,0.2,24.52,1.98,79.62,7.76,-10.08,C0M860
北寮,23.079561,120.495008,0.71,27.07,2.05,84.14,2.9,-5.2,C0O830
王爺宮,23.222064,120.40085,2.76,28.9,-9.13,73.62,1.57,-4.35,C0O840
大內,23.11885,120.36083,1.51,28.71,-0.8,81.19,1.31,-4.64,C0O860
善化,23.112883,120.297219,1.0,27.66,1.6,85.48,1.45,-3.05,C0O900
崎頂,22.959547,120.369317,1.57,27.84,-2.53,79.29,2.67,-5.24,C0O960
虎頭埤,23.021375,120.347878,0.59,27.11,-4.5,77.29,2.26,-4.12,C0O970
新市,23.061614,120.298197,1.39,28.44,-7.27,76.95,2.26,-3.7,C0O980
阿禮,22.742908,120.743678,0.22,21.39,-5.57,81.81,11.6,0.71,C0R130
瑪家,22.682903,120.686639,0.2,23.1,5.64,90.62,2.6,-10.4,C0R140
三地門,22.709889,120.639944,1.47,28.64,-7.15,69.33,2.14,-7.24,C0R150
鹽埔,22.739558,120.530778,0.64,27.75,-3.19,82.24,4.0,-4.36,C0R160
赤山,22.592333,120.614306,1.11,28.3,-1.14,81.29,1.45,-6.71,C0R190
潮州,22.534361,120.54,1.45,28.69,-7.1,72.67,0.88,-6.17,C0R220
來義,22.527306,120.625111,0.59,27.27,-0.16,79.48,0.36,-8.94,C0R240
春日,22.370361,120.628306,-0.43,26.88,-1.05,76.71,0.76,-5.18,C0R260
琉球嶼,22.332244,120.362236,1.25,28.41,-9.79,73.86,0.74,-3.52,C0R270
車城,22.0744,120.716247,0.21,28.23,-3.18,76.05,0.57,-5.25,C0R320
牡丹,22.130036,120.792639,-0.02,26.05,3.19,86.19,0.45,-7.3,C0R341
貓鼻頭,21.921774,120.7358,0.98,27.83,-6.34,77.52,1.33,-2.57,C0R350
大漢山,22.405264,120.753181,-0.06,17.12,0.14,94.14,2.55,-39.07,C0R440
高樹,22.826389,120.600806,0.61,28.01,-3.96,72.0,3.33,-4.91,C0R470
長治,22.693128,120.542622,1.6,29.14,-8.52,72.24,3.26,-4.86,C0R480
九如,22.7405,120.490503,1.41,28.84,-7.25,74.33,2.19,-5.78,C0R490
崁頂,22.514781,120.506914,0.63,28.06,-5.95,76.67,0.0,-6.92,C0R520
佳冬,22.419456,120.552375,0.64,28.02,-3.42,77.05,0.29,-5.87,C0R540
新埤,22.467947,120.582894,0.7,27.94,-9.25,72.67,0.26,-6.61,C0R550
新園,22.5434,120.461558,1.67,29.12,-10.11,71.48,3.29,-3.57,C0R560
麟洛,22.65078,120.52719,1.94,29.55,-2.15,76.14,2.36,-4.96,C0R570
南州,22.48591,120.50274,0.53,27.77,-0.18,80.62,0.5,-6.11,C0R580
里港,22.77919,120.49459,0.73,28.02,-2.24,77.19,2.14,-5.93,C0R590
舊泰武,22.588194,120.664944,0.82,23.66,-3.93,82.24,0.88,-12.05,C0R600
墾雷,21.900836,120.855269,0.4,27.31,4.42,87.19,0.86,-2.99,C0R620
東港,22.46247,120.44074,1.05,28.18,-10.37,75.33,0.71,-13.56,C0R640
竹田,22.58486,120.54344,1.09,28.36,-11.71,74.81,1.81,-14.59,C0R650
枋寮,22.367722,120.590647,0.23,27.76,1.11,82.33,0.88,-16.3,C0R660
楓港,22.190131,120.692156,-0.28,27.54,-6.35,72.19,0.29,-16.49,C0R670
佳樂水,21.993578,120.861633,-0.23,27.52,-2.04,79.14,0.86,-3.69,C0R680
墾丁,21.966756,120.810269,0.39,26.08,-5.35,83.38,0.67,-4.72,C0R690
枋山,22.246844,120.661086,0.55,28.15,-5.16,73.38,0.17,-17.36,C0R700
龍磐,21.931672,120.838942,0.06,26.95,-3.7,82.62,0.45,-3.93,C0R710
旭海,22.205403,120.887614,-0.13,25.84,-4.19,80.9,1.93,-8.21,C0R720
大坪頂,22.024633,120.69355,0.06,27.02,2.87,85.24,0.9,-2.71,C0R730
四林格山,22.076989,120.802439,0.23,23.76,-4.92,89.86,2.12,-3.63,C0R750
南仁湖,22.084681,120.863353,-0.43,24.48,5.34,93.43,3.76,-2.28,C0R760
保力,22.071122,120.764111,0.3,26.86,-3.13,80.14,1.07,-4.06,C0R770
滿州,22.024403,120.839892,-0.18,26.93,-2.27,79.05,1.0,-3.8,C0R780
九棚,22.14195,120.889281,-0.07,27.02,-1.56,78.67,2.07,-3.45,C0R790
丹路,22.204481,120.750989,0.59,27.43,-5.47,74.76,0.4,-20.55,C0R800
內獅,22.305064,120.642986,0.59,28.24,13.06,91.29,0.17,-19.24,C0R810
白鷺,22.454275,120.666219,0.78,25.42,-3.27,77.95,0.29,-28.15,C0R820
高士,22.121825,120.836781,-0.25,24.5,-0.47,86.57,2.07,-5.11,C0R830
牡丹池山,22.168389,120.841225,-0.35,23.5,0.15,90.33,1.14,-8.43,C0R840
下馬,23.150427,121.070312,-0.42,22.32,5.24,87.33,2.47,-0.99,C0S660
太麻里,22.60902,120.98533,0.76,23.2,1.39,90.52,0.79,-4.02,C0S690
知本,22.684866,121.005642,0.84,23.41,1.09,91.0,2.88,-3.32,C0S700
鹿野,22.917711,121.122994,0.92,23.88,1.02,88.52,0.81,-3.62,C0S710
綠島,22.6672,121.47533,1.11,26.42,-7.65,82.71,5.83,0.92,C0S730
池上,23.119628,121.209469,0.54,24.21,0.28,88.1,2.05,-1.42,C0S740
向陽,23.248397,120.986133,0.96,14.67,6.32,89.87,7.47,-2.13,C0S750
大溪山,22.478475,120.943325,0.49,23.74,-0.11,89.62,2.81,-3.19,C0S770
金崙,22.538122,120.966875,0.91,26.16,-1.68,80.95,0.67,-4.3,C0S790
東河,22.972672,121.303986,0.02,26.16,-2.26,85.29,5.48,0.81,C0S810
長濱,23.286817,121.411975,0.6,24.87,-4.42,84.86,4.6,-0.34,C0S830
南田,22.279725,120.889208,0.92,27.37,-9.23,74.95,2.48,-3.18,C0S840
關山,23.0395,121.175017,0.05,25.0,0.1,86.24,2.62,-1.03,C0S890
蘭嶼高中,22.04909,121.51214,0.54,27.46,5.1,85.29,6.1,-0.25,C0S900
蘭嶼燈塔,22.081197,121.503117,0.81,26.08,5.07,90.57,3.14,-2.43,C0S910
金峰嘉蘭,22.594789,120.960825,-0.41,26.17,-0.19,81.71,0.48,-5.68,C0S920
延平,22.902581,121.084058,-0.64,24.74,1.86,84.0,0.62,-3.44,C0S930
石寧山,23.223772,121.406639,-0.17,25.59,-3.08,86.24,7.9,1.6,C0S940
七塊厝,22.954453,121.229922,0.55,24.75,-8.85,81.6,19.57,13.24,C0S950
香蘭,22.587569,120.993375,-0.06,26.94,3.66,83.52,0.67,-5.86,C0S960
加津林,22.416211,120.926942,-0.2,26.74,-1.05,79.0,3.24,-4.55,C0S970
勝林山,22.430439,120.8938,-1.18,21.15,1.43,91.52,2.19,-6.64,C0S980
山豬窟,22.318619,120.857372,-0.38,24.78,-1.89,82.33,2.76,-8.14,C0S990
歷坵,22.520969,120.89185,-0.17,23.87,-1.74,87.71,0.86,-7.16,C0SA00
檳榔四格山,22.810031,121.109308,-0.82,23.65,2.97,91.43,2.12,-5.43,C0SA10
金崙山,22.567419,120.959667,-0.36,21.59,-0.73,90.86,1.67,-5.97,C0SA20
都歷,23.020333,121.323642,-0.21,25.6,-6.83,78.4,1.41,-5.51,C0SA30
瑞和,22.974361,121.156697,-0.59,24.9,-1.99,82.92,1.67,-2.63,C0SA40
知本（水試所）,22.702394,121.082761,-0.36,26.48,0.04,82.95,3.33,-3.6,C0SA60
土坂,22.453108,120.887572,0.06,26.22,1.6,82.24,0.86,-10.07,C0SA80
達仁林場,22.264347,120.823972,-0.07,24.14,-0.76,85.38,2.71,-18.44,C0SA90
大禹嶺,24.186117,121.316086,0.01,11.58,-4.08,80.0,8.02,-0.64,C0T790
天祥,24.179597,121.495639,0.43,22.04,0.25,84.76,3.19,-1.29,C0T820
鯉魚潭,23.935639,121.508944,-0.13,23.13,1.02,91.33,8.6,1.8,C0T870
西林,23.8119,121.441458,0.58,24.3,5.83,87.57,12.02,6.33,C0T900
光復,23.660694,121.424964,0.74,24.8,-2.37,86.76,16.83,10.94,C0T960
月眉山,23.809928,121.539828,0.7,22.47,-2.37,92.43,2.81,-2.71,C0T9A0
水源,23.991861,121.537169,0.57,21.92,-1.97,90.24,14.5,6.37,C0T9B0
和中,24.26676,121.74103,-0.0,24.6,9.88,99.62,25.71,17.88,C0T9D0
大坑,23.880628,121.581981,0.59,22.82,1.33,91.95,10.31,3.61,C0T9E0
水璉,23.797131,121.542514,0.15,24.01,1.06,89.43,8.5,2.6,C0T9F0
鳳林山,23.735269,121.420131,-0.32,21.93,-2.33,92.0,14.24,6.9,C0T9G0
加路蘭山,23.682947,121.5274,0.9,21.94,3.9,98.48,10.69,2.63,C0T9H0
豐濱,23.583897,121.514806,0.78,24.37,-5.45,85.81,18.57,11.53,C0T9I0
靜浦,23.455167,121.495028,0.51,24.93,-0.17,90.33,16.26,10.49,C0T9M0
富里,23.171639,121.249378,0.07,25.12,12.35,98.53,3.7,-4.02,C0T9N0
雙連埤,24.753033,121.641303,-0.01,20.95,-4.07,91.14,8.4,-1.53,C0U520
礁溪,24.817539,121.765608,0.58,24.87,-5.76,81.9,6.12,-2.33,C0U600
玉蘭,24.675286,121.587061,0.85,22.75,-4.68,82.43,8.38,-0.26,C0U650
太平山,24.505486,121.525656,0.23,15.38,-0.02,92.62,8.4,1.56,C0U710
南山,24.43742,121.38167,-0.06,18.97,-7.81,86.43,5.5,-1.51,C0U720
龜山島,24.841667,121.953133,-0.17,22.17,-5.42,88.33,4.33,0.56,C0U750
東澳,24.52196,121.83318,-0.12,24.48,-2.88,86.05,11.45,3.3,C0U760
南澳,24.44935,121.81022,-0.25,24.61,0.09,86.0,5.31,-0.76,C0U770
五結,24.68637,121.79794,0.01,24.65,-2.22,83.48,5.77,-0.89,C0U780
頭城,24.85323,121.8308,0.15,24.97,-1.64,86.24,6.21,-1.51,C0U860
大礁溪,24.791042,121.675047,0.17,22.26,1.46,90.14,7.38,-1.36,C0U870
三星,24.66812,121.65302,0.04,24.16,-8.51,81.1,6.02,-1.26,C0U890
內城,24.71813,121.68766,0.53,24.76,-5.26,83.62,5.79,-1.19,C0U900
冬山,24.63373,121.7937,0.25,25.01,-2.08,80.19,7.88,1.5,C0U910
羅東,24.68184,121.74934,0.55,25.07,-2.14,83.48,8.14,1.1,C0U940
鶯子嶺,24.89754,121.79244,0.34,19.01,-8.41,88.57,11.6,-0.12,C0U950
翠峰湖,24.510856,121.608044,0.01,14.7,0.92,94.48,8.48,0.26,C0U960
大福,24.80064,121.81389,-0.22,24.39,-0.35,83.67,5.76,-2.45,C0U970
坪林石牌,24.86478,121.77396,0.33,21.34,2.25,92.9,9.43,-0.7,C0U980
員山,24.74435,121.72247,0.14,24.79,-0.15,84.81,5.9,-1.15,C0U990
土場,24.576533,121.495333,-0.12,22.89,-3.94,84.29,5.98,-0.92,C0UA00
鴛鴦湖,24.590269,121.412228,0.0,15.74,1.86,95.57,10.45,1.41,C0UA10
白嶺,24.527819,121.519031,-0.06,17.75,-2.1,93.1,8.33,0.61,C0UA30
西德山,24.560647,121.752608,0.37,19.07,-2.92,91.86,12.19,3.05,C0UA40
西帽山,24.555361,121.802628,0.38,20.53,-8.38,86.0,18.88,7.69,C0UA50
樟樹山,24.41393,121.78325,0.07,21.83,-0.65,88.0,8.29,3.77,C0UA60
桃源谷,24.962606,121.888875,0.5,21.7,-1.56,93.67,13.81,3.73,C0UA70
復興,23.222403,120.806089,0.82,23.5,-1.69,79.24,5.48,-10.81,C0V210
溪埔,22.738578,120.446797,0.76,27.9,-0.62,77.86,2.36,-5.1,C0V350
內門,22.975481,120.466769,1.55,27.81,-2.84,78.29,2.17,-4.82,C0V360
古亭坑,22.893178,120.401947,0.94,27.4,-5.01,78.71,2.69,-3.96,C0V370
阿公店,22.804194,120.355528,0.47,27.34,-5.89,76.33,2.74,-3.96,C0V400
鳳山,22.646653,120.356122,0.39,28.11,3.76,78.62,2.05,-5.1,C0V440
鳳森,22.545064,120.392592,0.76,27.88,-6.24,75.48,4.81,-1.97,C0V450
新興,22.627422,120.298803,1.07,28.6,-6.84,71.62,1.81,-5.38,C0V490
阿蓮,22.883208,120.327508,1.45,28.76,-6.74,73.71,2.19,-5.27,C0V530
梓官,22.760558,120.267211,0.47,27.92,-4.62,75.0,2.88,-4.12,C0V610
永安,22.82315,120.236856,0.35,27.53,-6.18,76.48,4.52,-2.85,C0V620
茄萣,22.906642,120.182608,0.7,27.94,-0.16,77.95,3.81,-3.09,C0V630
湖內,22.887139,120.2445,0.08,27.32,-4.93,75.1,6.19,-0.99,C0V640
彌陀,22.783806,120.246361,0.91,28.17,-3.74,77.95,3.62,-3.43,C0V650
岡山,22.797078,120.294958,1.05,28.85,-5.98,71.76,4.1,-2.64,C0V660
仁武,22.701083,120.347722,0.99,28.87,-5.28,72.71,1.74,-5.05,C0V680
鼓山,22.623325,120.275575,0.33,27.9,-6.41,74.52,2.48,-3.77,C0V690
三民,22.645017,120.311233,0.46,28.59,-1.38,71.71,2.12,-4.74,C0V700
苓雅,22.622742,120.330669,1.21,29.1,2.12,74.86,0.03,-6.35,C0V710
林園,22.507747,120.394511,1.04,29.3,-1.17,74.19,3.57,-2.68,C0V720
大寮,22.605614,120.395717,0.55,28.43,-1.05,75.05,2.4,-4.0,C0V730
旗山,22.888614,120.483597,1.74,28.82,-4.29,72.81,1.79,-5.65,C0V740
路竹,22.854997,120.259439,1.14,28.65,-5.15,72.57,4.74,-2.95,C0V750
橋頭,22.757806,120.30575,1.01,28.88,-8.02,70.57,2.81,-4.33,C0V760
萬山,22.905944,120.688056,1.1,25.95,-2.61,76.33,6.57,-3.35,C0V790
六龜,22.997889,120.633583,0.96,27.03,-0.83,76.81,2.81,-7.1,C0V800
左營,22.67491,120.28491,0.36,27.76,-5.35,74.62,1.71,-2.51,C0V810
小林,23.148408,120.63325,1.0,25.51,-2.49,80.19,4.93,-15.65,C0V820
花嶼,23.40007,119.32276,0.95,25.72,-2.48,84.52,0.74,-2.73,C0W130
金寧,24.457703,118.328989,0.32,25.13,-4.04,78.48,0.5,-4.69,C0W150
東河,23.296598,120.385608,0.43,27.26,-7.17,74.05,1.38,-3.63,C0X050
下營,23.22695,120.256261,0.61,27.34,-5.2,75.71,1.76,-2.48,C0X060
佳里,23.173039,120.145086,0.65,27.5,-1.14,79.71,2.29,-2.06,C0X080
臺南市北區,23.010394,120.194228,0.76,28.29,-0.99,75.8,2.02,-4.83,C0X100
臺南市南區,22.961189,120.188378,0.71,28.22,-3.6,76.48,1.81,-5.44,C0X110
麻豆,23.183289,120.248611,1.34,28.48,-2.32,78.33,1.62,-3.93,C0X120
官田,23.193217,120.315422,0.97,28.06,0.45,80.48,1.43,-4.73,C0X130
西港,23.125608,120.203108,0.44,27.71,-6.45,75.86,1.24,-4.53,C0X140
安定,23.102614,120.227839,1.03,28.03,-3.01,79.24,1.81,-4.34,C0X150
仁德,22.968258,120.257689,1.03,28.37,-1.78,77.48,2.26,-5.51,C0X160
關廟,22.963017,120.327797,-0.36,27.21,2.37,78.21,2.02,-5.87,C0X170
山上,23.0757,120.363253,0.96,27.7,-2.75,79.1,3.0,-3.69,C0X180
安平,22.993161,120.152181,0.56,27.88,-12.26,70.1,2.31,-4.81,C0X190
左鎮,23.056758,120.408522,1.65,27.81,-4.64,79.57,2.48,-4.15,C0X200
白河,23.347466,120.414427,0.41,27.08,-3.01,76.48,3.05,-1.92,C0X210
學甲,23.230367,120.182187,0.74,27.39,-2.22,76.38,1.07,-3.85,C0X220
鹽水,23.272621,120.247641,0.47,27.03,-2.05,78.05,0.98,-3.26,C0X230
關子嶺,23.331169,120.508025,0.28,24.75,1.02,85.81,3.69,-3.7,C0X240
新營,23.310689,120.316681,0.6,27.64,-3.41,74.38,1.26,-3.03,C0X250
後壁,23.366358,120.362326,0.62,27.2,-5.14,75.86,1.55,-2.78,C0X260
將軍,23.214999,120.13577,0.42,27.05,-3.35,76.9,1.5,-2.8,C0X280
北門,23.267772,120.125481,0.45,27.13,-4.13,77.62,1.31,-3.08,C0X290
鹿寮,23.386047,120.477331,0.28,26.37,-3.62,79.62,5.67,-0.33,C0X300
柳營,23.253328,120.375253,0.1,27.41,-2.32,75.95,0.98,-10.43,C0X320
明里,23.208717,121.262342,0.52,24.22,-0.22,90.24,3.95,-0.53,C0Z020
佳心,23.34567,121.21316,0.39,20.76,7.68,95.33,4.21,-0.07,C0Z050
玉里,23.3215,121.339656,1.02,25.19,4.45,90.9,3.43,-0.64,C0Z061
舞鶴,23.46811,121.37407,0.79,24.01,8.96,99.19,4.93,0.63,C0Z070
富源,23.587642,121.378225,0.68,23.99,-0.75,89.81,12.0,6.1,C0Z080
東華,23.89525,121.549833,0.45,25.05,0.02,89.48,4.14,-0.7,C0Z100
吉安光華,23.930925,121.595153,0.14,24.79,-8.64,79.19,8.88,4.69,C0Z150
鳳林,23.746114,121.453411,-0.08,24.29,-1.96,83.29,11.29,6.69,C0Z160
卓溪,23.3443,121.3029,-0.32,24.85,-2.01,79.71,3.95,0.13,C0Z170
新城,24.040486,121.604878,-0.01,24.79,13.92,97.33,16.4,11.67,C0Z180
富世,24.14743,121.6297,0.15,24.94,-3.62,83.67,13.83,9.45,C0Z190
萬榮,23.709219,121.420106,0.22,24.24,-3.1,84.71,12.79,8.18,C0Z200
瑞穗,23.5239,121.39021,0.4,24.72,1.52,87.81,8.31,3.4,C0Z210
和平林道,24.343922,121.656317,-0.22,21.54,-4.5,88.0,4.08,0.14,C0Z220
和平,24.30717,121.77007,-0.82,24.13,-2.55,80.14,14.26,10.72,C0Z230
瑞穗林道,23.49284,121.30688,0.06,19.32,2.13,97.48,11.71,4.26,C0Z250
蕃薯寮,23.73835,121.540108,0.25,23.07,-3.82,88.9,12.81,8.36,C0Z270
德武,23.47426,121.41071,0.11,24.24,0.23,88.43,4.21,0.64,C0Z280
赤柯山,23.36893,121.38293,0.39,20.54,-1.44,90.9,5.52,0.86,C0Z290
東里,23.26853,121.30547,0.25,24.87,-3.4,84.86,3.31,-1.09,C0Z300
清水斷崖,24.218294,121.689142,-0.34,24.26,-3.79,85.19,18.52,13.27,C0Z310
清水林道,23.27125,121.188272,0.47,22.12,-1.74,86.1,2.22,-2.4,C0Z320
安通山,23.290728,121.348528,-0.02,22.95,2.74,90.0,3.36,-0.79,C0Z330
口湖工作站,23.589978,120.180394,1.2,26.74,-3.85,73.35,1.42,-5.18,12J990
東港工作站,22.479997,120.466058,1.05,28.26,-6.98,65.55,0.72,-12.24,12Q970
恆春工作站,22.079678,120.714425,1.85,28.11,-1.66,71.25,0.6,-1.91,12Q980
萬大發電廠,23.978875,121.139639,0.25,21.15,-9.1,79.9,14.3,-2.15,42HA10
桃改樹林分場,24.944503,121.386972,-0.26,25.52,-6.21,74.2,11.12,-1.85,72AI40
桃園農改場,24.950944,121.030583,1.08,25.58,-3.72,80.55,10.62,2.71,72C440
桃改五峰分場,24.612194,121.157167,0.77,20.4,0.02,88.8,10.25,0.92,72D080
臺中農改場,24.003028,120.534389,0.55,26.37,2.29,84.7,8.62,2.71,72G600
中改埔里分場,23.903208,120.963364,0.57,22.88,-3.68,87.05,9.48,-12.4,72HA00
南改斗南分場,23.634556,120.477333,1.1,27.15,-2.91,79.45,0.72,-5.7,72K220
南改義竹分場,23.360694,120.279361,0.68,26.93,-7.0,77.55,2.12,-2.78,72M360
南改鹿草分場,23.416869,120.283061,1.11,26.85,-3.16,81.5,5.7,-1.42,72M700
臺南農改場,23.0605,120.342194,0.59,27.3,0.02,80.85,0.8,-4.76,72N100
七股研究中心,23.081672,120.062894,1.07,27.6,-3.94,78.9,2.4,-7.12,72N240
高雄農改場,22.709333,120.525889,0.82,28.36,-0.24,77.2,4.7,-1.36,72Q010
東改班鳩分場,22.829528,121.077694,0.48,24.51,0.3,84.65,2.34,-2.64,72S200
東改賓朗果園,22.813889,121.071278,0.6,24.25,-1.44,88.79,2.2,-2.79,72S590
花蓮農改場,23.975222,121.563889,0.58,24.9,-0.88,82.8,8.78,3.39,72T250
花改蘭陽分場,24.686306,121.716583,0.66,24.79,-2.48,83.1,7.48,1.61,72U480
高改旗南分場,22.857861,120.516667,-0.67,27.37,4.94,78.0,1.62,-3.65,72V140
茶改北部分場,24.955778,121.631222,1.03,23.0,-1.44,83.2,15.32,6.02,82A750
茶改場,24.908472,121.185333,0.99,24.78,-6.61,77.05,11.22,3.84,82C160
茶改中部分場,23.875611,120.913583,-0.47,21.54,0.13,87.05,10.12,-1.17,82H320
茶改南部分場,23.762528,120.7405,-0.27,23.97,-2.88,84.35,8.11,2.36,82H840
茶改東部分場,22.907694,121.130139,0.12,25.15,-1.33,82.7,1.6,-2.76,82S580
農工中心,24.985917,121.239833,1.21,25.62,-1.1,74.0,10.5,2.67,A2C560
水試臺西試驗場,23.717231,120.190522,0.02,26.89,1.96,83.85,2.8,-3.35,A2K360
臺大雲林校區,23.730628,120.423903,-0.54,26.35,1.27,80.95,2.17,-4.76,A2K630
臺南蘭花園區,23.340258,120.379661,0.2,27.06,0.39,80.75,2.35,-5.97,A2N290
畜產試驗所,23.058972,120.336406,0.54,27.14,-0.55,80.25,2.0,-3.34,B2N890
畜試南區分所,21.945583,120.802167,0.61,27.62,-4.3,73.9,0.68,-3.45,B2Q810
畜試東區分所,24.669039,121.832561,-0.1,24.72,2.02,89.75,8.28,2.98,B2U990
蓮華池,23.918333,120.885278,-0.88,22.69,2.63,85.8,9.35,-1.48,E2H360
林試畢祿溪站,24.226944,121.308522,-0.75,13.84,3.66,84.8,8.85,3.47,E2HA20
四湖植物園,23.676986,120.163433,0.89,26.6,6.49,91.9,3.18,-5.2,E2K600
林試六龜中心,22.991703,120.645722,0.16,26.1,2.89,80.3,3.58,-16.97,E2P980
林試太麻里2,22.598,120.99775,-0.34,26.66,-2.16,77.55,0.82,-1.53,E2S960
林試太麻里1,22.598922,120.980044,0.0,26.35,-0.82,79.7,0.9,-1.62,E2S980
農試所(霧峰),24.031261,120.688133,0.81,26.76,-2.75,79.9,12.55,5.66,G2F820
農試嘉義分所,23.485028,120.473806,0.59,26.44,-0.77,80.05,2.72,-3.72,G2L020
農試溪口農場,23.58565,120.408111,2.0,26.93,-5.59,79.25,1.95,-5.32,G2M350
農試鳳山分所,22.646611,120.356083,0.38,28.24,-0.94,72.65,1.8,-4.11,G2P820
苗栗農改場,24.495722,120.829111,0.43,25.24,-0.74,80.4,9.43,2.82,K2E360
苗改生物防治研究中心,24.422861,120.871833,-0.23,23.93,-2.02,82.15,8.93,-1.31,K2E710
種苗改良場,24.225972,120.800917,0.5,24.22,5.88,85.85,8.5,-2.12,K2F750
溪頭,23.670306,120.798194,-0.25,18.37,3.04,94.33,3.62,-7.24,U2H480
臺大和社,23.590856,120.888864,1.03,22.46,-1.91,85.8,4.97,-10.0,U2HA30
臺大內茅埔,23.689722,120.851117,0.52,23.78,-3.87,82.15,7.32,-4.65,U2HA40
臺大竹山,23.756972,120.681556,0.21,26.06,-2.85,77.95,4.53,-3.33,U2HA50
