站名,緯度,經度,平均溫距平,本年度平均溫,平均溼度距平,本年度日均相對溼度,本年度日均降水量,日均降水量距平,站號
淡水,25.164889,121.448906,0.9,27.82,1.84,82.4,3.47,-7.18,466900
鞍部,25.182586,121.529731,0.7,22.48,4.86,93.3,4.46,-9.51,466910
臺北,25.037658,121.514853,1.03,28.86,1.29,77.1,5.33,-6.95,466920
竹子湖,25.162078,121.544547,0.88,24.2,2.75,88.45,4.2,-8.2,466930
基隆,25.133314,121.740475,0.98,28.01,1.49,79.74,3.96,-8.71,466940
花蓮,23.975128,121.613275,0.48,27.6,3.83,84.75,13.11,7.07,466990
新屋,25.006725,121.047492,0.1,27.82,0.07,83.8,1.66,-9.24,467050
宜蘭,24.763975,121.756528,0.76,27.63,3.96,86.0,5.01,-3.88,467080
金門,24.407306,118.289281,0.79,26.82,2.24,89.1,2.39,-3.5,467110
田中,23.873803,120.581286,-0.79,28.34,1.66,82.42,8.9,7.15,467270
澎湖,23.565503,119.563094,0.63,28.19,1.96,87.4,5.61,-0.54,467350
臺南,22.99328,120.20492,0.4,29.08,1.23,78.35,15.9,1.05,467410
永康,23.038386,120.2367,0.6,28.99,4.09,78.9,17.53,2.58,467420
嘉義,23.495925,120.432906,0.35,28.46,4.05,81.65,17.08,4.26,467480
臺中,24.145736,120.684075,0.93,28.74,0.74,77.2,6.16,-7.73,467490
阿里山,23.508208,120.813242,0.54,14.81,2.55,93.15,20.93,-8.34,467530
大武,22.35572,120.90374,0.68,28.7,1.22,78.95,15.05,0.34,467540
玉山,23.48718,120.95943,1.44,8.67,4.42,86.8,14.31,-5.49,467550
新竹,24.827853,121.014219,0.81,28.47,1.43,78.53,2.35,-7.87,467571
恆春,22.003897,120.746339,0.41,28.8,3.13,83.0,13.86,1.53,467590
成功,23.097486,121.373428,0.48,27.51,4.37,86.75,15.97,9.51,467610
日月潭,23.881325,120.90805,0.7,22.81,6.58,92.11,22.29,4.17,467650
臺東,22.752211,121.154586,0.53,28.53,3.69,81.8,10.45,1.87,467660
馬祖,26.169467,119.923158,1.37,25.67,2.1,90.3,5.84,-1.2,467990
山佳,24.974944,121.402008,1.61,28.99,-0.43,80.35,2.7,-8.01,C0A520
坪林,24.938183,121.70975,2.7,27.2,-2.68,89.45,6.52,-6.22,C0A530
泰平,24.971197,121.823711,1.22,24.81,0.13,94.65,7.85,-5.72,C0A550
桶後,24.848222,121.597992,2.02,26.05,-5.03,87.47,11.05,-1.9,C0A570
石碇,24.993969,121.662917,1.12,26.29,-4.17,87.05,3.32,-12.29,C0A640
大坪,25.165914,121.632969,2.25,26.89,-3.42,85.06,6.19,-8.12,C0A860
五指山,25.132153,121.608692,2.53,25.08,-2.44,90.95,4.42,-7.55,C0A870
雙溪,25.036003,121.864242,2.25,28.06,-2.61,86.4,5.58,-6.39,C0A890
三和,25.233153,121.595236,0.46,26.34,-2.47,89.4,7.95,-9.79,C0A931
金山,25.223628,121.643967,0.86,27.21,-2.18,83.45,6.1,-6.0,C0A940
鼻頭角,25.129036,121.923372,1.39,27.68,-2.29,87.55,3.52,-4.09,C0A950
三貂角,25.007606,122.002058,1.03,27.02,2.86,89.75,6.48,-1.48,C0A970
社子,25.109508,121.469681,1.77,29.51,0.48,79.6,2.8,-6.83,C0A980
天母,25.117494,121.537169,1.04,28.71,-3.69,73.2,2.7,-7.44,C0A9C0
內湖,25.079422,121.57545,1.72,29.53,-0.25,78.05,4.35,-7.15,C0A9F0
大屯山,25.175675,121.522408,2.33,23.02,2.59,97.8,4.53,-7.81,C0AC40
三峽,24.939025,121.369728,1.57,29.33,-0.03,81.25,4.68,-6.91,C0AC60
信義,25.037822,121.564597,1.36,29.14,-1.65,78.6,5.28,-7.56,C0AC70
文山,25.00235,121.575728,0.48,27.67,-3.25,81.55,5.42,-8.24,C0AC80
新莊,25.051478,121.446756,-0.1,28.42,1.47,76.15,2.8,-7.84,C0ACA0
八里,25.150211,121.403947,1.56,29.39,8.52,87.3,3.25,-5.23,C0AD10
蘆洲,25.086594,121.472331,0.96,29.64,0.87,76.8,2.78,-6.79,C0AD30
土城,24.973208,121.445169,0.33,27.72,-0.03,82.7,9.98,-2.99,C0AD40
鶯歌,24.951533,121.346294,1.29,29.01,1.23,83.6,2.55,-7.5,C0AD50
汐止,25.066881,121.658778,0.6,28.22,-3.67,79.85,3.05,-9.95,C0AH00
永和,25.01125,121.508111,1.21,29.51,2.12,77.65,9.48,-2.94,C0AH10
五分山,25.07125,121.780794,2.33,24.8,-1.32,92.85,6.1,-9.44,C0AH30
平等,25.129142,121.577086,0.48,26.04,-0.3,82.45,3.52,-9.78,C0AH40
林口,25.072181,121.38084,1.49,27.99,0.97,86.25,3.2,-7.49,C0AH50
松山,25.04871,121.55042,0.33,28.75,9.49,79.2,6.05,0.17,C0AH70
深坑,25.002703,121.628328,1.02,27.84,-0.13,84.1,3.22,-6.2,C0AH80
福山植物園,24.760717,121.58135,0.59,23.49,2.01,94.25,9.82,2.52,C0AH90
五股,25.07445,121.42728,0.9,28.35,0.43,83.05,3.2,-3.71,C0AI00
屈尺,24.92184,121.54475,1.89,28.99,1.47,85.5,8.07,-2.44,C0AI10
白沙灣,25.283128,121.519058,0.18,27.44,8.16,86.05,3.4,-2.76,C0AI20
三重,25.057328,121.500629,-0.92,29.26,8.5,85.05,2.38,-0.67,C0AI30
石牌,25.115597,121.513139,0.35,29.84,8.32,77.25,2.6,-3.97,C0AI40
七堵,25.094819,121.71713,1.25,28.9,-0.89,82.85,4.03,-6.66,C0B010
基隆嶼,25.19141,121.78391,-0.23,26.96,7.15,95.6,1.4,-6.33,C0B020
復興,24.820208,121.352281,0.17,24.42,-8.42,77.95,8.68,-6.53,C0C460
桃園,24.992425,121.323172,0.64,28.52,2.3,76.3,3.58,-6.88,C0C480
八德,24.928708,121.283289,0.12,27.75,-1.96,77.25,3.75,-6.11,C0C490
觀音,25.027072,121.153317,0.31,27.12,7.04,88.95,4.78,-4.93,C0C590
蘆竹,25.084275,121.265767,0.56,28.18,-0.26,81.3,2.28,-6.89,C0C620
大溪,24.882853,121.265547,0.48,26.72,3.11,81.15,5.32,-4.61,C0C630
平鎮,24.897503,121.214636,0.73,27.0,1.08,81.55,4.4,-5.0,C0C650
楊梅,24.912375,121.143047,-0.06,27.52,4.47,80.3,2.75,-6.84,C0C660
龍潭,24.870056,121.221389,0.07,26.7,2.62,80.75,7.0,-2.31,C0C670
龜山,25.02846,121.38656,-0.51,25.92,-0.42,79.55,3.32,-8.45,C0C680
中壢,24.977661,121.256375,0.25,27.86,2.29,76.55,2.65,-3.67,C0C700
大溪永福,24.892936,121.324975,0.54,27.17,1.19,84.8,4.53,-4.24,C0C710
梅花,24.678347,121.208558,0.59,24.41,2.37,90.2,8.6,-1.65,C0D360
峨眉,24.6905,121.017189,0.24,27.24,2.73,89.05,4.78,-4.39,C0D430
打鐵坑,24.849664,121.150789,0.17,25.71,-1.2,84.95,1.3,-8.53,C0D480
橫山,24.71116,121.11693,0.09,25.82,10.78,96.5,4.03,-5.91,C0D540
雪霸,24.526972,121.11605,0.54,18.31,0.98,85.45,6.13,-7.15,C0D550
竹東,24.767147,121.057881,1.45,28.18,-0.43,75.6,5.55,-3.01,C0D560
寶山,24.735006,121.025192,0.53,26.64,1.73,86.5,4.15,-5.18,C0D580
新豐,24.87068,120.97721,0.47,26.97,6.42,89.9,2.52,-7.88,C0D590
湖口,24.904794,121.043628,0.27,27.87,-1.76,77.75,2.28,-7.28,C0D650
新竹市東區,24.798681,120.986942,-0.02,27.9,2.51,77.65,2.72,-7.0,C0D660
竹南,24.708978,120.888897,1.91,29.28,4.67,83.35,3.3,-6.62,C0E420
南庄,24.601775,121.000214,0.47,26.01,3.37,86.7,6.22,-5.66,C0E430
明德,24.583486,120.885411,0.59,28.36,-0.19,79.35,3.82,-4.2,C0E550
通霄,24.471892,120.704622,0.16,27.95,0.42,83.35,4.28,-4.1,C0E590
馬都安,24.451272,120.930192,0.71,23.48,5.97,87.7,8.55,-4.09,C0E610
頭份,24.688247,120.912206,1.42,29.58,2.03,76.4,4.82,-4.33,C0E730
造橋,24.637056,120.864778,0.19,28.33,-0.93,80.4,3.58,-5.44,C0E740
苗栗,24.564569,120.824575,-0.13,28.42,-2.44,72.25,3.15,-5.82,C0E750
銅鑼,24.489681,120.790853,0.18,27.85,-2.66,79.05,4.08,-5.53,C0E780
西湖,24.562947,120.7485,0.37,27.71,-1.74,85.1,3.8,-5.16,C0E810
獅潭,24.539133,120.920042,-0.04,26.8,-2.26,81.5,4.38,-6.03,C0E820
苑裡,24.439714,120.653053,-0.17,28.18,0.3,79.25,2.92,-5.62,C0E830
大河,24.618069,120.948578,-1.35,26.02,2.08,82.1,4.5,-7.26,C0E850
高鐵苗栗,24.60725,120.826094,0.02,28.29,11.68,85.1,3.85,-2.8,C0E870
石岡,24.276061,120.777644,0.6,27.32,0.84,81.9,9.48,-8.39,C0F0B0
中坑,24.248517,120.903319,-0.35,21.93,-0.9,89.85,14.48,-9.07,C0F0C0
審馬陣,24.381675,121.4203,0.43,11.54,6.25,87.8,10.78,3.76,C0F0D0
東勢,24.246428,120.833047,1.2,27.6,-1.43,78.65,9.18,-6.15,C0F850
大坑,24.173142,120.722289,1.27,29.42,1.4,77.4,5.58,-7.06,C0F970
神岡,24.272481,120.658314,-0.09,27.5,-3.56,79.85,4.97,-3.56,C0F9I0
大安,24.345061,120.588025,-0.18,27.92,-0.93,82.45,4.08,-3.16,C0F9K0
后里,24.310436,120.729725,0.6,28.23,-1.9,79.55,6.92,-4.05,C0F9L0
豐原,24.254322,120.720692,1.49,29.22,-2.67,75.35,5.98,-6.48,C0F9M0
大里,24.092464,120.701378,0.94,29.97,3.44,78.1,6.38,-5.58,C0F9N0
潭子,24.213106,120.703933,0.26,28.87,2.89,79.4,5.78,-6.8,C0F9O0
清水,24.312297,120.562242,-0.11,28.44,-2.38,80.6,3.68,-3.23,C0F9P0
外埔,24.347817,120.705686,0.08,27.58,-1.6,83.0,6.22,-2.85,C0F9Q0
龍井,24.184536,120.528972,0.2,28.66,-7.57,79.55,5.8,-2.28,C0F9R0
烏日,24.107058,120.624103,0.15,28.77,-0.26,76.35,7.0,-3.22,C0F9S0
西屯,24.179494,120.641275,0.1,28.73,-1.77,75.25,6.08,-4.36,C0F9T0
南屯,24.137006,120.637969,-0.03,28.9,0.04,76.05,6.62,-3.42,C0F9U0
新社,24.200172,120.815806,0.48,25.84,-3.35,82.2,12.08,-4.28,C0F9V0
大雅(中科園區),24.21528,120.62445,0.16,27.63,1.72,81.7,4.45,-8.07,C0F9X0
桃山,24.432739,121.303808,0.54,10.89,5.66,89.25,12.2,-4.56,C0F9Y0
雪山東峰,24.388792,121.268675,0.7,11.8,3.72,85.7,10.78,-7.72,C0F9Z0
芬園,24.015678,120.6213,-0.57,27.15,8.86,91.55,9.48,-2.4,C0G620
員林,23.946503,120.585597,2.61,30.53,-2.88,79.85,10.1,-2.04,C0G650
溪湖,23.94835,120.479122,0.91,29.07,-5.61,81.72,9.48,-1.47,C0G660
溪州,23.851589,120.499093,0.85,28.68,-6.09,76.7,11.38,-2.98,C0G720
二林,23.903325,120.376081,0.3,28.18,0.0,88.2,12.05,-1.84,C0G730
大城,23.852487,120.320935,0.25,28.03,0.62,84.05,6.9,-5.65,C0G740
福興,24.041289,120.437669,0.07,29.13,-5.3,78.5,6.72,-2.37,C0G770
秀水,24.03405,120.503869,0.45,29.11,-0.99,82.4,9.6,0.12,C0G780
埔鹽,24.000394,120.431683,0.81,28.93,-7.25,79.65,7.72,-1.59,C0G800
埔心,23.947633,120.525456,1.46,30.26,-1.28,79.1,9.45,-1.78,C0G810
田尾,23.901669,120.509389,0.47,28.95,1.53,86.4,11.0,-1.07,C0G820
埤頭,23.866003,120.452806,0.12,28.49,3.08,91.2,9.7,-1.22,C0G830
社頭,23.897647,120.5862,0.31,29.38,8.55,83.85,8.45,-3.86,C0G860
二水,23.810742,120.6173,1.05,29.4,0.88,82.39,8.65,-4.1,C0G880
伸港,24.148933,120.484403,-0.03,28.52,-4.4,79.4,6.05,-1.64,C0G890
線西,24.143358,120.443536,-0.79,28.51,0.33,81.1,5.6,-2.53,C0G900
花壇,24.032076,120.549461,1.24,30.48,11.22,86.4,9.75,7.14,C0G910
埔里,23.972169,120.952425,0.38,25.98,1.79,86.85,17.98,-4.59,C0H890
草屯,23.973672,120.68085,-0.03,28.11,1.85,80.3,9.12,-3.35,C0H960
昆陽,24.121322,121.273642,1.17,11.6,1.02,90.6,11.95,-2.09,C0H990
神木村,23.532742,120.843667,0.79,19.71,0.58,91.4,14.42,-8.87,C0H9A0
合歡山,24.143442,121.272547,1.22,10.62,7.54,94.55,16.92,-10.28,C0H9C0
廬山,24.033311,121.181808,1.01,20.24,-2.0,84.75,11.92,-7.94,C0I010
信義,23.689694,120.851036,0.41,24.94,1.51,88.2,9.78,-8.38,C0I080
竹山,23.761225,120.688156,0.83,27.58,1.7,85.3,17.2,1.64,C0I110
水里,23.812553,120.849792,0.46,26.6,-0.58,82.0,16.45,-5.34,C0I360
魚池,23.895703,120.94135,0.37,24.62,-1.5,85.25,17.6,-5.05,C0I370
集集,23.828206,120.801467,0.01,26.79,1.89,85.85,15.32,-8.63,C0I380
仁愛,24.022122,121.132206,0.85,22.06,-4.2,84.75,11.15,-17.07,C0I390
名間,23.837053,120.701447,-0.17,26.99,6.16,86.45,12.8,-4.5,C0I410
國姓,24.037803,120.855072,0.31,26.47,-0.44,86.05,14.32,-12.12,C0I420
南投,23.911469,120.687331,0.12,28.32,7.58,85.45,9.3,-10.25,C0I460
梅峰,24.085272,121.173572,1.08,16.76,-2.88,88.4,14.9,-16.57,C0I480
萬大林道,23.928228,121.091411,0.76,19.86,-5.88,85.5,12.55,-8.3,C0I490
小奇萊,24.131764,121.295717,1.1,11.55,1.26,90.05,6.17,-14.19,C0I530
崙背,23.75555,120.318925,0.15,27.95,-0.6,85.7,12.02,-3.53,C0K250
四湖,23.630414,120.227125,0.8,28.44,-2.16,83.5,13.95,2.19,C0K280
宜梧,23.536281,120.169329,-0.01,28.44,-1.29,83.0,13.48,2.2,C0K291
虎尾,23.719183,120.442036,0.61,28.6,6.24,85.5,11.98,-0.59,C0K330
土庫,23.679029,120.395574,0.11,28.28,-2.21,80.3,11.88,-3.27,C0K390
斗六,23.720583,120.541127,0.12,28.26,-2.56,78.35,8.43,-7.55,C0K400
北港,23.573957,120.292802,0.12,28.38,-2.34,80.65,11.9,1.87,C0K410
西螺,23.800407,120.467394,0.15,28.47,-1.21,80.45,10.42,-3.16,C0K420
褒忠,23.690938,120.303634,0.18,28.15,-0.76,83.4,11.95,-0.82,C0K430
二崙,23.772797,120.408944,0.32,28.36,8.06,91.5,10.38,-5.72,C0K440
大埤,23.646074,120.431537,0.24,28.38,-0.5,80.95,10.28,-5.71,C0K450
斗南,23.678734,120.478359,0.18,28.37,2.62,80.65,10.05,-6.55,C0K460
林內,23.748675,120.609642,0.13,27.58,-0.11,82.7,12.85,-3.79,C0K470
莿桐,23.761192,120.502372,0.15,28.1,0.87,81.0,8.25,-8.12,C0K480
元長,23.64981,120.315024,0.26,28.51,0.51,82.15,13.75,-1.38,C0K500
水林,23.572924,120.24597,0.34,28.62,1.99,83.45,14.0,0.98,C0K510
臺西,23.701547,120.197559,-0.01,28.06,1.12,84.05,14.52,0.04,C0K530
蔦松,23.514319,120.229736,0.23,28.52,0.36,83.9,13.75,2.94,C0K550
棋山,23.68645,120.603417,0.09,27.68,4.72,86.55,14.52,-5.87,C0K560
高鐵雲林,23.737456,120.417944,-0.42,27.92,0.16,84.4,12.12,2.97,C0K580
東後寮,23.369908,120.248065,0.17,28.13,0.81,85.85,13.48,0.97,C0M520
奮起湖,23.493903,120.699253,0.84,20.51,1.83,94.0,22.28,-4.53,C0M530
中埔,23.42538,120.5229,-0.07,27.73,-0.62,77.4,14.62,-2.31,C0M640
朴子,23.43463,120.23902,-0.5,27.62,3.0,86.05,13.12,1.93,C0M650
溪口,23.604131,120.403569,0.08,28.17,-1.09,81.25,8.22,-4.39,C0M660
大林,23.600616,120.45841,0.17,28.59,1.09,79.75,10.9,-5.61,C0M670
太保,23.455062,120.331455,-0.04,28.24,-1.86,81.8,13.1,-0.36,C0M680
水上,23.419734,120.388909,0.16,28.23,-0.39,81.3,17.8,3.58,C0M690
竹崎,23.526178,120.555508,-0.12,27.3,2.73,83.75,17.7,1.35,C0M700
東石,23.458927,120.15385,-0.19,28.5,-2.08,80.85,14.55,3.84,C0M710
番路,23.464657,120.554156,0.16,27.38,2.35,80.6,18.85,-0.47,C0M720
嘉義市東區,23.457673,120.460531,-0.02,28.64,3.15,80.8,16.6,2.1,C0M730
六腳,23.492871,120.290625,0.05,28.42,2.22,82.0,13.8,3.59,C0M740
布袋,23.380878,120.167789,0.18,28.68,-1.88,81.15,12.75,-0.11,C0M750
民雄,23.551754,120.428457,0.04,28.54,0.07,80.35,10.98,-3.86,C0M760
嘉義梅山,23.585398,120.555587,-0.26,27.68,3.6,82.3,20.27,3.03,C0M770
鹿草,23.41134,120.30835,0.23,28.58,1.36,82.55,15.35,0.28,C0M780
新港,23.553269,120.345728,-0.09,28.26,-0.18,80.9,10.32,-2.03,C0M790
茶山,23.299075,120.664767,0.05,25.29,1.87,87.9,18.48,-6.28,C0M800
里佳,23.389125,120.716647,0.54,20.92,-0.93,87.5,24.02,-9.33,C0M810
達邦,23.453994,120.749517,0.68,22.7,2.9,88.3,14.95,-13.27,C0M820
表湖,23.24186,120.64166,-0.68,23.65,1.62,88.15,16.42,-0.86,C0M850
新美,23.338017,120.683169,-0.36,24.95,10.52,87.75,18.8,15.41,C0M860
北寮,23.079561,120.495008,-0.26,27.54,7.71,90.35,24.75,12.36,C0O830
王爺宮,23.222064,120.40085,1.98,29.64,-3.85,79.2,16.98,3.19,C0O840
大內,23.11885,120.36083,0.66,29.42,4.34,86.25,17.58,5.33,C0O860
善化,23.112883,120.297219,0.59,28.46,8.45,92.0,17.32,2.17,C0O900
崎頂,22.959547,120.369317,0.73,28.48,1.29,86.85,16.5,4.89,C0O960
虎頭埤,23.021375,120.347878,-0.2,27.79,-1.13,82.6,19.2,6.27,C0O970
新市,23.061614,120.298197,0.51,29.13,-1.64,81.95,16.68,5.66,C0O980
媽廟,22.99175,120.293525,0.2,28.8,1.5,84.2,15.2,2.82,C0O990
尾寮山,22.833111,120.683889,1.2,22.77,1.6,93.65,31.25,0.03,C0R100
阿禮,22.742908,120.743678,0.17,22.52,-2.2,84.2,18.68,1.43,C0R130
瑪家,22.682903,120.686639,-0.55,23.72,10.98,95.25,27.18,2.69,C0R140
三地門,22.709889,120.639944,0.69,28.33,1.8,79.2,22.5,-0.07,C0R150
鹽埔,22.739558,120.530778,0.27,28.6,-0.09,86.2,18.65,4.22,C0R160
赤山,22.592333,120.614306,-0.07,28.48,7.58,89.8,19.73,2.14,C0R190
潮州,22.534361,120.54,0.84,29.0,1.96,79.85,21.1,3.17,C0R220
來義,22.527306,120.625111,-0.82,27.2,9.74,90.8,20.78,3.84,C0R240
春日,22.370361,120.628306,-1.27,27.16,6.14,86.5,20.65,7.81,C0R260
琉球嶼,22.332244,120.362236,0.76,28.74,-3.64,82.4,9.55,-1.25,C0R270
車城,22.0744,120.716247,-0.47,28.66,3.88,85.7,15.32,12.69,C0R320
牡丹,22.130036,120.792639,-0.42,26.56,10.5,94.45,18.45,12.43,C0R341
貓鼻頭,21.921774,120.7358,0.62,28.55,1.04,84.95,14.52,4.13,C0R350
大漢山,22.405264,120.753181,0.28,18.24,4.05,98.05,40.95,28.04,C0R440
高樹,22.826389,120.600806,-0.34,28.29,0.93,77.75,22.05,5.9,C0R470
長治,22.693128,120.542622,0.57,29.37,0.22,79.85,20.02,4.94,C0R480
九如,22.7405,120.490503,0.6,29.3,-1.5,80.3,21.5,6.98,C0R490
崁頂,22.514781,120.506914,-0.23,28.76,1.3,83.1,12.8,-0.91,C0R520
佳冬,22.419456,120.552375,-0.09,28.8,1.09,81.8,18.8,5.41,C0R540
新埤,22.467947,120.582894,-0.15,28.49,-3.6,78.85,20.78,8.15,C0R550
新園,22.5434,120.461558,0.89,29.75,-5.68,76.8,18.45,4.42,C0R560
麟洛,22.65078,120.52719,0.7,29.7,3.64,83.0,22.55,9.34,C0R570
南州,22.48591,120.50274,-0.23,28.54,5.9,85.55,17.48,4.8,C0R580
里港,22.77919,120.49459,0.1,28.56,2.52,84.1,20.4,7.5,C0R590
舊泰武,22.588194,120.664944,-0.14,24.3,2.9,87.0,13.05,-10.79,C0R600
墾雷,21.900836,120.855269,-0.42,28.21,9.01,93.35,15.7,6.77,C0R620
東港,22.46247,120.44074,-0.21,28.96,0.24,83.35,14.15,11.11,C0R640
竹田,22.58486,120.54344,-0.51,28.88,1.46,81.35,20.32,14.73,C0R650
枋寮,22.367722,120.590647,-0.06,28.8,7.41,85.5,14.85,13.37,C0R660
楓港,22.190131,120.692156,-0.76,28.3,1.03,79.85,19.98,17.77,C0R670
佳樂水,21.993578,120.861633,-0.95,28.4,7.92,87.1,15.22,13.54,C0R680
墾丁,21.966756,120.810269,-0.45,26.68,3.86,92.0,16.55,14.6,C0R690
枋山,22.246844,120.661086,0.38,28.94,0.43,80.2,46.5,44.95,C0R700
龍磐,21.931672,120.838942,-0.88,27.69,5.62,90.35,13.92,12.72,C0R710
旭海,22.205403,120.887614,-0.99,26.86,6.73,86.05,13.5,9.43,C0R720
大坪頂,22.024633,120.69355,-0.62,27.52,8.84,94.7,9.7,8.59,C0R730
四林格山,22.076989,120.802439,-0.28,24.48,1.74,97.1,19.62,11.08,C0R750
南仁湖,22.084681,120.863353,-1.0,25.6,12.84,97.2,24.48,15.34,C0R760
保力,22.071122,120.764111,-0.24,27.38,4.05,89.55,16.2,8.97,C0R770
滿州,22.024403,120.839892,-0.82,27.86,5.94,85.8,16.88,13.44,C0R780
九棚,22.14195,120.889281,-1.3,27.69,11.05,85.73,7.81,1.26,C0R790
丹路,22.204481,120.750989,-0.22,27.72,3.34,85.2,28.28,21.5,C0R800
內獅,22.305064,120.642986,0.04,28.91,16.56,93.2,23.3,20.89,C0R810
白鷺,22.454275,120.666219,0.1,25.26,4.3,87.8,28.18,26.24,C0R820
高士,22.121825,120.836781,-0.94,25.4,9.75,93.25,20.8,12.12,C0R830
牡丹池山,22.168389,120.841225,-0.78,24.54,9.26,95.4,18.02,10.77,C0R840
下馬,23.150427,121.070312,0.17,23.88,6.12,86.5,10.7,9.14,C0S660
太麻里,22.60902,120.98533,0.98,25.31,4.63,88.63,9.63,-0.28,C0S690
知本,22.684866,121.005642,1.02,25.52,4.83,90.15,18.05,7.81,C0S700
鹿野,22.917711,121.122994,1.23,25.99,5.58,88.95,14.08,5.73,C0S710
綠島,22.6672,121.47533,1.04,28.0,-0.54,85.85,16.55,9.87,C0S730
池上,23.119628,121.209469,0.77,26.3,5.49,88.7,13.85,7.43,C0S740
向陽,23.248397,120.986133,1.15,16.31,13.53,89.9,13.7,-4.19,C0S750
大溪山,22.478475,120.943325,0.94,25.88,6.82,87.85,13.08,0.4,C0S770
金崙,22.538122,120.966875,1.11,27.79,1.34,81.95,11.2,0.78,C0S790
東河,22.972672,121.303986,0.12,27.94,3.56,88.3,16.7,9.74,C0S810
長濱,23.286817,121.411975,0.82,26.96,3.47,87.5,15.38,9.3,C0S830
南田,22.279725,120.889208,0.63,28.4,1.84,80.55,15.3,1.62,C0S840
關山,23.0395,121.175017,0.23,26.88,6.14,89.25,13.1,7.29,C0S890
蘭嶼高中,22.04909,121.51214,-0.55,28.75,8.44,87.85,21.6,19.87,C0S900
蘭嶼燈塔,22.081197,121.503117,-0.42,27.23,9.47,93.2,20.1,18.68,C0S910
金峰嘉蘭,22.594789,120.960825,-0.57,27.78,3.95,81.0,14.28,9.32,C0S920
延平,22.902581,121.084058,-1.06,26.65,11.33,85.6,14.2,11.7,C0S930
石寧山,23.223772,121.406639,-0.79,27.84,6.57,87.75,16.68,15.03,C0S940
七塊厝,22.954453,121.229922,-0.22,26.26,-0.74,85.17,17.06,10.9,C0S950
香蘭,22.587569,120.993375,-0.39,28.56,11.31,84.94,13.12,10.03,C0S960
加津林,22.416211,120.926942,0.0,28.4,4.36,81.0,14.25,10.73,C0S970
勝林山,22.430439,120.8938,-1.83,22.82,11.58,91.85,15.05,10.47,C0S980
山豬窟,22.318619,120.857372,-1.52,25.99,12.12,86.67,18.05,13.6,C0S990
歷坵,22.520969,120.89185,0.11,25.7,1.5,87.05,13.8,9.31,C0SA00
檳榔四格山,22.810031,121.109308,-0.94,25.78,7.65,90.1,11.05,9.16,C0SA10
金崙山,22.567419,120.959667,-0.05,24.16,1.6,86.6,15.72,12.36,C0SA20
都歷,23.020333,121.323642,-0.33,27.96,1.65,80.65,15.25,11.08,C0SA30
瑞和,22.974361,121.156697,-1.01,26.91,6.29,85.65,13.45,10.06,C0SA40
知本（水試所）,22.702394,121.082761,-0.74,28.14,7.61,85.7,12.12,10.2,C0SA60
土坂,22.453108,120.887572,0.05,27.9,8.0,84.0,15.82,10.26,C0SA80
達仁林場,22.264347,120.823972,-0.86,25.17,11.81,90.9,24.95,15.84,C0SA90
大禹嶺,24.186117,121.316086,0.68,13.52,2.66,87.3,11.1,-0.27,C0T790
天祥,24.179597,121.495639,0.88,24.34,5.88,87.7,11.02,5.69,C0T820
鯉魚潭,23.935639,121.508944,0.49,25.89,1.83,91.25,13.05,5.86,C0T870
西林,23.8119,121.441458,0.68,26.8,7.5,88.35,9.88,3.12,C0T900
光復,23.660694,121.424964,1.2,27.41,-1.23,86.35,11.92,4.2,C0T960
月眉山,23.809928,121.539828,1.3,25.16,-1.06,92.55,9.05,2.86,C0T9A0
水源,23.991861,121.537169,1.0,24.46,0.06,91.9,15.35,7.94,C0T9B0
和中,24.26676,121.74103,0.68,27.42,10.39,100.0,11.88,4.03,C0T9D0
大坑,23.880628,121.581981,0.93,25.45,4.1,92.85,15.15,8.28,C0T9E0
水璉,23.797131,121.542514,0.53,26.49,4.32,91.4,8.68,2.5,C0T9F0
鳳林山,23.735269,121.420131,0.12,24.58,0.78,93.65,14.55,6.04,C0T9G0
加路蘭山,23.682947,121.5274,1.27,24.6,6.16,98.65,10.6,2.37,C0T9H0
豐濱,23.583897,121.514806,1.25,26.92,-3.24,86.2,9.7,2.44,C0T9I0
靜浦,23.455167,121.495028,0.92,27.22,6.78,93.2,14.65,8.45,C0T9M0
富里,23.171639,121.249378,-0.96,26.71,19.28,99.1,11.72,9.9,C0T9N0
雙連埤,24.753033,121.641303,0.02,23.65,-1.91,93.65,8.48,-2.14,C0U520
礁溪,24.817539,121.765608,1.04,27.53,-2.06,84.55,4.58,-4.64,C0U600
玉蘭,24.675286,121.587061,1.15,25.47,-1.2,84.35,9.35,-0.97,C0U650
太平山,24.505486,121.525656,1.26,18.2,-0.91,91.7,14.45,2.18,C0U710
南山,24.43742,121.38167,0.41,22.08,-5.39,84.7,5.58,-0.63,C0U720
龜山島,24.841667,121.953133,-0.12,24.48,-0.93,93.45,3.52,-1.03,C0U750
東澳,24.52196,121.83318,0.82,27.7,-3.24,84.2,6.15,-3.58,C0U760
南澳,24.44935,121.81022,0.27,27.28,2.73,89.0,3.38,-3.51,C0U770
五結,24.68637,121.79794,-0.08,27.47,-0.45,84.05,5.75,-0.59,C0U780
頭城,24.85323,121.8308,-0.06,27.46,-0.11,89.1,5.12,-2.85,C0U860
大礁溪,24.791042,121.675047,0.24,24.84,6.57,93.6,8.38,0.81,C0U870
三星,24.66812,121.65302,0.14,26.82,-5.42,83.05,7.8,0.89,C0U890
內城,24.71813,121.68766,0.64,27.45,-1.51,85.55,5.68,-1.58,C0U900
冬山,24.63373,121.7937,0.66,27.94,0.42,81.0,7.08,-1.08,C0U910
羅東,24.68184,121.74934,0.68,27.86,1.77,84.35,4.58,-2.03,C0U940
鶯子嶺,24.89754,121.79244,0.58,21.76,-2.65,92.65,9.98,-0.47,C0U950
翠峰湖,24.510856,121.608044,1.04,17.99,1.48,93.65,13.9,5.57,C0U960
大福,24.80064,121.81389,-0.2,26.99,2.38,86.15,4.22,-2.31,C0U970
坪林石牌,24.86478,121.77396,0.39,24.01,2.39,95.75,7.25,-1.3,C0U980
員山,24.74435,121.72247,0.17,27.48,4.08,87.05,4.88,-2.06,C0U990
土場,24.576533,121.495333,-0.1,25.36,-2.59,86.7,6.05,-0.78,C0UA00
鴛鴦湖,24.590269,121.412228,0.71,18.6,2.46,96.35,16.23,4.96,C0UA10
白嶺,24.527819,121.519031,0.61,20.82,-2.21,92.15,14.3,4.48,C0UA30
西德山,24.560647,121.752608,0.67,21.87,1.73,94.2,11.15,2.82,C0UA40
西帽山,24.555361,121.802628,0.39,23.28,-4.46,88.45,11.6,0.96,C0UA50
樟樹山,24.41393,121.78325,0.33,24.74,3.05,89.16,5.34,-2.64,C0UA60
桃源谷,24.962606,121.888875,0.35,24.19,-0.12,96.05,9.07,-1.58,C0UA70
復興,23.222403,120.806089,0.5,24.4,3.62,85.35,17.77,-0.4,C0V210
溪埔,22.738578,120.446797,-0.04,28.42,5.11,86.65,22.1,8.35,C0V350
內門,22.975481,120.466769,0.88,28.39,2.57,86.3,26.52,10.98,C0V360
古亭坑,22.893178,120.401947,0.16,27.37,3.21,87.71,25.07,7.36,C0V370
阿公店,22.804194,120.355528,-0.2,28.14,2.32,84.7,16.23,4.04,C0V400
鳳山,22.646653,120.356122,-0.58,28.47,8.41,86.4,14.18,2.4,C0V440
鳳森,22.545064,120.392592,-0.26,28.3,0.51,83.6,17.0,3.92,C0V450
新興,22.627422,120.298803,0.43,29.49,-2.1,77.2,17.55,5.56,C0V490
阿蓮,22.883208,120.327508,-0.03,28.88,1.57,82.75,18.43,3.82,C0V530
梓官,22.760558,120.267211,-0.2,28.9,-0.38,80.95,18.0,5.51,C0V610
永安,22.82315,120.236856,-0.24,28.65,-2.21,81.95,14.72,2.32,C0V620
茄萣,22.906642,120.182608,0.16,29.24,4.22,82.65,19.95,8.31,C0V630
湖內,22.887139,120.2445,-0.56,28.37,-0.02,81.3,15.35,3.82,C0V640
彌陀,22.783806,120.246361,0.0,28.84,-2.14,82.75,15.88,3.85,C0V650
岡山,22.797078,120.294958,0.28,29.64,1.05,79.75,21.08,7.38,C0V660
仁武,22.701083,120.347722,0.12,29.67,1.44,79.75,17.25,4.68,C0V680
鼓山,22.623325,120.275575,-0.15,28.98,0.34,81.5,15.0,4.32,C0V690
三民,22.645017,120.311233,-0.07,29.55,3.35,76.75,18.38,5.84,C0V700
苓雅,22.622742,120.330669,0.47,29.78,6.99,80.78,18.81,7.01,C0V710
林園,22.507747,120.394511,0.36,29.97,4.09,80.85,14.95,2.48,C0V720
大寮,22.605614,120.395717,-0.36,28.94,7.22,84.25,21.62,9.52,C0V730
旗山,22.888614,120.483597,0.92,29.21,-0.29,79.45,25.25,10.65,C0V740
路竹,22.854997,120.259439,0.41,29.54,-0.27,79.3,15.88,2.05,C0V750
橋頭,22.757806,120.30575,0.33,29.68,-3.34,76.35,18.12,6.1,C0V760
大社,22.730306,120.346639,0.17,29.5,4.49,81.35,19.27,6.24,C0V770
萬山,22.905944,120.688056,0.38,26.2,4.58,86.0,20.24,3.31,C0V790
六龜,22.997889,120.633583,0.15,27.29,4.79,84.0,27.1,7.45,C0V800
左營,22.67491,120.28491,-0.16,28.79,-0.71,80.3,17.88,3.89,C0V810
小林,23.148408,120.63325,-0.26,25.84,8.32,87.8,16.5,4.99,C0V820
東莒,25.9652,119.98069,1.07,25.66,-0.76,87.71,2.13,-5.43,C0W110
西嶼,23.5626,119.468436,0.62,26.84,-1.05,92.28,11.11,5.37,C0W120
花嶼,23.40007,119.32276,0.49,27.1,0.55,90.5,3.72,-3.31,C0W130
金沙,24.488292,118.408778,0.82,27.22,-2.63,84.3,1.92,-3.18,C0W140
金寧,24.457703,118.328989,-0.08,27.09,-4.53,83.6,1.58,-2.95,C0W150
東河,23.296598,120.385608,-0.27,28.08,-1.64,80.2,16.23,1.48,C0X050
下營,23.22695,120.256261,0.36,28.57,-3.19,80.55,16.6,2.61,C0X060
佳里,23.173039,120.145086,0.73,28.82,3.03,87.9,20.0,7.5,C0X080
臺南市北區,23.010394,120.194228,-0.12,29.42,5.63,80.6,13.6,3.64,C0X100
臺南市南區,22.961189,120.188378,-0.09,29.2,1.33,82.35,15.05,5.37,C0X110
麻豆,23.183289,120.248611,0.51,29.56,1.58,83.3,17.32,6.66,C0X120
官田,23.193217,120.315422,-0.03,28.88,8.62,88.15,14.72,4.21,C0X130
西港,23.125608,120.203108,-0.36,28.87,0.1,79.65,20.58,10.58,C0X140
安定,23.102614,120.227839,0.16,29.2,3.38,84.1,18.85,9.66,C0X150
仁德,22.968258,120.257689,0.17,29.2,2.96,82.25,16.32,5.42,C0X160
關廟,22.963017,120.327797,-0.21,28.95,7.65,83.55,15.05,2.14,C0X170
山上,23.0757,120.363253,-0.01,28.36,2.36,83.4,18.62,6.79,C0X180
安平,22.993161,120.152181,-0.11,29.08,-3.84,78.45,15.1,6.14,C0X190
左鎮,23.056758,120.408522,0.83,28.65,-0.57,83.7,18.42,6.29,C0X200
白河,23.347466,120.414427,-0.03,28.15,2.23,82.55,15.2,1.03,C0X210
學甲,23.230367,120.182187,0.15,28.59,2.36,82.05,15.35,5.74,C0X220
鹽水,23.272621,120.247641,0.1,28.28,0.78,83.7,15.4,3.73,C0X230
關子嶺,23.331169,120.508025,0.04,26.04,3.95,87.9,25.68,4.43,C0X240
新營,23.310689,120.316681,-0.22,28.67,2.71,80.75,18.12,6.26,C0X250
後壁,23.366358,120.362326,-0.08,28.35,0.54,81.05,16.02,4.49,C0X260
將軍,23.214999,120.13577,0.15,28.48,0.25,82.45,14.9,3.78,C0X280
北門,23.267772,120.125481,0.0,28.57,-1.91,82.6,13.58,2.22,C0X290
鹿寮,23.386047,120.477331,-0.01,27.5,-0.37,84.2,18.75,3.58,C0X300
柳營,23.253328,120.375253,-0.67,28.08,7.32,83.5,14.3,12.66,C0X320
明里,23.208717,121.262342,0.18,26.28,2.33,91.0,13.28,6.18,C0Z020
佳心,23.34567,121.21316,0.92,23.11,9.97,95.05,15.52,8.19,C0Z050
玉里,23.3215,121.339656,0.79,27.3,7.64,96.35,17.23,9.27,C0Z061
舞鶴,23.46811,121.37407,1.23,26.47,9.03,99.55,19.2,13.52,C0Z070
富源,23.587642,121.378225,0.66,26.49,0.22,89.55,13.18,4.99,C0Z080
東華,23.89525,121.549833,0.53,27.72,3.53,89.55,4.88,0.86,C0Z100
吉安光華,23.930925,121.595153,0.41,27.25,-2.79,84.85,15.32,11.04,C0Z150
鳳林,23.746114,121.453411,0.27,26.87,-0.05,83.7,9.6,2.42,C0Z160
卓溪,23.3443,121.3029,-0.29,26.99,0.13,81.95,17.55,10.82,C0Z170
新城,24.040486,121.604878,0.25,27.44,15.76,98.65,11.3,6.58,C0Z180
富世,24.14743,121.6297,0.2,27.42,-1.83,85.9,13.48,7.31,C0Z190
萬榮,23.709219,121.420106,0.52,26.77,-1.63,84.95,12.82,6.15,C0Z200
瑞穗,23.5239,121.39021,0.74,27.27,2.21,87.65,14.4,9.32,C0Z210
和平林道,24.343922,121.656317,0.16,24.4,-2.71,88.85,10.9,7.7,C0Z220
和平,24.30717,121.77007,-0.79,26.65,-1.02,83.6,11.68,4.51,C0Z230
瑞穗林道,23.49284,121.30688,0.51,22.04,2.5,96.45,16.18,7.52,C0Z250
蕃薯寮,23.73835,121.540108,0.62,25.7,-2.77,89.5,8.9,2.45,C0Z270
德武,23.47426,121.41071,0.53,26.81,0.85,88.0,19.98,15.75,C0Z280
赤柯山,23.36893,121.38293,0.64,23.08,-0.43,90.05,19.05,14.16,C0Z290
東里,23.26853,121.30547,0.27,27.06,-2.43,85.4,20.15,16.19,C0Z300
清水斷崖,24.218294,121.689142,-0.26,26.76,-1.96,87.95,9.07,1.86,C0Z310
清水林道,23.27125,121.188272,0.03,24.24,1.0,85.85,14.42,8.71,C0Z320
安通山,23.290728,121.348528,0.05,25.32,4.64,90.05,19.7,15.61,C0Z330
口湖工作站,23.589978,120.180394,-0.04,28.2,1.2,77.55,12.58,10.15,12J990
東港工作站,22.479997,120.466058,-0.37,28.98,2.39,70.8,14.48,11.18,12Q970
恆春工作站,22.079678,120.714425,-0.32,28.68,3.95,79.45,13.92,6.89,12Q980
萬大發電廠,23.978875,121.139639,0.51,22.52,-6.64,83.3,10.72,0.24,42HA10
桃改樹林分場,24.944503,121.386972,-1.04,27.42,1.45,79.4,5.55,0.5,72AI40
桃園農改場,24.950944,121.030583,1.08,27.89,-0.07,83.35,1.65,-7.35,72C440
桃改五峰分場,24.612194,121.157167,1.15,22.63,1.19,89.5,5.76,-4.48,72D080
臺中農改場,24.003028,120.534389,0.56,28.1,4.53,87.75,10.9,0.53,72G600
中改埔里分場,23.903208,120.963364,0.32,24.18,2.08,91.35,15.95,-2.29,72HA00
南改斗南分場,23.634556,120.477333,0.75,28.38,0.86,83.95,7.7,-4.18,72K220
南改義竹分場,23.360694,120.279361,0.19,28.1,-3.87,82.1,15.2,2.93,72M360
南改鹿草分場,23.416869,120.283061,-0.19,28.26,5.02,85.6,11.58,4.76,72M700
臺南農改場,23.0605,120.342194,0.16,28.1,4.29,87.3,17.8,6.46,72N100
七股研究中心,23.081672,120.062894,0.01,28.96,2.61,83.95,19.95,14.87,72N240
高雄農改場,22.709333,120.525889,0.32,28.54,4.49,85.5,18.58,0.62,72Q010
東改班鳩分場,22.829528,121.077694,0.49,26.36,1.04,85.05,10.03,1.39,72S200
東改賓朗果園,22.813889,121.071278,-7.16,18.28,3.1,93.38,12.45,4.7,72S590
花蓮農改場,23.975222,121.563889,1.03,27.42,-0.92,83.45,14.39,8.86,72T250
花改蘭陽分場,24.686306,121.716583,0.99,27.4,-1.27,85.1,6.3,-1.5,72U480
高改旗南分場,22.857861,120.516667,-0.7,27.99,7.72,84.4,2.77,-15.8,72V140
茶改北部分場,24.955778,121.631222,1.57,25.57,1.02,87.05,3.98,-10.37,82A750
茶改場,24.908472,121.185333,0.81,27.04,-3.3,80.45,3.48,-6.18,82C160
茶改中部分場,23.875611,120.913583,0.19,23.26,1.74,90.93,19.54,1.88,82H320
茶改南部分場,23.762528,120.7405,-0.2,25.3,0.17,89.15,17.18,0.96,82H840
茶改東部分場,22.907694,121.130139,0.19,26.85,3.55,86.0,14.22,5.65,82S580
農工中心,24.985917,121.239833,1.17,27.93,2.15,77.8,2.4,-5.73,A2C560
水試臺西試驗場,23.717231,120.190522,0.18,28.43,3.33,87.9,13.78,6.6,A2K360
臺大雲林校區,23.730628,120.423903,-0.29,27.95,3.52,84.2,11.25,8.32,A2K630
臺南蘭花園區,23.340258,120.379661,-0.22,27.99,5.27,86.45,14.02,11.39,A2N290
畜試北區分所,24.527806,120.770972,2.53,29.61,-4.96,76.75,3.29,-4.4,B2E890
畜產試驗所,23.058972,120.336406,0.01,27.72,2.27,86.8,18.68,2.65,B2N890
畜試南區分所,21.945583,120.802167,-0.04,28.01,-1.46,82.6,15.95,5.19,B2Q810
畜試東區分所,24.669039,121.832561,-0.4,27.45,7.45,91.5,7.35,3.94,B2U990
蓮華池,23.918333,120.885278,-0.68,24.01,6.11,89.95,18.68,0.73,E2H360
林試畢祿溪站,24.226944,121.308522,-0.01,15.63,12.89,91.5,10.98,10.75,E2HA20
四湖植物園,23.676986,120.163433,-0.05,28.24,10.18,95.25,15.7,9.9,E2K600
林試六龜中心,22.991703,120.645722,-0.96,26.28,12.91,88.5,23.9,22.83,E2P980
林試太麻里2,22.598,120.99775,-0.38,28.05,4.02,80.75,0.72,-2.19,E2S960
林試太麻里1,22.598922,120.980044,-0.24,27.72,5.34,82.7,14.65,11.13,E2S980
農試所(霧峰),24.031261,120.688133,1.14,28.6,-0.31,82.84,9.85,-2.41,G2F820
農試嘉義分所,23.485028,120.473806,0.01,27.66,2.31,83.25,18.9,8.66,G2L020
農試溪口農場,23.58565,120.408111,0.89,28.36,0.83,82.65,8.8,3.87,G2M350
農試鳳山分所,22.646611,120.356083,-0.01,28.59,3.12,81.45,17.48,2.72,G2P820
苗栗農改場,24.495722,120.829111,0.45,27.65,-0.3,79.15,3.68,-6.61,K2E360
苗改生物防治研究中心,24.422861,120.871833,-0.12,26.07,1.53,82.75,7.45,-1.33,K2E710
種苗改良場,24.225972,120.800917,0.77,25.99,6.18,88.2,9.28,-6.72,K2F750
臺大和社,23.590856,120.888864,1.07,23.8,3.7,90.05,8.8,-2.5,U2HA30
臺大內茅埔,23.689722,120.851117,0.22,24.9,3.09,87.55,8.75,-2.74,U2HA40
臺大竹山,23.756972,120.681556,0.02,27.32,2.48,83.25,16.25,1.56,U2HA50
