站名,緯度,經度,平均溫距平,本年度平均溫,平均溼度距平,本年度日均相對溼度,本年度日均降水量,日均降水量距平,站號
淡水,25.164889,121.448906,2.1,28.25,-3.51,77.0,0.04,-15.05,466900
鞍部,25.182586,121.529731,1.9,22.8,2.98,92.5,0.0,-19.66,466910
臺北,25.037658,121.514853,2.87,29.95,-8.54,67.5,0.0,-11.9,466920
竹子湖,25.162078,121.544547,2.03,24.55,1.58,87.5,0.0,-16.9,466930
基隆,25.133314,121.740475,1.69,27.8,-3.04,76.5,0.0,-15.62,466940
花蓮,23.975128,121.613275,1.89,28.45,-2.91,78.0,0.0,-6.15,466990
新屋,25.006725,121.047492,0.51,27.85,-0.63,84.0,0.04,-16.0,467050
宜蘭,24.763975,121.756528,1.66,27.8,-2.8,79.5,0.0,-7.45,467080
金門,24.407306,118.289281,0.83,25.7,4.44,90.5,0.09,-4.49,467110
田中,23.873803,120.581286,-1.0,28.35,2.25,82.5,0.5,0.5,467270
澎湖,23.565503,119.563094,1.3,28.25,0.83,85.5,0.04,-3.76,467350
臺南,22.99328,120.20492,0.33,28.6,4.82,82.0,19.5,9.58,467410
永康,23.038386,120.2367,0.24,28.3,7.78,83.0,30.5,21.55,467420
嘉義,23.495925,120.432906,1.0,28.6,1.64,81.0,11.0,-0.83,467480
臺中,24.145736,120.684075,1.12,28.6,1.41,78.0,1.8,-11.53,467490
阿里山,23.508208,120.813242,1.45,15.35,5.26,96.5,15.04,-17.69,467530
大武,22.35572,120.90374,2.03,29.7,-5.31,72.0,0.3,-8.09,467540
玉山,23.48718,120.95943,2.84,9.75,10.24,95.0,4.04,-12.43,467550
新竹,24.827853,121.014219,2.08,28.95,-0.62,77.0,0.25,-8.37,467571
恆春,22.003897,120.746339,0.12,28.3,8.78,87.0,4.75,-2.8,467590
成功,23.097486,121.373428,1.04,27.7,4.66,86.5,0.04,-4.32,467610
日月潭,23.881325,120.90805,0.96,22.8,8.75,95.0,5.0,-13.76,467650
臺東,22.752211,121.154586,1.48,29.1,0.42,78.5,0.04,-4.59,467660
馬祖,26.169467,119.923158,2.97,25.6,0.05,87.5,0.09,-6.54,467990
山佳,24.974944,121.402008,3.05,29.7,-8.02,74.0,0.0,-9.51,C0A520
坪林,24.938183,121.70975,3.6,27.45,-7.76,85.5,0.0,-11.63,C0A530
泰平,24.971197,121.823711,2.49,25.3,-6.98,89.5,0.0,-12.52,C0A550
桶後,24.848222,121.597992,2.61,26.05,-7.47,86.0,0.0,-9.38,C0A570
石碇,24.993969,121.662917,2.52,26.95,-12.2,80.0,0.0,-17.1,C0A640
大坪,25.165914,121.632969,3.39,27.0,-6.89,83.5,0.0,-20.26,C0A860
五指山,25.132153,121.608692,3.93,25.45,-4.87,90.5,0.0,-14.57,C0A870
雙溪,25.036003,121.864242,3.25,28.25,-8.09,83.0,0.0,-11.51,C0A890
三和,25.233153,121.595236,1.18,26.65,-5.35,88.0,0.0,-33.48,C0A931
金山,25.223628,121.643967,1.95,27.3,-9.43,79.0,0.0,-19.43,C0A940
鼻頭角,25.129036,121.923372,2.04,27.5,-8.1,82.5,0.0,-10.02,C0A950
三貂角,25.007606,122.002058,2.58,27.8,-9.25,79.5,0.0,-7.84,C0A970
社子,25.109508,121.469681,3.11,30.05,-6.65,74.5,0.0,-11.61,C0A980
天母,25.117494,121.537169,2.43,29.35,-7.98,69.5,0.0,-11.43,C0A9C0
內湖,25.079422,121.57545,3.35,30.25,-9.06,71.0,0.0,-11.43,C0A9F0
大屯山,25.175675,121.522408,3.6,23.35,1.04,97.5,0.5,-17.77,C0AC40
三峽,24.939025,121.369728,2.79,29.9,-4.75,77.5,0.0,-9.33,C0AC60
信義,25.037822,121.564597,3.33,30.2,-13.97,69.0,0.0,-12.89,C0AC70
文山,25.00235,121.575728,1.8,28.25,-10.64,75.5,0.0,-11.6,C0AC80
新莊,25.051478,121.446756,1.81,29.5,-8.05,68.5,0.0,-11.94,C0ACA0
八里,25.150211,121.403947,2.99,29.8,0.16,81.5,0.0,-12.51,C0AD10
蘆洲,25.086594,121.472331,2.46,30.25,-5.55,72.0,0.0,-11.75,C0AD30
土城,24.973208,121.445169,1.85,28.6,-6.38,77.0,0.0,-10.5,C0AD40
鶯歌,24.951533,121.346294,2.99,30.0,-7.07,77.0,0.0,-8.98,C0AD50
汐止,25.066881,121.658778,1.32,28.45,-10.56,75.0,0.0,-15.17,C0AH00
永和,25.01125,121.508111,1.92,30.05,-4.68,72.0,0.0,-13.73,C0AH10
五分山,25.07125,121.780794,3.92,25.95,-7.72,88.0,0.0,-21.4,C0AH30
平等,25.129142,121.577086,1.64,26.4,-3.83,80.0,0.0,-28.09,C0AH40
松山,25.04871,121.55042,2.02,29.6,-1.31,71.0,0.0,-3.71,C0AH70
深坑,25.002703,121.628328,1.9,28.15,-5.5,80.5,0.0,-7.71,C0AH80
福山植物園,24.760717,121.58135,1.12,23.8,-3.5,90.0,0.0,-1.21,C0AH90
五股,25.07445,121.42728,0.58,27.85,-12.5,77.5,0.0,-3.12,C0AI00
屈尺,24.92184,121.54475,2.79,29.35,-4.42,82.0,0.0,-9.75,C0AI10
白沙灣,25.283128,121.519058,0.51,27.4,4.62,85.5,0.0,-3.69,C0AI20
三重,25.057328,121.500629,0.58,30.35,-4.25,75.0,0.0,-1.38,C0AI30
石牌,25.115597,121.513139,1.01,30.1,1.0,72.5,0.0,-2.75,C0AI40
七堵,25.094819,121.71713,1.34,28.85,-8.88,79.5,0.0,-8.69,C0B010
基隆嶼,25.19141,121.78391,0.33,26.85,1.75,93.5,0.0,-2.62,C0B020
復興,24.820208,121.352281,2.12,25.65,-7.62,81.0,0.0,-13.21,C0C460
桃園,24.992425,121.323172,2.65,29.45,-7.23,69.0,0.0,-13.26,C0C480
八德,24.928708,121.283289,1.12,28.45,-6.92,72.5,0.0,-8.54,C0C490
觀音,25.027072,121.153317,1.78,27.45,3.27,87.0,0.25,-14.62,C0C590
蘆竹,25.084275,121.265767,1.62,28.7,-4.5,78.0,0.25,-13.69,C0C620
大溪,24.882853,121.265547,2.23,27.5,-4.46,76.0,0.0,-11.37,C0C630
平鎮,24.897503,121.214636,2.69,27.95,-6.69,76.0,0.0,-11.05,C0C650
楊梅,24.912375,121.143047,1.05,28.15,-1.38,77.5,0.25,-10.8,C0C660
龍潭,24.870056,121.221389,1.24,27.7,-2.36,76.5,0.0,-10.68,C0C670
龜山,25.02846,121.38656,0.93,26.6,-8.62,73.5,0.0,-21.72,C0C680
中壢,24.977661,121.256375,1.47,28.5,-3.25,72.5,0.0,-2.12,C0C700
大溪永福,24.892936,121.324975,1.29,27.95,-4.25,79.0,0.0,-2.5,C0C710
梅花,24.678347,121.208558,1.82,25.1,-3.15,85.5,0.0,-10.51,C0D360
峨眉,24.6905,121.017189,1.31,28.2,-1.41,83.5,0.0,-7.1,C0D430
打鐵坑,24.849664,121.150789,1.72,26.45,-6.94,80.5,0.0,-11.67,C0D480
橫山,24.71116,121.11693,1.76,26.7,5.92,93.5,0.0,-12.39,C0D540
雪霸,24.526972,121.11605,1.45,18.95,2.23,85.5,0.25,-18.72,C0D550
竹東,24.767147,121.057881,3.4,29.15,-15.44,63.0,0.0,-11.32,C0D560
寶山,24.735006,121.025192,2.07,27.45,-4.1,81.5,0.0,-11.61,C0D580
新豐,24.87068,120.97721,1.75,27.2,3.35,88.5,0.0,-10.29,C0D590
湖口,24.904794,121.043628,0.81,28.05,-5.86,77.0,0.25,-10.43,C0D650
新竹市東區,24.798681,120.986942,0.76,28.35,-0.33,76.5,0.0,-8.9,C0D660
竹南,24.708978,120.888897,3.72,30.3,0.98,81.0,0.0,-8.27,C0E420
南庄,24.601775,121.000214,2.26,27.25,-3.73,80.0,0.0,-10.81,C0E430
明德,24.583486,120.885411,1.65,29.1,-3.92,75.5,0.0,-5.61,C0E550
通霄,24.471892,120.704622,0.58,28.2,0.89,83.0,0.25,-6.43,C0E590
馬都安,24.451272,120.930192,1.71,24.1,4.04,87.0,0.0,-14.21,C0E610
頭份,24.688247,120.912206,3.15,30.4,-3.48,72.5,0.0,-9.67,C0E730
造橋,24.637056,120.864778,1.04,29.0,-3.42,77.0,0.0,-6.44,C0E740
苗栗,24.564569,120.824575,0.53,28.85,-3.69,71.0,0.0,-6.25,C0E750
銅鑼,24.489681,120.790853,0.61,28.15,-3.72,78.0,0.25,-8.1,C0E780
西湖,24.562947,120.7485,0.94,28.1,-2.08,83.5,0.0,-5.57,C0E810
獅潭,24.539133,120.920042,0.88,27.7,-5.53,77.0,0.0,-9.99,C0E820
苑裡,24.439714,120.653053,0.05,28.3,0.29,79.5,0.5,-6.46,C0E830
大河,24.618069,120.948578,-0.66,26.85,-2.3,77.0,0.0,-13.68,C0E850
高鐵苗栗,24.60725,120.826094,0.8,28.75,11.0,84.0,0.0,-2.42,C0E870
石岡,24.276061,120.777644,0.82,27.5,0.5,82.0,1.5,-18.53,C0F0B0
中坑,24.248517,120.903319,0.16,22.35,-2.19,90.5,4.25,-32.0,C0F0C0
審馬陣,24.381675,121.4203,1.54,11.85,6.42,94.0,0.25,-2.42,C0F0D0
東勢,24.246428,120.833047,1.28,27.8,-0.83,77.5,1.5,-12.78,C0F850
大坑,24.173142,120.722289,1.24,29.4,3.33,78.0,0.5,-11.67,C0F970
神岡,24.272481,120.658314,0.33,27.6,-2.83,80.0,0.25,-4.29,C0F9I0
大安,24.345061,120.588025,0.31,28.15,-0.78,82.5,0.5,-2.68,C0F9K0
后里,24.310436,120.729725,0.85,28.35,-1.72,79.5,1.0,-7.26,C0F9L0
豐原,24.254322,120.720692,1.26,28.9,-1.61,76.5,0.75,-7.83,C0F9M0
大里,24.092464,120.701378,0.16,29.25,8.72,82.0,1.25,-11.64,C0F9N0
潭子,24.213106,120.703933,0.84,29.4,4.5,80.0,1.0,-9.94,C0F9O0
清水,24.312297,120.562242,0.33,28.6,-2.0,81.0,0.0,-3.51,C0F9P0
外埔,24.347817,120.705686,0.55,27.9,-2.11,82.0,0.25,-4.97,C0F9Q0
龍井,24.184536,120.528972,0.4,28.6,-6.25,81.5,4.25,-0.5,C0F9R0
烏日,24.107058,120.624103,0.2,28.75,0.83,76.5,1.25,-9.0,C0F9S0
西屯,24.179494,120.641275,0.05,28.6,0.89,77.0,1.75,-6.4,C0F9T0
南屯,24.137006,120.637969,-0.05,28.8,1.42,76.5,0.5,-9.06,C0F9U0
新社,24.200172,120.815806,0.88,26.2,-3.08,82.5,3.5,-13.0,C0F9V0
大雅(中科園區),24.21528,120.62445,0.07,27.55,2.65,83.0,0.25,-9.98,C0F9X0
桃山,24.432739,121.303808,1.83,11.9,5.4,90.0,0.0,-31.09,C0F9Y0
雪山東峰,24.388792,121.268675,1.74,12.6,5.75,89.0,0.25,-31.62,C0F9Z0
芬園,24.015678,120.6213,-0.31,27.25,11.33,93.0,0.5,-10.95,C0G620
員林,23.946503,120.585597,2.62,30.2,-1.11,80.5,7.0,-6.01,C0G650
溪州,23.851589,120.499093,0.88,28.7,-6.25,77.0,1.25,-20.5,C0G720
二林,23.903325,120.376081,0.48,28.35,-0.45,87.5,0.0,-19.08,C0G730
大城,23.852487,120.320935,0.56,28.35,0.35,83.5,0.0,-15.38,C0G740
福興,24.041289,120.437669,0.55,29.25,-4.44,79.0,0.0,-6.49,C0G770
秀水,24.03405,120.503869,0.51,28.95,1.83,85.0,0.75,-6.38,C0G780
埔心,23.947633,120.525456,1.63,30.3,0.93,79.0,1.25,-12.15,C0G810
田尾,23.901669,120.509389,0.72,29.1,2.36,86.5,5.25,-10.15,C0G820
埤頭,23.866003,120.452806,0.36,28.5,3.62,92.0,4.0,-10.67,C0G830
社頭,23.897647,120.5862,0.34,29.3,8.94,84.5,1.0,-15.14,C0G860
伸港,24.148933,120.484403,0.5,28.85,-4.11,79.5,0.5,-3.67,C0G890
線西,24.143358,120.443536,-0.77,28.6,0.0,81.0,1.75,-5.12,C0G900
花壇,24.032076,120.549461,0.88,30.35,13.0,87.5,0.25,0.25,C0G910
埔里,23.972169,120.952425,0.63,26.65,1.3,84.5,6.75,-36.02,C0H890
草屯,23.973672,120.68085,-0.24,27.95,4.36,81.5,1.75,-10.52,C0H960
昆陽,24.121322,121.273642,1.68,11.7,5.3,98.5,2.5,-12.8,C0H990
神木村,23.532742,120.843667,1.63,20.15,4.95,95.0,3.25,-23.57,C0H9A0
合歡山,24.143442,121.272547,1.98,10.75,12.2,100.0,7.75,-19.87,C0H9C0
廬山,24.033311,121.181808,1.28,20.25,2.15,89.5,6.25,-16.95,C0I010
信義,23.689694,120.851036,0.37,25.25,3.1,88.5,3.75,-36.02,C0I080
竹山,23.761225,120.688156,1.23,28.0,4.43,84.5,4.5,-10.62,C0I110
水里,23.812553,120.849792,0.57,27.0,-0.35,81.5,1.75,-36.67,C0I360
魚池,23.895703,120.94135,0.38,25.05,-0.7,85.0,7.0,-33.88,C0I370
集集,23.828206,120.801467,0.18,27.35,2.9,85.5,1.5,-33.58,C0I380
仁愛,24.022122,121.132206,1.1,22.3,-2.1,87.0,5.5,-50.12,C0I390
名間,23.837053,120.701447,-0.51,26.95,8.05,88.0,3.75,-24.68,C0I410
國姓,24.037803,120.855072,0.55,27.25,-1.05,83.5,3.75,-35.25,C0I420
南投,23.911469,120.687331,-0.2,28.4,10.2,86.5,1.5,-28.08,C0I460
梅峰,24.085272,121.173572,1.26,16.75,1.05,93.0,7.25,-47.2,C0I480
萬大林道,23.928228,121.091411,0.83,19.85,-1.7,91.0,6.75,-29.15,C0I490
小奇萊,24.131764,121.295717,1.91,11.6,5.58,99.0,2.5,-8.62,C0I530
崙背,23.75555,120.318925,0.62,28.55,-3.35,82.0,1.25,-25.85,C0K250
四湖,23.630414,120.227125,1.53,28.75,-3.75,81.5,0.0,-11.44,C0K280
宜梧,23.536281,120.169329,0.47,28.65,-2.9,82.0,0.75,-11.47,C0K291
虎尾,23.719183,120.442036,0.93,28.5,9.55,88.0,4.5,-9.39,C0K330
土庫,23.679029,120.395574,-0.34,28.1,-1.1,83.0,5.5,-20.85,C0K390
斗六,23.720583,120.541127,0.06,28.35,-2.4,78.0,4.25,-27.55,C0K400
北港,23.573957,120.292802,0.25,28.35,-2.6,81.5,1.25,-7.35,C0K410
西螺,23.800407,120.467394,0.13,28.4,0.35,82.0,3.5,-19.92,C0K420
褒忠,23.690938,120.303634,0.43,28.2,-3.8,82.0,1.25,-20.6,C0K430
二崙,23.772797,120.408944,0.16,28.1,10.5,94.5,2.0,-26.48,C0K440
大埤,23.646074,120.431537,0.06,28.2,1.2,83.0,5.25,-25.45,C0K450
斗南,23.678734,120.478359,0.01,28.25,3.7,82.0,6.0,-24.62,C0K460
林內,23.748675,120.609642,-0.03,27.7,1.05,83.0,6.0,-22.6,C0K470
莿桐,23.761192,120.502372,0.11,28.1,1.7,82.0,4.75,-25.02,C0K480
元長,23.64981,120.315024,0.32,28.55,0.35,82.5,1.25,-21.8,C0K500
水林,23.572924,120.24597,0.25,28.55,1.4,83.0,3.5,-6.82,C0K510
臺西,23.701547,120.197559,0.27,28.35,0.35,83.0,0.0,-22.18,C0K530
蔦松,23.514319,120.229736,0.42,28.85,0.6,83.5,1.5,-8.75,C0K550
棋山,23.68645,120.603417,0.21,28.15,4.3,84.5,3.25,-35.85,C0K560
高鐵雲林,23.737456,120.417944,-0.5,27.85,3.42,85.5,3.0,-1.0,C0K580
東後寮,23.369908,120.248065,-0.18,28.0,3.1,87.5,6.75,-1.4,C0M520
奮起湖,23.493903,120.699253,1.2,20.6,5.0,97.5,20.0,-8.78,C0M530
中埔,23.42538,120.5229,0.01,27.95,-1.65,76.5,4.25,-11.15,C0M640
朴子,23.43463,120.23902,-0.68,27.55,4.7,87.5,6.0,-1.1,C0M650
溪口,23.604131,120.403569,0.05,28.0,-0.3,83.0,7.25,-10.6,C0M660
大林,23.600616,120.45841,0.12,28.65,1.0,79.5,8.0,-19.12,C0M670
太保,23.455062,120.331455,-0.52,27.95,2.85,86.0,11.0,0.18,C0M680
水上,23.419734,120.388909,-0.11,28.15,1.25,83.0,9.0,-1.43,C0M690
竹崎,23.526178,120.555508,0.19,27.7,4.0,83.0,6.0,-9.38,C0M700
東石,23.458927,120.15385,0.06,28.65,-4.56,80.5,2.5,-7.15,C0M710
番路,23.464657,120.554156,0.34,27.7,1.35,80.0,4.0,-14.77,C0M720
嘉義市東區,23.457673,120.460531,-0.18,28.8,3.25,80.5,10.75,-0.62,C0M730
六腳,23.492871,120.290625,0.06,28.35,3.3,83.0,2.75,-7.38,C0M740
布袋,23.380878,120.167789,0.02,28.6,-0.05,83.0,3.75,-3.88,C0M750
民雄,23.551754,120.428457,-0.04,28.55,0.8,81.0,7.25,-12.6,C0M760
嘉義梅山,23.585398,120.555587,-0.11,27.85,2.52,82.0,14.75,-13.23,C0M770
鹿草,23.41134,120.30835,-0.33,28.15,5.5,87.0,9.0,-3.4,C0M780
新港,23.553269,120.345728,-0.37,28.0,2.65,83.5,5.5,-7.15,C0M790
茶山,23.299075,120.664767,-0.29,25.35,6.15,90.5,19.0,-28.67,C0M800
里佳,23.389125,120.716647,0.1,20.6,5.65,94.0,18.0,-43.45,C0M810
達邦,23.453994,120.749517,1.08,23.15,5.0,90.0,7.75,-46.25,C0M820
表湖,23.24186,120.64166,-1.3,23.25,6.67,91.5,31.5,19.83,C0M850
新美,23.338017,120.683169,-0.7,25.0,13.25,89.0,18.25,18.12,C0M860
北寮,23.079561,120.495008,-1.02,27.1,10.29,92.5,63.0,51.58,C0O830
王爺宮,23.222064,120.40085,1.17,28.95,-2.38,81.0,29.25,20.16,C0O840
大內,23.11885,120.36083,-0.33,28.65,7.29,88.5,32.5,27.73,C0O860
善化,23.112883,120.297219,0.12,27.65,9.75,93.5,4.5,-5.23,C0O900
崎頂,22.959547,120.369317,-0.01,27.95,5.98,89.5,32.75,27.09,C0O960
虎頭埤,23.021375,120.347878,-1.09,27.05,1.38,84.5,54.75,48.57,C0O970
新市,23.061614,120.298197,-0.54,28.25,1.88,85.5,34.0,28.46,C0O980
媽廟,22.99175,120.293525,-0.88,27.95,7.12,89.5,21.5,15.38,C0O990
尾寮山,22.833111,120.683889,1.23,22.45,4.58,98.0,46.25,23.68,C0R100
阿禮,22.742908,120.743678,-0.74,21.45,3.7,90.5,26.5,6.55,C0R130
瑪家,22.682903,120.686639,-1.15,23.05,13.33,98.5,37.25,6.41,C0R140
三地門,22.709889,120.639944,0.14,27.55,6.88,85.0,41.0,23.63,C0R150
鹽埔,22.739558,120.530778,-0.82,27.6,3.21,89.5,39.0,28.18,C0R160
赤山,22.592333,120.614306,-0.98,27.7,11.88,94.5,34.5,20.05,C0R190
潮州,22.534361,120.54,-0.05,27.95,8.62,87.0,26.75,14.61,C0R220
來義,22.527306,120.625111,-1.8,26.25,12.92,94.5,49.5,38.95,C0R240
春日,22.370361,120.628306,-2.34,26.1,11.11,92.5,52.25,44.07,C0R260
琉球嶼,22.332244,120.362236,-0.4,27.35,5.15,92.0,12.5,3.65,C0R270
車城,22.0744,120.716247,-1.15,28.05,7.25,89.0,12.0,12.0,C0R320
牡丹,22.130036,120.792639,-1.43,25.8,18.5,98.5,16.75,16.75,C0R341
貓鼻頭,21.921774,120.7358,0.22,27.85,3.5,88.5,5.0,-1.61,C0R350
大漢山,22.405264,120.753181,0.68,18.75,6.5,100.0,107.5,107.5,C0R440
高樹,22.826389,120.600806,-1.33,27.4,4.93,81.0,39.25,25.68,C0R470
長治,22.693128,120.542622,-0.64,28.3,11.67,91.5,48.5,38.46,C0R480
九如,22.7405,120.490503,-0.54,28.2,3.2,86.0,40.75,32.43,C0R490
崁頂,22.514781,120.506914,-1.19,27.8,7.58,90.5,21.5,12.21,C0R520
佳冬,22.419456,120.552375,-1.19,27.6,8.04,90.5,34.5,26.07,C0R540
新埤,22.467947,120.582894,-1.32,27.45,2.54,86.0,56.0,48.41,C0R550
新園,22.5434,120.461558,-0.06,28.85,2.45,84.5,27.0,17.73,C0R560
麟洛,22.65078,120.52719,-0.62,28.5,10.21,89.0,35.5,25.68,C0R570
南州,22.48591,120.50274,-1.05,27.75,11.92,93.0,21.0,12.04,C0R580
里港,22.77919,120.49459,-1.06,27.55,7.38,88.5,32.0,24.02,C0R590
舊泰武,22.588194,120.664944,-1.18,23.1,10.92,96.0,63.75,36.18,C0R600
墾雷,21.900836,120.855269,-0.97,27.6,11.88,96.5,6.75,6.12,C0R620
東港,22.46247,120.44074,-0.86,28.15,4.25,88.5,17.25,16.71,C0R640
竹田,22.58486,120.54344,-1.41,27.95,7.88,87.0,34.0,33.19,C0R650
枋寮,22.367722,120.590647,-0.93,27.65,12.0,94.0,35.75,35.75,C0R660
楓港,22.190131,120.692156,-1.82,27.3,8.0,88.0,33.25,33.25,C0R670
佳樂水,21.993578,120.861633,-1.6,27.85,13.0,90.0,5.5,5.5,C0R680
墾丁,21.966756,120.810269,-1.35,25.85,9.0,96.5,6.75,6.75,C0R690
枋山,22.246844,120.661086,-0.78,27.75,7.75,89.0,46.5,46.5,C0R700
龍磐,21.931672,120.838942,-1.53,26.95,8.75,94.0,7.25,7.25,C0R710
旭海,22.205403,120.887614,-2.0,26.15,13.25,88.5,4.75,4.75,C0R720
大坪頂,22.024633,120.69355,-1.15,26.95,11.0,97.5,5.25,5.25,C0R730
四林格山,22.076989,120.802439,-0.8,24.0,5.5,99.5,25.0,25.0,C0R750
南仁湖,22.084681,120.863353,-1.7,25.1,18.25,99.5,18.75,18.75,C0R760
保力,22.071122,120.764111,-0.85,26.95,9.0,93.5,13.75,13.75,C0R770
滿州,22.024403,120.839892,-1.47,27.4,11.75,89.0,8.25,8.25,C0R780
九棚,22.14195,120.889281,-2.25,27.2,17.25,86.5,4.75,4.75,C0R790
丹路,22.204481,120.750989,-1.22,26.85,11.25,92.0,78.5,78.5,C0R800
內獅,22.305064,120.642986,-0.83,27.65,18.75,99.0,54.75,54.75,C0R810
白鷺,22.454275,120.666219,-0.85,24.3,8.75,95.0,89.0,89.0,C0R820
高士,22.121825,120.836781,-1.98,24.65,17.75,97.5,15.25,15.25,C0R830
牡丹池山,22.168389,120.841225,-1.95,23.6,17.0,99.0,25.25,25.25,C0R840
下馬,23.150427,121.070312,1.63,25.3,4.83,85.5,0.25,-0.25,C0S660
太麻里,22.60902,120.98533,2.6,26.15,-0.5,87.0,0.0,-6.74,C0S690
知本,22.684866,121.005642,2.66,26.45,3.0,89.5,0.0,-8.86,C0S700
鹿野,22.917711,121.122994,2.45,26.75,5.25,86.0,0.0,-6.29,C0S710
綠島,22.6672,121.47533,1.26,27.8,0.75,87.0,4.75,0.89,C0S730
池上,23.119628,121.209469,2.38,27.4,2.0,85.5,0.25,-4.19,C0S740
向陽,23.248397,120.986133,3.0,17.9,18.75,85.5,0.25,-20.29,C0S750
大溪山,22.478475,120.943325,2.77,27.05,-7.5,80.5,0.25,-6.98,C0S770
金崙,22.538122,120.966875,2.57,28.85,-2.0,77.0,0.5,-4.91,C0S790
東河,22.972672,121.303986,0.75,28.2,3.25,87.0,0.25,-4.44,C0S810
長濱,23.286817,121.411975,1.82,27.35,2.5,86.5,0.25,-5.31,C0S830
南田,22.279725,120.889208,1.0,28.6,1.75,77.0,1.0,-9.52,C0S840
關山,23.0395,121.175017,1.09,27.85,5.0,84.5,0.0,-15.44,C0S890
蘭嶼高中,22.04909,121.51214,-0.87,28.55,12.62,90.5,2.25,2.25,C0S900
蘭嶼燈塔,22.081197,121.503117,-0.96,26.7,13.62,96.0,2.0,2.0,C0S910
金峰嘉蘭,22.594789,120.960825,0.15,29.0,1.75,79.0,0.0,-0.19,C0S920
延平,22.902581,121.084058,0.05,27.85,6.0,81.5,0.0,-0.44,C0S930
石寧山,23.223772,121.406639,0.25,28.55,0.5,85.5,0.0,-0.12,C0S940
七塊厝,22.954453,121.229922,0.58,27.35,-5.25,80.5,0.25,0.0,C0S950
香蘭,22.587569,120.993375,0.32,29.4,5.75,81.5,0.0,0.0,C0S960
加津林,22.416211,120.926942,0.6,29.1,-1.25,77.0,0.75,0.69,C0S970
勝林山,22.430439,120.8938,-2.15,23.1,12.75,92.5,1.75,1.5,C0S980
山豬窟,22.318619,120.857372,-2.18,25.7,13.25,87.5,3.75,3.75,C0S990
歷坵,22.520969,120.89185,1.0,27.0,-3.25,82.0,0.75,0.31,C0SA00
檳榔四格山,22.810031,121.109308,0.07,26.85,1.5,86.5,0.0,-0.5,C0SA10
金崙山,22.567419,120.959667,1.73,26.1,-7.5,79.0,0.5,0.5,C0SA20
都歷,23.020333,121.323642,-0.32,27.95,1.25,81.5,0.25,0.06,C0SA30
瑞和,22.974361,121.156697,-0.3,28.0,3.25,81.0,0.0,-0.25,C0SA40
知本（水試所）,22.702394,121.082761,-0.35,28.8,4.25,82.5,0.0,0.0,C0SA60
土坂,22.453108,120.887572,1.05,29.1,1.33,76.5,2.0,2.0,C0SA80
達仁林場,22.264347,120.823972,-1.85,24.5,17.75,94.5,34.75,34.75,C0SA90
大禹嶺,24.186117,121.316086,1.73,14.2,5.69,89.0,1.0,-11.18,C0T790
天祥,24.179597,121.495639,2.29,25.35,-2.33,80.0,0.0,-4.08,C0T820
鯉魚潭,23.935639,121.508944,1.72,26.45,-3.75,87.5,0.0,-6.26,C0T870
西林,23.8119,121.441458,2.16,27.6,-1.21,84.0,0.0,-5.58,C0T900
光復,23.660694,121.424964,2.78,28.3,-11.42,80.0,0.0,-5.89,C0T960
月眉山,23.809928,121.539828,3.19,26.3,-10.56,85.5,0.0,-7.11,C0T9A0
水源,23.991861,121.537169,2.52,25.05,-9.0,87.5,0.0,-6.06,C0T9B0
和中,24.26676,121.74103,1.99,28.1,8.08,100.0,0.0,-8.65,C0T9D0
大坑,23.880628,121.581981,2.2,26.05,-3.75,88.0,0.0,-7.84,C0T9E0
水璉,23.797131,121.542514,1.58,27.0,-3.17,87.0,0.0,-5.94,C0T9F0
鳳林山,23.735269,121.420131,1.46,25.25,-7.67,90.0,0.0,-7.69,C0T9G0
加路蘭山,23.682947,121.5274,3.25,25.95,-1.25,95.5,0.75,-7.81,C0T9H0
豐濱,23.583897,121.514806,2.14,27.3,-9.08,83.0,0.5,-7.15,C0T9I0
靜浦,23.455167,121.495028,2.09,27.75,4.25,90.0,0.25,-5.22,C0T9M0
富里,23.171639,121.249378,0.18,28.0,17.75,98.5,0.0,-0.5,C0T9N0
雙連埤,24.753033,121.641303,1.16,24.15,-10.08,87.0,0.0,-10.07,C0U520
礁溪,24.817539,121.765608,1.94,27.75,-11.67,77.5,0.0,-7.61,C0U600
玉蘭,24.675286,121.587061,2.76,26.2,-13.75,77.5,0.0,-9.36,C0U650
太平山,24.505486,121.525656,2.85,19.35,-5.83,86.5,0.0,-8.96,C0U710
南山,24.43742,121.38167,1.86,23.05,-13.33,79.0,0.0,-5.58,C0U720
龜山島,24.841667,121.953133,1.47,25.3,-14.42,82.5,0.0,-5.04,C0U750
東澳,24.52196,121.83318,2.12,28.25,-13.33,78.0,0.0,-11.19,C0U760
南澳,24.44935,121.81022,1.45,27.8,-5.5,83.0,0.0,-7.72,C0U770
五結,24.68637,121.79794,0.73,27.7,-8.42,79.5,0.0,-6.52,C0U780
頭城,24.85323,121.8308,0.45,27.35,-5.5,84.0,0.0,-11.72,C0U860
大礁溪,24.791042,121.675047,1.79,25.65,-6.75,85.0,0.0,-4.54,C0U870
三星,24.66812,121.65302,1.42,27.45,-15.5,76.5,0.0,-6.62,C0U890
內城,24.71813,121.68766,1.88,28.0,-12.08,78.5,0.0,-6.25,C0U900
冬山,24.63373,121.7937,1.43,27.85,-6.83,78.0,0.0,-4.96,C0U910
羅東,24.68184,121.74934,1.85,28.35,-7.08,79.0,0.0,-4.83,C0U940
鶯子嶺,24.89754,121.79244,2.2,22.85,-15.17,82.5,0.5,-6.75,C0U950
翠峰湖,24.510856,121.608044,1.59,18.55,-2.0,90.5,0.25,-7.25,C0U960
大福,24.80064,121.81389,0.93,26.95,-4.38,81.0,0.0,-7.25,C0U970
坪林石牌,24.86478,121.77396,1.66,24.7,-7.67,88.0,0.0,-4.17,C0U980
員山,24.74435,121.72247,1.36,28.0,-5.58,80.5,0.0,-6.29,C0U990
土場,24.576533,121.495333,1.43,26.3,-12.25,79.5,0.0,-5.0,C0UA00
鴛鴦湖,24.590269,121.412228,1.57,19.3,-2.38,93.0,0.0,-5.96,C0UA10
白嶺,24.527819,121.519031,2.32,22.15,-9.25,86.5,0.0,-7.42,C0UA30
西德山,24.560647,121.752608,2.48,23.0,-5.75,91.0,0.0,-6.67,C0UA40
西帽山,24.555361,121.802628,2.9,25.0,-16.25,80.5,0.0,-7.71,C0UA50
樟樹山,24.41393,121.78325,1.78,25.6,-10.33,80.0,0.0,-3.08,C0UA60
桃源谷,24.962606,121.888875,2.47,25.45,-10.25,88.0,0.0,-10.0,C0UA70
復興,23.222403,120.806089,0.41,24.15,6.5,88.5,14.75,-19.78,C0V210
溪埔,22.738578,120.446797,-1.2,27.35,11.79,92.0,40.75,33.27,C0V350
內門,22.975481,120.466769,0.2,27.75,4.38,87.5,67.25,56.43,C0V360
古亭坑,22.893178,120.401947,0.07,27.05,5.8,89.0,41.5,30.45,C0V370
阿公店,22.804194,120.355528,-0.78,27.55,6.04,89.5,31.5,25.43,C0V400
鳳森,22.545064,120.392592,-1.03,27.75,4.76,87.5,9.25,1.43,C0V450
新興,22.627422,120.298803,-0.27,28.55,2.88,83.0,13.75,8.41,C0V490
阿蓮,22.883208,120.327508,-0.8,28.15,6.71,87.0,22.0,12.34,C0V530
梓官,22.760558,120.267211,-0.76,28.3,3.12,84.5,17.75,11.09,C0V610
永安,22.82315,120.236856,-0.59,28.3,0.38,84.5,7.75,-2.34,C0V620
茄萣,22.906642,120.182608,-0.18,28.85,5.38,84.5,3.5,-3.04,C0V630
湖內,22.887139,120.2445,-1.0,27.9,2.42,84.0,15.0,7.32,C0V640
彌陀,22.783806,120.246361,-0.2,28.75,2.57,87.5,15.25,7.2,C0V650
岡山,22.797078,120.294958,-0.53,28.9,5.25,84.5,25.75,18.7,C0V660
仁武,22.701083,120.347722,-0.56,28.95,5.92,86.0,33.75,25.12,C0V680
鼓山,22.623325,120.275575,-0.75,28.3,3.21,85.5,11.5,6.23,C0V690
三民,22.645017,120.311233,-1.03,28.65,7.58,81.5,16.0,10.11,C0V700
苓雅,22.622742,120.330669,-0.46,28.95,12.88,86.0,22.75,16.12,C0V710
林園,22.507747,120.394511,-0.48,29.2,10.04,86.0,12.0,5.59,C0V720
大寮,22.605614,120.395717,-1.63,27.8,15.5,92.5,29.5,20.75,C0V730
旗山,22.888614,120.483597,-0.09,28.3,4.04,83.5,79.25,67.36,C0V740
路竹,22.854997,120.259439,-0.0,29.15,2.92,83.0,7.25,-4.29,C0V750
橋頭,22.757806,120.30575,-0.31,29.0,1.29,81.5,32.0,25.98,C0V760
大社,22.730306,120.346639,-0.75,28.65,10.0,87.5,43.25,37.27,C0V770
六龜,22.997889,120.633583,-0.54,26.75,8.46,88.0,66.0,41.66,C0V800
左營,22.67491,120.28491,-0.97,27.95,2.06,85.0,24.5,16.8,C0V810
小林,23.148408,120.63325,-0.72,25.35,13.5,93.0,36.0,34.5,C0V820
花嶼,23.40007,119.32276,0.98,27.1,1.69,91.5,0.0,-1.97,C0W130
金沙,24.488292,118.408778,0.84,26.5,-2.19,86.0,0.0,-3.12,C0W140
金寧,24.457703,118.328989,-0.17,26.25,-4.25,85.5,0.0,-3.53,C0W150
東河,23.296598,120.385608,-0.89,27.75,0.9,81.5,12.25,2.8,C0X050
下營,23.22695,120.256261,-0.62,27.95,1.25,83.5,8.25,2.6,C0X060
佳里,23.173039,120.145086,0.53,28.45,5.2,88.5,7.25,0.26,C0X080
臺南市北區,23.010394,120.194228,-0.81,28.8,8.43,84.0,12.5,8.06,C0X100
臺南市南區,22.961189,120.188378,-0.42,28.95,5.04,86.0,14.5,9.19,C0X110
麻豆,23.183289,120.248611,-0.57,28.6,6.54,88.0,13.75,8.23,C0X120
官田,23.193217,120.315422,-1.09,28.0,12.14,91.0,18.25,12.28,C0X130
西港,23.125608,120.203108,-1.27,28.1,4.61,84.0,14.25,9.8,C0X140
安定,23.102614,120.227839,-0.64,28.5,7.21,88.5,17.5,13.19,C0X150
仁德,22.968258,120.257689,-0.42,28.7,8.75,87.5,20.75,16.33,C0X160
關廟,22.963017,120.327797,-1.22,28.05,13.29,89.0,30.25,24.39,C0X170
山上,23.0757,120.363253,-1.14,27.45,7.14,87.0,44.25,37.91,C0X180
安平,22.993161,120.152181,-0.64,28.6,-1.54,81.0,6.5,2.22,C0X190
左鎮,23.056758,120.408522,-0.1,27.9,3.93,87.0,57.5,50.09,C0X200
白河,23.347466,120.414427,-0.41,28.0,3.55,83.0,8.25,-1.93,C0X210
學甲,23.230367,120.182187,-0.21,28.2,4.45,84.5,9.0,4.35,C0X220
鹽水,23.272621,120.247641,-0.69,27.75,5.25,86.5,12.75,6.82,C0X230
關子嶺,23.331169,120.508025,0.12,26.25,5.6,89.5,18.5,-1.35,C0X240
新營,23.310689,120.316681,-0.8,28.15,6.17,84.5,13.75,6.5,C0X250
後壁,23.366358,120.362326,-0.32,28.1,2.5,83.5,9.75,2.35,C0X260
將軍,23.214999,120.13577,-0.1,28.35,2.25,84.0,7.5,1.35,C0X280
北門,23.267772,120.125481,-0.07,28.5,-3.3,82.5,9.25,5.05,C0X290
鹿寮,23.386047,120.477331,0.26,28.05,-2.2,81.0,5.75,-7.43,C0X300
柳營,23.253328,120.375253,-1.5,27.6,11.75,86.5,19.75,19.75,C0X320
明里,23.208717,121.262342,1.57,27.45,-3.5,87.0,0.0,-7.62,C0Z020
佳心,23.34567,121.21316,2.4,24.0,9.5,97.0,0.0,-4.99,C0Z050
玉里,23.3215,121.339656,2.82,28.7,-0.17,90.5,0.0,-8.21,C0Z061
舞鶴,23.46811,121.37407,2.92,27.5,5.17,99.0,0.0,-5.45,C0Z070
富源,23.587642,121.378225,1.83,27.45,-6.42,85.0,0.0,-9.14,C0Z080
東華,23.89525,121.549833,1.26,28.2,-2.5,85.5,0.0,-4.5,C0Z100
吉安光華,23.930925,121.595153,1.07,27.65,-6.75,82.5,0.0,-3.5,C0Z150
鳳林,23.746114,121.453411,1.43,27.6,-7.83,78.5,0.0,-16.17,C0Z160
卓溪,23.3443,121.3029,1.06,28.2,-7.17,76.0,0.0,-10.04,C0Z170
新城,24.040486,121.604878,1.09,27.8,12.5,98.0,0.0,-4.17,C0Z180
富世,24.14743,121.6297,1.38,28.1,-10.67,80.5,0.0,-1.38,C0Z190
萬榮,23.709219,121.420106,1.82,27.6,-10.83,80.0,0.0,-10.08,C0Z200
瑞穗,23.5239,121.39021,2.13,28.25,-6.0,82.0,0.0,-8.33,C0Z210
和平林道,24.343922,121.656317,1.54,25.25,-12.67,82.5,0.0,-2.5,C0Z220
和平,24.30717,121.77007,0.52,27.25,-8.42,78.5,0.0,-3.04,C0Z230
瑞穗林道,23.49284,121.30688,1.66,22.85,-0.33,96.0,0.0,-14.0,C0Z250
蕃薯寮,23.73835,121.540108,1.62,26.25,-11.17,84.5,0.25,-8.25,C0Z270
德武,23.47426,121.41071,1.7,27.75,-6.0,82.5,0.0,-3.71,C0Z280
赤柯山,23.36893,121.38293,1.77,24.0,-4.75,88.5,0.0,-5.5,C0Z290
東里,23.26853,121.30547,1.75,28.35,-9.5,79.5,0.0,-5.29,C0Z300
清水斷崖,24.218294,121.689142,0.68,27.3,-9.5,82.5,0.0,-2.96,C0Z310
清水林道,23.27125,121.188272,1.42,25.4,-2.58,83.5,0.0,-5.88,C0Z320
安通山,23.290728,121.348528,1.48,26.45,-1.67,86.5,0.0,-0.5,C0Z330
口湖工作站,23.589978,120.180394,0.24,28.35,0.88,77.5,0.0,-3.38,12J990
東港工作站,22.479997,120.466058,-1.2,28.0,8.12,77.0,18.75,17.84,12Q970
萬大發電廠,23.978875,121.139639,1.07,22.55,-6.38,86.0,7.0,1.29,42HA10
桃改樹林分場,24.944503,121.386972,0.1,28.55,-5.75,72.0,0.0,-0.88,72AI40
桃園農改場,24.950944,121.030583,2.22,28.05,-1.43,83.0,0.0,-6.29,72C440
桃改五峰分場,24.612194,121.157167,2.58,23.55,-2.43,87.0,0.0,-10.02,72D080
臺中農改場,24.003028,120.534389,1.27,28.35,3.43,87.0,1.75,-7.54,72G600
中改埔里分場,23.903208,120.963364,0.77,24.65,1.75,91.0,7.75,-12.88,72HA00
南改斗南分場,23.634556,120.477333,1.35,28.6,-0.52,83.5,6.25,-8.16,72K220
南改義竹分場,23.360694,120.279361,0.31,27.8,-1.99,83.5,9.0,1.02,72M360
南改鹿草分場,23.416869,120.283061,-0.12,28.1,6.75,88.0,9.75,-3.06,72M700
臺南農改場,23.0605,120.342194,-0.43,27.15,9.56,92.0,36.25,30.23,72N100
七股研究中心,23.081672,120.062894,-0.14,28.65,2.12,84.0,8.5,1.69,72N240
高雄農改場,22.709333,120.525889,-0.71,27.35,12.01,93.0,48.0,35.6,72Q010
東改班鳩分場,22.829528,121.077694,2.17,27.5,-4.08,81.0,0.0,-5.97,72S200
東改賓朗果園,22.813889,121.071278,-0.22,24.55,-7.76,83.5,0.0,-7.69,72S590
花蓮農改場,23.975222,121.563889,2.29,28.0,-6.85,78.5,0.0,-5.64,72T250
花改蘭陽分場,24.686306,121.716583,2.19,27.9,-7.35,79.0,0.0,-5.83,72U480
高改旗南分場,22.857861,120.516667,-1.41,27.05,14.76,91.0,12.0,3.14,72V140
茶改北部分場,24.955778,121.631222,3.16,26.4,-6.97,80.0,0.0,-13.66,82A750
茶改場,24.908472,121.185333,2.63,28.0,-8.51,76.0,0.0,-9.33,82C160
茶改中部分場,23.875611,120.913583,0.13,23.0,2.38,92.0,5.75,-13.32,82H320
茶改南部分場,23.762528,120.7405,0.41,25.7,0.32,88.0,0.0,-17.27,82H840
茶改東部分場,22.907694,121.130139,1.59,27.95,-4.25,80.5,0.0,-5.71,82S580
農工中心,24.985917,121.239833,3.1,28.6,-3.2,74.0,0.0,-7.44,A2C560
水試臺西試驗場,23.717231,120.190522,0.87,28.9,3.07,86.0,0.0,-4.0,A2K360
臺大雲林校區,23.730628,120.423903,-0.48,28.0,4.75,84.5,5.0,5.0,A2K630
臺南蘭花園區,23.340258,120.379661,-0.75,27.8,8.25,87.5,9.0,9.0,A2N290
畜試北區分所,24.527806,120.770972,11.72,38.5,-21.58,60.0,0.0,-2.67,B2E890
畜產試驗所,23.058972,120.336406,-0.46,26.95,6.78,91.0,34.5,23.55,B2N890
畜試南區分所,21.945583,120.802167,-0.47,27.4,3.89,85.5,4.75,-1.7,B2Q810
畜試東區分所,24.669039,121.832561,0.1,27.35,1.0,88.5,0.0,-10.38,B2U990
蓮華池,23.918333,120.885278,-0.01,24.3,5.74,90.0,5.75,-7.26,E2H360
林試畢祿溪站,24.226944,121.308522,0.2,16.4,13.5,89.5,1.75,1.75,E2HA20
四湖植物園,23.676986,120.163433,0.76,28.9,8.62,94.0,0.0,-5.5,E2K600
林試六龜中心,22.991703,120.645722,-1.77,25.85,17.25,92.5,57.0,57.0,E2P980
林試太麻里2,22.598,120.99775,0.53,29.2,-1.75,75.0,0.0,0.0,E2S960
林試太麻里1,22.598922,120.980044,0.65,28.9,-0.25,77.5,0.0,0.0,E2S980
農試所(霧峰),24.031261,120.688133,2.22,29.35,6.92,90.5,8.25,-3.52,G2F820
農試嘉義分所,23.485028,120.473806,0.91,28.1,3.94,85.0,12.5,2.59,G2L020
農試溪口農場,23.58565,120.408111,0.28,28.05,3.44,84.5,7.75,4.31,G2M350
農試鳳山分所,22.646611,120.356083,-0.91,27.5,11.62,88.5,27.5,17.04,G2P820
苗栗農改場,24.495722,120.829111,1.82,28.45,-4.33,75.5,0.0,-10.22,K2E360
苗改生物防治研究中心,24.422861,120.871833,0.7,26.95,-1.0,79.0,0.0,-2.04,K2E710
種苗改良場,24.225972,120.800917,1.48,26.25,7.31,89.5,3.5,-10.89,K2F750
臺大和社,23.590856,120.888864,1.95,24.35,3.62,91.5,0.75,-2.69,U2HA30
臺大內茅埔,23.689722,120.851117,1.02,25.2,2.33,88.0,3.5,1.0,U2HA40
臺大竹山,23.756972,120.681556,0.06,27.8,4.33,82.0,4.5,-0.21,U2HA50
