站名,緯度,經度,平均溫距平,本年度平均溫,平均溼度距平,本年度日均相對溼度,本年度日均降水量,日均降水量距平,站號
淡水,25.164889,121.448906,0.94,28.09,1.08,81.46,2.89,-7.14,466900
鞍部,25.182586,121.529731,0.66,22.65,4.33,92.5,3.72,-9.76,466910
臺北,25.037658,121.514853,1.04,29.11,0.67,76.21,4.51,-7.57,466920
竹子湖,25.162078,121.544547,0.87,24.38,2.13,87.58,3.5,-8.46,466930
基隆,25.133314,121.740475,1.02,28.3,1.18,79.08,3.3,-8.16,466940
花蓮,23.975128,121.613275,0.51,27.83,3.61,84.33,11.14,5.13,466990
新屋,25.006725,121.047492,0.13,28.0,-0.61,83.0,1.39,-9.07,467050
宜蘭,24.763975,121.756528,0.72,27.83,3.85,85.54,4.74,-3.07,467080
金門,24.407306,118.289281,0.84,27.13,2.1,89.25,1.99,-3.51,467110
田中,23.873803,120.581286,-0.75,28.59,0.78,80.58,7.05,5.37,467270
澎湖,23.565503,119.563094,0.57,28.28,1.76,87.17,4.67,-1.32,467350
臺南,22.99328,120.20492,0.42,29.22,0.46,77.5,13.25,-0.73,467410
永康,23.038386,120.2367,0.63,29.15,3.21,77.83,14.62,0.66,467420
嘉義,23.495925,120.432906,0.39,28.67,3.19,80.25,14.24,2.18,467480
臺中,24.145736,120.684075,0.96,28.93,-0.11,76.0,5.14,-7.59,467490
阿里山,23.508208,120.813242,0.4,14.76,2.77,93.29,18.12,-7.99,467530
大武,22.35572,120.90374,0.53,28.75,1.46,78.58,12.55,-0.52,467540
玉山,23.48718,120.95943,1.45,8.8,4.21,85.92,12.05,-5.87,467550
新竹,24.827853,121.014219,0.93,28.8,0.11,76.92,1.87,-7.34,467571
恆春,22.003897,120.746339,0.44,28.95,2.13,82.12,11.55,0.41,467590
成功,23.097486,121.373428,0.48,27.7,3.79,86.0,13.31,7.5,467610
日月潭,23.881325,120.90805,0.71,22.91,5.93,91.42,17.84,1.01,467650
臺東,22.752211,121.154586,0.55,28.75,2.95,80.75,8.71,1.09,467660
馬祖,26.169467,119.923158,1.39,26.02,1.92,89.83,4.87,-1.95,467990
山佳,24.974944,121.402008,1.71,29.31,-1.35,79.33,2.25,-8.47,C0A520
坪林,24.938183,121.70975,2.68,27.38,-2.92,89.21,5.6,-6.58,C0A530
泰平,24.971197,121.823711,1.21,25.0,-0.41,94.04,6.54,-6.27,C0A550
桶後,24.848222,121.597992,1.88,26.11,-5.2,87.32,11.06,-1.91,C0A570
石碇,24.993969,121.662917,1.15,26.44,-4.44,86.88,3.02,-12.55,C0A640
大坪,25.165914,121.632969,2.09,26.99,-3.76,84.55,5.07,-8.29,C0A860
五指山,25.132153,121.608692,2.58,25.35,-3.05,90.17,3.71,-7.75,C0A870
雙溪,25.036003,121.864242,2.22,28.29,-2.88,85.92,4.65,-6.69,C0A890
三和,25.233153,121.595236,0.51,26.56,-1.9,89.08,6.62,-10.02,C0A931
金山,25.223628,121.643967,0.87,27.48,-2.92,82.38,5.08,-6.24,C0A940
鼻頭角,25.129036,121.923372,1.41,27.95,-2.59,87.0,3.0,-4.09,C0A950
三貂角,25.007606,122.002058,1.08,27.3,1.73,89.29,5.88,-1.26,C0A970
社子,25.109508,121.469681,1.86,29.85,-0.69,78.38,2.33,-7.14,C0A980
天母,25.117494,121.537169,1.04,28.91,-4.3,72.67,2.38,-7.46,C0A9C0
內湖,25.079422,121.57545,1.73,29.79,-0.79,77.38,3.94,-7.11,C0A9F0
大屯山,25.175675,121.522408,2.35,23.2,2.09,97.42,3.77,-8.55,C0AC40
三峽,24.939025,121.369728,1.68,29.59,-0.88,80.25,3.9,-7.93,C0AC60
信義,25.037822,121.564597,1.46,29.41,-2.42,77.79,4.5,-8.33,C0AC70
文山,25.00235,121.575728,0.54,27.87,-3.58,81.21,4.54,-9.38,C0AC80
新莊,25.051478,121.446756,-0.01,28.68,0.38,74.75,2.33,-8.96,C0ACA0
八里,25.150211,121.403947,1.63,29.65,7.44,85.83,2.71,-5.83,C0AD10
蘆洲,25.086594,121.472331,1.07,29.92,0.29,75.96,2.31,-7.58,C0AD30
土城,24.973208,121.445169,0.47,28.0,-0.75,81.88,8.35,-5.24,C0AD40
鶯歌,24.951533,121.346294,1.45,29.33,0.48,82.38,2.12,-8.03,C0AD50
汐止,25.066881,121.658778,0.57,28.35,-3.84,79.52,2.74,-9.87,C0AH00
永和,25.01125,121.508111,1.26,29.7,1.63,77.08,8.1,-4.03,C0AH10
五分山,25.07125,121.780794,2.39,25.02,-1.8,92.0,5.08,-9.47,C0AH30
平等,25.129142,121.577086,0.52,26.25,-1.09,81.5,2.94,-9.63,C0AH40
林口,25.072181,121.38084,1.66,28.32,-0.35,84.35,2.67,-8.18,C0AH50
松山,25.04871,121.55042,0.38,28.96,9.18,78.62,5.5,-0.74,C0AH70
深坑,25.002703,121.628328,1.17,28.02,-0.8,83.71,2.69,-6.7,C0AH80
福山植物園,24.760717,121.58135,0.7,23.65,1.39,93.62,8.46,1.08,C0AH90
五股,25.07445,121.42728,1.27,28.68,-0.09,81.88,2.67,-6.91,C0AI00
屈尺,24.92184,121.54475,2.02,29.16,0.81,85.21,6.98,-4.19,C0AI10
白沙灣,25.283128,121.519058,0.43,27.66,7.11,85.38,2.83,-4.59,C0AI20
三重,25.057328,121.500629,-0.76,29.56,7.47,83.58,1.98,-0.66,C0AI30
石牌,25.115597,121.513139,0.61,30.03,6.53,76.33,2.17,-6.7,C0AI40
七堵,25.094819,121.71713,1.44,29.14,-1.8,82.17,3.35,-7.03,C0B010
基隆嶼,25.19141,121.78391,0.02,27.19,6.93,95.58,1.17,-8.76,C0B020
復興,24.820208,121.352281,0.4,24.77,-7.87,78.46,7.23,-8.4,C0C460
桃園,24.992425,121.323172,0.82,28.9,0.88,74.5,2.98,-7.24,C0C480
八德,24.928708,121.283289,0.24,28.05,-2.79,76.08,3.12,-6.91,C0C490
觀音,25.027072,121.153317,0.3,27.31,6.38,87.92,3.98,-5.37,C0C590
蘆竹,25.084275,121.265767,0.68,28.49,-1.4,79.71,1.9,-7.15,C0C620
大溪,24.882853,121.265547,0.56,26.98,2.44,80.25,4.46,-5.59,C0C630
平鎮,24.897503,121.214636,0.83,27.29,0.25,80.38,3.69,-5.71,C0C650
楊梅,24.912375,121.143047,0.06,27.8,3.21,78.75,2.29,-7.05,C0C660
龍潭,24.870056,121.221389,0.18,26.97,1.71,79.58,5.83,-2.79,C0C670
龜山,25.02846,121.38656,-0.68,25.92,-1.83,77.79,2.77,-9.08,C0C680
中壢,24.977661,121.256375,0.48,28.18,0.72,75.17,2.25,-4.21,C0C700
大溪永福,24.892936,121.324975,0.8,27.42,-0.02,83.96,3.92,-6.24,C0C710
梅花,24.678347,121.208558,0.6,24.57,1.88,89.62,7.21,-3.27,C0D360
峨眉,24.6905,121.017189,0.24,27.38,2.41,88.38,3.98,-4.91,C0D430
打鐵坑,24.849664,121.150789,0.2,25.9,-1.86,84.04,1.08,-8.56,C0D480
橫山,24.71116,121.11693,0.15,26.02,10.6,96.08,4.79,-5.11,C0D540
雪霸,24.526972,121.11605,0.45,18.32,1.2,85.54,5.8,-6.67,C0D550
竹東,24.767147,121.057881,1.57,28.48,-0.81,74.83,4.62,-3.4,C0D560
寶山,24.735006,121.025192,0.51,26.77,1.37,85.88,3.46,-5.25,C0D580
新豐,24.87068,120.97721,0.48,27.17,5.53,88.75,2.1,-7.6,C0D590
湖口,24.904794,121.043628,0.35,28.1,-2.86,76.54,1.9,-7.38,C0D650
新竹市東區,24.798681,120.986942,0.04,28.09,1.69,76.71,2.27,-6.79,C0D660
竹南,24.708978,120.888897,1.88,29.47,3.55,81.71,2.75,-6.33,C0E420
南庄,24.601775,121.000214,0.48,26.2,2.93,85.88,5.19,-5.98,C0E430
明德,24.583486,120.885411,0.65,28.56,-0.95,78.04,3.19,-4.8,C0E550
通霄,24.471892,120.704622,0.2,28.15,-0.06,82.33,3.56,-4.4,C0E590
馬都安,24.451272,120.930192,0.73,23.6,4.76,87.08,7.12,-5.15,C0E610
頭份,24.688247,120.912206,1.49,29.86,1.19,74.96,4.02,-4.68,C0E730
造橋,24.637056,120.864778,0.22,28.54,-1.54,79.21,2.98,-5.32,C0E740
苗栗,24.564569,120.824575,-0.11,28.61,-2.62,71.5,2.62,-5.63,C0E750
銅鑼,24.489681,120.790853,0.22,28.04,-3.04,78.0,3.4,-5.57,C0E780
西湖,24.562947,120.7485,0.38,27.88,-2.16,84.21,3.17,-5.45,C0E810
獅潭,24.539133,120.920042,0.05,27.03,-2.86,80.29,3.65,-6.08,C0E820
苑裡,24.439714,120.653053,-0.12,28.37,-0.4,78.42,2.44,-6.12,C0E830
大河,24.618069,120.948578,-1.17,26.33,1.3,81.08,3.75,-6.92,C0E850
高鐵苗栗,24.60725,120.826094,0.21,28.53,9.38,83.04,3.21,-4.09,C0E870
石岡,24.276061,120.777644,0.66,27.43,0.14,81.08,8.17,-8.08,C0F0B0
中坑,24.248517,120.903319,-0.34,21.99,-0.73,89.75,12.73,-8.86,C0F0C0
審馬陣,24.381675,121.4203,0.5,11.58,5.25,86.92,9.88,3.27,C0F0D0
東勢,24.246428,120.833047,1.24,27.7,-1.9,77.96,7.83,-7.18,C0F850
大坑,24.173142,120.722289,1.29,29.55,0.85,76.38,4.65,-7.02,C0F970
神岡,24.272481,120.658314,-0.01,27.7,-4.31,78.67,4.15,-3.88,C0F9I0
大安,24.345061,120.588025,-0.15,28.08,-1.29,81.71,3.4,-3.44,C0F9K0
后里,24.310436,120.729725,0.67,28.44,-2.96,77.92,5.77,-4.37,C0F9L0
豐原,24.254322,120.720692,1.65,29.5,-3.53,73.88,4.98,-6.41,C0F9M0
大里,24.092464,120.701378,1.01,30.15,2.96,77.12,5.31,-5.6,C0F9N0
潭子,24.213106,120.703933,0.52,29.26,2.14,78.08,4.81,-6.57,C0F9O0
清水,24.312297,120.562242,-0.06,28.63,-2.89,79.62,3.06,-3.44,C0F9P0
外埔,24.347817,120.705686,0.1,27.74,-1.92,82.04,5.19,-3.21,C0F9Q0
龍井,24.184536,120.528972,0.23,28.82,-7.92,78.83,4.83,-2.68,C0F9R0
烏日,24.107058,120.624103,0.21,28.95,-0.95,75.25,5.83,-3.42,C0F9S0
西屯,24.179494,120.641275,0.19,28.97,-2.42,73.96,5.06,-4.38,C0F9T0
南屯,24.137006,120.637969,0.04,29.08,-0.64,74.96,5.52,-3.6,C0F9U0
新社,24.200172,120.815806,0.47,25.9,-3.31,81.96,10.38,-5.3,C0F9V0
大雅(中科園區),24.21528,120.62445,0.2,27.78,1.16,80.79,3.71,-7.68,C0F9X0
桃山,24.432739,121.303808,0.46,10.9,4.93,88.08,10.77,-4.04,C0F9Y0
雪山東峰,24.388792,121.268675,0.63,11.81,3.49,85.21,9.54,-7.09,C0F9Z0
芬園,24.015678,120.6213,-0.48,27.32,8.12,90.54,7.9,-2.58,C0G620
員林,23.946503,120.585597,2.62,30.73,-3.51,78.67,8.42,-2.35,C0G650
溪湖,23.94835,120.479122,0.92,29.22,-5.51,80.95,7.9,-1.75,C0G660
溪州,23.851589,120.499093,0.94,28.88,-7.0,75.33,9.48,-2.92,C0G720
二林,23.903325,120.376081,0.34,28.37,-0.44,87.33,10.04,-2.13,C0G730
大城,23.852487,120.320935,0.28,28.2,0.2,83.25,5.75,-5.3,C0G740
福興,24.041289,120.437669,0.08,29.27,-5.81,77.83,5.6,-2.55,C0G770
秀水,24.03405,120.503869,0.46,29.25,-1.31,81.62,8.0,-0.35,C0G780
埔鹽,24.000394,120.431683,0.8,29.06,-7.18,79.19,6.44,-1.89,C0G800
埔心,23.947633,120.525456,1.48,30.44,-1.63,78.04,7.88,-1.98,C0G810
田尾,23.901669,120.509389,0.53,29.15,1.19,85.5,9.17,-1.39,C0G820
埤頭,23.866003,120.452806,0.14,28.65,2.45,89.96,8.08,-1.51,C0G830
社頭,23.897647,120.5862,0.38,29.58,8.27,82.83,7.04,-3.65,C0G860
二水,23.810742,120.6173,1.13,29.6,0.29,81.18,7.21,-3.99,C0G880
伸港,24.148933,120.484403,0.01,28.7,-4.84,78.54,5.04,-2.07,C0G890
線西,24.143358,120.443536,-0.82,28.65,0.12,80.5,4.67,-2.57,C0G900
花壇,24.032076,120.549461,1.38,30.81,11.57,85.96,8.12,5.91,C0G910
埔里,23.972169,120.952425,0.56,26.21,0.53,85.42,15.75,-4.26,C0H890
草屯,23.973672,120.68085,0.06,28.29,0.84,79.0,7.6,-4.07,C0H960
昆陽,24.121322,121.273642,1.06,11.63,0.75,89.92,9.98,-2.93,C0H990
神木村,23.532742,120.843667,0.68,19.7,0.81,91.83,13.85,-6.98,C0H9A0
合歡山,24.143442,121.272547,1.31,10.79,6.07,93.29,14.27,-10.55,C0H9C0
廬山,24.033311,121.181808,0.95,20.31,-1.75,84.92,9.94,-7.8,C0I010
信義,23.689694,120.851036,0.54,25.14,0.45,87.17,8.17,-8.41,C0I080
竹山,23.761225,120.688156,0.86,27.75,1.1,84.08,14.42,0.18,C0I110
水里,23.812553,120.849792,0.53,26.74,-1.01,81.21,13.9,-6.33,C0I360
魚池,23.895703,120.94135,0.53,24.82,-2.43,84.17,14.75,-6.28,C0I370
集集,23.828206,120.801467,0.13,26.99,1.15,84.79,13.31,-9.14,C0I380
仁愛,24.022122,121.132206,0.91,22.17,-4.63,84.25,9.29,-15.58,C0I390
名間,23.837053,120.701447,-0.08,27.17,5.52,85.42,10.81,-4.82,C0I410
國姓,24.037803,120.855072,0.49,26.69,-1.5,84.83,12.04,-12.13,C0I420
南投,23.911469,120.687331,0.22,28.5,6.44,83.96,7.96,-9.51,C0I460
梅峰,24.085272,121.173572,1.03,16.76,-2.51,88.75,12.44,-15.23,C0I480
萬大林道,23.928228,121.091411,0.72,19.87,-5.45,85.83,10.54,-8.73,C0I490
小奇萊,24.131764,121.295717,1.19,11.65,0.68,89.21,10.81,-7.48,C0I530
崙背,23.75555,120.318925,-0.03,27.9,-0.4,85.46,10.02,-3.94,C0K250
四湖,23.630414,120.227125,0.79,28.57,-2.9,82.54,11.62,0.79,C0K280
宜梧,23.536281,120.169329,0.09,28.61,-1.83,82.04,11.23,0.84,C0K291
虎尾,23.719183,120.442036,0.72,28.88,4.81,83.58,9.98,-1.37,C0K330
土庫,23.679029,120.395574,0.19,28.46,-3.08,79.08,9.9,-3.2,C0K390
斗六,23.720583,120.541127,0.25,28.49,-3.93,76.62,7.02,-6.85,C0K400
北港,23.573957,120.292802,0.12,28.49,-2.78,79.88,9.92,1.07,C0K410
西螺,23.800407,120.467394,0.24,28.7,-2.41,78.83,8.69,-3.23,C0K420
褒忠,23.690938,120.303634,0.2,28.3,-1.61,82.04,9.96,-1.44,C0K430
二崙,23.772797,120.408944,0.53,28.71,5.14,88.08,8.65,-5.74,C0K440
大埤,23.646074,120.431537,0.34,28.59,-1.71,79.29,8.56,-5.3,C0K450
斗南,23.678734,120.478359,0.28,28.58,1.7,79.25,8.38,-6.02,C0K460
林內,23.748675,120.609642,0.22,27.77,-0.98,81.42,10.71,-4.09,C0K470
莿桐,23.761192,120.502372,0.27,28.34,-0.36,79.29,6.88,-7.46,C0K480
元長,23.64981,120.315024,0.34,28.71,-0.31,80.83,11.46,-1.94,C0K500
水林,23.572924,120.24597,0.41,28.8,0.93,82.04,11.67,0.12,C0K510
臺西,23.701547,120.197559,0.03,28.21,0.48,83.17,12.1,-1.19,C0K530
蔦松,23.514319,120.229736,0.28,28.69,-0.46,82.79,11.46,2.0,C0K550
棋山,23.68645,120.603417,0.19,27.85,3.95,85.42,12.1,-6.03,C0K560
高鐵雲林,23.737456,120.417944,-0.25,28.11,-1.26,83.08,10.1,1.62,C0K580
東後寮,23.369908,120.248065,0.23,28.27,-0.06,84.88,11.23,-0.04,C0M520
奮起湖,23.493903,120.699253,0.71,20.49,2.25,94.38,19.21,-4.88,C0M530
中埔,23.42538,120.5229,0.02,27.88,-1.31,76.38,12.38,-3.38,C0M640
朴子,23.43463,120.23902,-0.44,27.77,2.25,85.08,10.94,0.93,C0M650
溪口,23.604131,120.403569,0.13,28.34,-1.8,80.04,6.85,-4.22,C0M660
大林,23.600616,120.45841,0.31,28.83,-0.34,77.92,9.08,-5.38,C0M670
太保,23.455062,120.331455,0.05,28.43,-3.16,80.12,10.92,-1.17,C0M680
水上,23.419734,120.388909,0.27,28.39,-1.44,80.04,14.83,2.28,C0M690
竹崎,23.526178,120.555508,-0.03,27.45,1.79,82.75,14.75,-0.51,C0M700
東石,23.458927,120.15385,-0.12,28.69,-3.12,79.58,12.12,2.51,C0M710
番路,23.464657,120.554156,0.25,27.52,1.84,79.71,16.35,-1.61,C0M720
嘉義市東區,23.457673,120.460531,0.13,28.85,2.03,79.38,13.83,0.69,C0M730
六腳,23.492871,120.290625,0.05,28.52,1.66,81.08,11.5,2.52,C0M740
布袋,23.380878,120.167789,0.23,28.84,-2.87,80.04,10.62,-1.0,C0M750
民雄,23.551754,120.428457,0.16,28.75,-1.2,78.83,9.15,-4.81,C0M760
嘉義梅山,23.585398,120.555587,-0.16,27.85,2.45,80.83,16.92,1.49,C0M770
鹿草,23.41134,120.30835,0.29,28.73,0.21,81.08,12.79,-0.62,C0M780
新港,23.553269,120.345728,-0.02,28.42,-1.08,79.71,8.6,-2.39,C0M790
茶山,23.299075,120.664767,0.24,25.51,0.85,86.83,15.48,-6.68,C0M800
里佳,23.389125,120.716647,0.5,20.91,-0.3,87.96,20.33,-10.16,C0M810
達邦,23.453994,120.749517,0.75,22.83,2.5,87.71,12.58,-12.14,C0M820
表湖,23.24186,120.64166,-0.49,23.79,1.32,87.83,13.71,-1.84,C0M850
新美,23.338017,120.683169,-0.22,25.13,9.79,87.25,16.42,12.28,C0M860
北寮,23.079561,120.495008,-0.12,27.73,7.09,89.58,20.75,9.71,C0O830
王爺宮,23.222064,120.40085,2.05,29.79,-4.8,78.29,14.15,1.93,C0O840
大內,23.11885,120.36083,0.71,29.55,3.86,85.58,14.73,3.98,C0O860
善化,23.112883,120.297219,0.58,28.59,8.17,91.38,14.44,0.52,C0O900
崎頂,22.959547,120.369317,0.95,28.75,-0.58,85.12,13.75,3.15,C0O960
虎頭埤,23.021375,120.347878,-0.16,27.93,-1.75,82.0,16.0,4.63,C0O970
新市,23.061614,120.298197,0.55,29.28,-1.98,81.17,13.94,4.23,C0O980
媽廟,22.99175,120.293525,0.27,28.98,0.38,82.83,12.67,1.81,C0O990
尾寮山,22.833111,120.683889,1.12,22.78,1.76,93.92,26.67,-2.05,C0R100
阿禮,22.742908,120.743678,0.25,22.61,-2.28,84.62,15.56,0.23,C0R130
瑪家,22.682903,120.686639,-0.47,23.83,10.69,95.12,22.65,0.66,C0R140
三地門,22.709889,120.639944,0.73,28.49,1.18,78.54,20.13,-0.58,C0R150
鹽埔,22.739558,120.530778,0.38,28.77,-0.65,85.46,15.54,2.8,C0R160
赤山,22.592333,120.614306,-0.0,28.61,6.53,88.67,17.6,2.21,C0R190
潮州,22.534361,120.54,0.88,29.16,0.94,78.79,17.65,1.27,C0R220
來義,22.527306,120.625111,-0.82,27.27,9.34,90.29,17.38,2.34,C0R240
春日,22.370361,120.628306,-1.27,27.21,5.66,86.25,17.21,5.9,C0R260
琉球嶼,22.332244,120.362236,0.84,28.91,-4.65,81.54,7.96,-1.94,C0R270
車城,22.0744,120.716247,-0.54,28.75,3.38,85.0,12.77,9.35,C0R320
牡丹,22.130036,120.792639,-0.47,26.66,9.35,93.0,15.38,9.97,C0R341
貓鼻頭,21.921774,120.7358,0.56,28.61,0.5,84.54,12.1,2.79,C0R350
大漢山,22.405264,120.753181,0.33,18.3,3.17,97.75,34.12,21.82,C0R440
高樹,22.826389,120.600806,-0.24,28.43,0.6,77.33,19.04,4.47,C0R470
長治,22.693128,120.542622,0.69,29.55,-1.22,78.21,16.69,3.06,C0R480
九如,22.7405,120.490503,0.7,29.48,-2.27,79.33,17.92,4.73,C0R490
崁頂,22.514781,120.506914,-0.16,28.89,0.26,81.92,10.67,-1.2,C0R520
佳冬,22.419456,120.552375,-0.05,28.9,0.36,80.88,15.67,3.96,C0R540
新埤,22.467947,120.582894,-0.11,28.59,-4.42,77.92,17.31,6.44,C0R550
新園,22.5434,120.461558,0.95,29.88,-6.61,75.33,15.38,3.15,C0R560
麟洛,22.65078,120.52719,0.8,29.85,2.9,82.12,18.79,7.23,C0R570
南州,22.48591,120.50274,-0.19,28.63,5.01,84.42,14.56,3.5,C0R580
里港,22.77919,120.49459,0.25,28.77,1.58,83.17,17.1,5.44,C0R590
舊泰武,22.588194,120.664944,-0.14,24.33,2.78,86.88,11.3,-9.92,C0R600
墾雷,21.900836,120.855269,-0.36,28.34,8.38,92.58,13.08,5.12,C0R620
東港,22.46247,120.44074,-0.03,29.11,-1.03,82.17,11.79,9.02,C0R640
竹田,22.58486,120.54344,-0.24,29.02,-0.46,80.33,17.17,11.99,C0R650
枋寮,22.367722,120.590647,-0.11,28.85,6.57,84.92,12.38,11.12,C0R660
楓港,22.190131,120.692156,-0.83,28.35,0.58,79.5,16.65,13.95,C0R670
佳樂水,21.993578,120.861633,-0.92,28.56,6.79,85.79,12.69,10.94,C0R680
墾丁,21.966756,120.810269,-0.41,26.82,3.26,91.33,13.79,12.08,C0R690
枋山,22.246844,120.661086,0.2,28.91,0.4,80.17,46.5,45.02,C0R700
龍磐,21.931672,120.838942,-0.84,27.83,4.65,89.46,11.6,10.45,C0R710
旭海,22.205403,120.887614,-0.89,27.08,5.85,84.58,11.25,7.81,C0R720
大坪頂,22.024633,120.69355,-0.65,27.61,8.26,93.92,8.08,6.85,C0R730
四林格山,22.076989,120.802439,-0.26,24.58,0.55,96.17,16.38,8.66,C0R750
南仁湖,22.084681,120.863353,-0.9,25.82,11.61,95.92,20.4,12.59,C0R760
保力,22.071122,120.764111,-0.3,27.45,3.65,89.0,13.5,6.77,C0R770
滿州,22.024403,120.839892,-0.82,28.0,5.02,84.71,14.06,10.85,C0R780
九棚,22.14195,120.889281,-1.11,27.99,8.98,83.37,6.39,0.81,C0R790
丹路,22.204481,120.750989,-0.25,27.82,2.41,84.33,23.56,17.49,C0R800
內獅,22.305064,120.642986,-0.07,28.91,14.23,91.04,19.42,17.38,C0R810
白鷺,22.454275,120.666219,0.05,25.22,3.49,87.83,23.48,20.58,C0R820
高士,22.121825,120.836781,-0.83,25.62,7.96,91.54,17.33,9.49,C0R830
牡丹池山,22.168389,120.841225,-0.68,24.73,7.97,94.08,15.02,8.89,C0R840
下馬,23.150427,121.070312,0.31,24.12,4.85,85.21,8.92,7.56,C0S660
太麻里,22.60902,120.98533,0.88,25.44,4.11,88.39,7.96,-0.79,C0S690
知本,22.684866,121.005642,0.92,25.68,3.99,89.79,15.25,6.0,C0S700
鹿野,22.917711,121.122994,1.3,26.28,4.7,88.0,11.73,4.16,C0S710
綠島,22.6672,121.47533,1.05,28.18,-1.67,85.0,13.79,7.82,C0S730
池上,23.119628,121.209469,0.84,26.65,4.3,87.17,11.54,5.59,C0S740
向陽,23.248397,120.986133,0.94,16.29,12.67,90.04,12.33,-3.52,C0S750
大溪山,22.478475,120.943325,0.82,25.97,5.75,87.79,10.9,-0.38,C0S770
金崙,22.538122,120.966875,1.03,27.93,0.33,81.46,9.33,0.16,C0S790
東河,22.972672,121.303986,0.16,28.18,2.57,87.33,13.94,7.7,C0S810
長濱,23.286817,121.411975,0.79,27.17,2.98,86.92,12.81,7.64,C0S830
南田,22.279725,120.889208,0.58,28.52,1.11,79.96,12.75,0.7,C0S840
關山,23.0395,121.175017,0.33,27.21,5.14,87.88,10.92,5.64,C0S890
蘭嶼高中,22.04909,121.51214,-0.43,28.87,7.44,86.92,18.0,16.32,C0S900
蘭嶼燈塔,22.081197,121.503117,-0.24,27.38,8.24,92.12,16.77,15.4,C0S910
金峰嘉蘭,22.594789,120.960825,-0.57,27.88,3.55,80.21,11.9,7.26,C0S920
延平,22.902581,121.084058,-1.02,26.92,10.67,84.25,11.83,9.17,C0S930
石寧山,23.223772,121.406639,-0.67,28.1,6.27,86.96,13.9,12.45,C0S940
七塊厝,22.954453,121.229922,-0.11,26.53,-2.02,83.36,13.98,8.67,C0S950
香蘭,22.587569,120.993375,-0.34,28.71,9.83,83.45,10.94,8.32,C0S960
加津林,22.416211,120.926942,-0.01,28.5,4.0,80.54,11.88,8.6,C0S970
勝林山,22.430439,120.8938,-1.76,23.07,11.97,91.12,12.67,8.37,C0S980
山豬窟,22.318619,120.857372,-1.46,26.18,11.62,85.7,15.04,10.46,C0S990
歷坵,22.520969,120.89185,0.1,25.81,1.49,86.83,11.52,7.13,C0SA00
檳榔四格山,22.810031,121.109308,-0.91,25.97,7.39,89.54,9.21,7.13,C0SA10
金崙山,22.567419,120.959667,-0.13,24.27,2.34,86.38,13.1,9.74,C0SA20
都歷,23.020333,121.323642,-0.15,28.19,0.46,79.54,12.71,9.15,C0SA30
瑞和,22.974361,121.156697,-0.91,27.21,5.76,84.42,11.21,7.99,C0SA40
知本（水試所）,22.702394,121.082761,-0.61,28.38,6.67,84.71,10.1,8.48,C0SA60
土坂,22.453108,120.887572,0.05,28.0,7.88,83.5,13.19,8.48,C0SA80
達仁林場,22.264347,120.823972,-0.77,25.38,10.81,89.5,20.79,13.08,C0SA90
大禹嶺,24.186117,121.316086,0.58,13.57,2.72,87.25,9.77,-0.54,C0T790
天祥,24.179597,121.495639,0.93,24.58,4.68,86.38,9.19,4.1,C0T820
鯉魚潭,23.935639,121.508944,0.54,26.15,1.48,90.5,10.98,4.64,C0T870
西林,23.8119,121.441458,0.82,27.12,7.19,87.29,8.23,2.26,C0T900
光復,23.660694,121.424964,1.25,27.71,-1.77,85.29,9.94,2.9,C0T960
月眉山,23.809928,121.539828,1.21,25.29,-0.95,92.46,7.54,1.87,C0T9A0
水源,23.991861,121.537169,0.94,24.59,0.14,91.83,13.04,6.17,C0T9B0
和中,24.26676,121.74103,0.68,27.62,10.51,100.0,9.9,2.72,C0T9D0
大坑,23.880628,121.581981,0.9,25.62,4.17,92.62,14.5,8.28,C0T9E0
水璉,23.797131,121.542514,0.5,26.69,4.28,91.08,7.29,1.73,C0T9F0
鳳林山,23.735269,121.420131,0.11,24.78,0.85,93.33,12.12,4.55,C0T9G0
加路蘭山,23.682947,121.5274,1.28,24.84,6.41,98.29,9.15,1.7,C0T9H0
豐濱,23.583897,121.514806,1.22,27.1,-2.95,85.75,8.08,1.79,C0T9I0
靜浦,23.455167,121.495028,0.92,27.45,6.74,93.0,12.21,6.73,C0T9M0
富里,23.171639,121.249378,-0.75,27.1,19.59,98.67,9.77,8.17,C0T9N0
雙連埤,24.753033,121.641303,0.14,23.9,-2.45,92.83,7.06,-2.98,C0U520
礁溪,24.817539,121.765608,1.01,27.74,-3.06,83.88,3.92,-4.44,C0U600
玉蘭,24.675286,121.587061,1.18,25.75,-1.94,83.5,7.79,-1.74,C0U650
太平山,24.505486,121.525656,1.06,18.14,-0.3,92.38,13.65,1.4,C0U710
南山,24.43742,121.38167,0.49,22.17,-5.82,84.33,5.08,-0.43,C0U720
龜山島,24.841667,121.953133,-0.13,24.66,-1.12,93.38,2.94,-1.15,C0U750
東澳,24.52196,121.83318,0.86,27.95,-4.12,83.46,5.12,-3.46,C0U760
南澳,24.44935,121.81022,0.3,27.49,2.02,88.54,2.81,-3.27,C0U770
五結,24.68637,121.79794,0.09,27.81,-1.47,83.04,4.79,-1.21,C0U780
頭城,24.85323,121.8308,0.17,27.76,-1.25,88.25,4.31,-2.8,C0U860
大礁溪,24.791042,121.675047,0.4,25.05,6.05,93.17,7.92,0.89,C0U870
三星,24.66812,121.65302,0.33,27.1,-6.56,82.08,6.5,0.12,C0U890
內城,24.71813,121.68766,0.84,27.72,-2.38,84.71,4.98,-1.72,C0U900
冬山,24.63373,121.7937,0.88,28.26,-0.45,80.04,5.9,-1.4,C0U910
羅東,24.68184,121.74934,0.93,28.18,0.74,83.29,3.81,-2.21,C0U940
鶯子嶺,24.89754,121.79244,0.74,22.0,-4.41,90.79,8.4,-2.14,C0U950
翠峰湖,24.510856,121.608044,1.1,18.02,1.15,93.25,12.31,4.25,C0U960
大福,24.80064,121.81389,-0.05,27.24,1.38,85.71,3.75,-2.11,C0U970
坪林石牌,24.86478,121.77396,0.51,24.2,1.98,95.46,6.62,-1.39,C0U980
員山,24.74435,121.72247,0.37,27.73,3.16,86.25,4.17,-2.22,C0U990
土場,24.576533,121.495333,0.04,25.57,-2.78,86.0,5.6,-0.71,C0UA00
鴛鴦湖,24.590269,121.412228,0.71,18.63,2.49,96.38,14.31,2.13,C0UA10
白嶺,24.527819,121.519031,0.57,20.82,-1.88,92.58,15.6,6.01,C0UA30
西德山,24.560647,121.752608,0.73,22.03,1.66,94.12,9.4,2.0,C0UA40
西帽山,24.555361,121.802628,0.56,23.56,-4.91,87.62,9.67,0.34,C0UA50
樟樹山,24.41393,121.78325,0.44,24.92,2.72,88.87,4.41,-2.72,C0UA60
桃源谷,24.962606,121.888875,0.53,24.48,-0.62,95.54,7.67,-2.49,C0UA70
復興,23.222403,120.806089,0.6,24.56,3.16,84.79,14.85,-1.26,C0V210
溪埔,22.738578,120.446797,0.08,28.59,4.1,85.33,18.42,6.09,C0V350
內門,22.975481,120.466769,0.97,28.55,1.84,85.62,22.1,7.93,C0V360
古亭坑,22.893178,120.401947,0.33,27.66,1.77,86.33,19.5,3.14,C0V370
阿公店,22.804194,120.355528,-0.24,28.21,1.99,83.96,13.52,2.47,C0V400
鳳山,22.646653,120.356122,-0.52,28.6,7.38,85.46,11.48,0.87,C0V440
鳳森,22.545064,120.392592,-0.18,28.43,-0.69,82.58,14.17,2.6,C0V450
新興,22.627422,120.298803,0.5,29.6,-2.55,76.5,14.62,3.33,C0V490
阿蓮,22.883208,120.327508,0.03,29.04,0.48,81.67,14.33,1.29,C0V530
梓官,22.760558,120.267211,-0.18,29.01,-0.75,80.17,15.0,3.69,C0V610
永安,22.82315,120.236856,-0.19,28.78,-2.94,81.17,12.27,1.17,C0V620
茄萣,22.906642,120.182608,0.26,29.43,3.3,81.54,16.62,6.09,C0V630
湖內,22.887139,120.2445,-0.53,28.5,-0.89,80.38,12.79,2.35,C0V640
彌陀,22.783806,120.246361,0.04,28.95,-3.08,81.67,13.23,2.47,C0V650
岡山,22.797078,120.294958,0.33,29.78,0.29,78.75,17.56,5.47,C0V660
仁武,22.701083,120.347722,0.16,29.75,0.98,78.75,14.38,2.99,C0V680
鼓山,22.623325,120.275575,-0.12,29.1,-0.16,80.75,12.5,2.81,C0V690
三民,22.645017,120.311233,-0.04,29.65,2.88,76.08,15.31,3.85,C0V700
苓雅,22.622742,120.330669,0.55,29.95,6.07,79.73,15.39,4.61,C0V710
林園,22.507747,120.394511,0.43,30.11,3.1,79.75,12.46,1.52,C0V720
大寮,22.605614,120.395717,-0.25,29.11,5.93,82.88,18.23,7.34,C0V730
旗山,22.888614,120.483597,1.06,29.42,-1.27,78.46,21.04,8.08,C0V740
路竹,22.854997,120.259439,0.45,29.68,-0.78,78.42,13.23,0.79,C0V750
橋頭,22.757806,120.30575,0.38,29.81,-4.06,75.29,15.1,4.24,C0V760
大社,22.730306,120.346639,0.25,29.66,3.49,80.21,16.06,4.3,C0V770
萬山,22.905944,120.688056,0.49,26.35,3.84,85.38,16.43,1.16,C0V790
六龜,22.997889,120.633583,0.29,27.48,3.69,83.08,22.58,4.74,C0V800
左營,22.67491,120.28491,-0.14,28.9,-1.12,79.58,14.9,2.16,C0V810
小林,23.148408,120.63325,-0.03,26.0,7.49,87.17,13.83,3.04,C0V820
東莒,25.9652,119.98069,1.17,26.08,-1.28,87.33,1.68,-5.91,C0W110
西嶼,23.5626,119.468436,0.68,26.94,-1.32,92.23,9.09,3.89,C0W120
花嶼,23.40007,119.32276,0.46,27.14,0.52,90.54,3.1,-3.24,C0W130
金沙,24.488292,118.408778,1.0,27.48,-3.27,84.17,1.6,-3.4,C0W140
金寧,24.457703,118.328989,0.09,27.35,-5.05,83.58,1.31,-3.15,C0W150
東河,23.296598,120.385608,-0.14,28.26,-3.2,78.54,13.52,-0.13,C0X050
下營,23.22695,120.256261,0.43,28.72,-3.97,79.54,13.83,1.42,C0X060
佳里,23.173039,120.145086,0.73,28.95,2.33,87.04,16.67,4.9,C0X080
臺南市北區,23.010394,120.194228,-0.05,29.56,4.81,79.67,11.33,1.87,C0X100
臺南市南區,22.961189,120.188378,-0.03,29.3,0.29,81.58,12.54,3.15,C0X110
麻豆,23.183289,120.248611,0.61,29.72,1.0,82.25,14.44,4.56,C0X120
官田,23.193217,120.315422,0.11,29.06,7.19,86.75,12.27,2.3,C0X130
西港,23.125608,120.203108,-0.26,29.05,-0.71,78.62,17.15,7.8,C0X140
安定,23.102614,120.227839,0.27,29.39,2.54,83.04,15.71,6.9,C0X150
仁德,22.968258,120.257689,0.26,29.34,2.0,81.33,13.6,3.33,C0X160
關廟,22.963017,120.327797,-0.13,29.13,6.68,82.29,12.54,1.26,C0X170
山上,23.0757,120.363253,0.08,28.51,1.67,82.58,15.52,4.76,C0X180
安平,22.993161,120.152181,-0.0,29.25,-5.6,76.54,12.58,4.02,C0X190
左鎮,23.056758,120.408522,0.9,28.78,-1.36,82.92,15.35,4.66,C0X200
白河,23.347466,120.414427,0.06,28.31,1.06,81.21,12.67,-0.41,C0X210
學甲,23.230367,120.182187,0.19,28.74,1.58,81.0,12.79,4.33,C0X220
鹽水,23.272621,120.247641,0.16,28.42,-0.11,82.71,12.83,2.45,C0X230
關子嶺,23.331169,120.508025,-0.0,26.04,3.63,87.54,21.9,3.01,C0X240
新營,23.310689,120.316681,-0.17,28.83,1.73,79.5,15.1,4.15,C0X250
後壁,23.366358,120.362326,-0.01,28.53,-0.71,79.54,13.35,3.01,C0X260
將軍,23.214999,120.13577,0.2,28.62,-0.67,81.33,12.5,2.68,C0X280
北門,23.267772,120.125481,-0.19,28.73,-2.33,81.71,11.44,1.2,C0X290
鹿寮,23.386047,120.477331,0.06,27.62,-1.15,83.33,15.0,1.16,C0X300
柳營,23.253328,120.375253,-0.57,28.3,6.24,82.08,11.92,9.97,C0X320
明里,23.208717,121.262342,0.31,26.65,1.64,89.5,12.71,6.57,C0Z020
佳心,23.34567,121.21316,0.91,23.32,10.11,94.71,12.94,6.31,C0Z050
玉里,23.3215,121.339656,0.89,27.64,8.06,96.12,14.35,7.51,C0Z061
舞鶴,23.46811,121.37407,1.25,26.75,9.6,99.42,16.08,10.83,C0Z070
富源,23.587642,121.378225,0.77,26.77,-0.31,88.67,10.98,3.55,C0Z080
東華,23.89525,121.549833,0.63,27.98,3.29,88.88,4.06,-0.01,C0Z100
吉安光華,23.930925,121.595153,0.46,27.44,-2.22,85.17,13.12,9.11,C0Z150
鳳林,23.746114,121.453411,0.37,27.16,-0.61,82.54,8.0,1.84,C0Z160
卓溪,23.3443,121.3029,-0.07,27.36,-0.78,80.38,14.62,8.78,C0Z170
新城,24.040486,121.604878,0.39,27.67,15.96,98.71,9.42,4.64,C0Z180
富世,24.14743,121.6297,0.33,27.64,-2.7,85.04,11.23,5.02,C0Z190
萬榮,23.709219,121.420106,0.65,27.1,-2.16,83.71,10.69,4.96,C0Z200
瑞穗,23.5239,121.39021,0.91,27.57,1.29,86.5,12.0,7.15,C0Z210
和平林道,24.343922,121.656317,0.33,24.63,-3.29,88.04,9.08,5.84,C0Z220
和平,24.30717,121.77007,-0.65,26.87,-1.81,82.83,9.73,3.31,C0Z230
瑞穗林道,23.49284,121.30688,0.53,22.17,2.94,96.5,14.06,6.06,C0Z250
蕃薯寮,23.73835,121.540108,0.67,25.91,-2.87,89.08,7.75,0.93,C0Z270
德武,23.47426,121.41071,0.66,27.07,0.12,87.04,16.65,12.77,C0Z280
赤柯山,23.36893,121.38293,0.73,23.29,-0.82,89.29,15.92,11.63,C0Z290
東里,23.26853,121.30547,0.44,27.4,-3.21,84.0,16.83,13.36,C0Z300
清水斷崖,24.218294,121.689142,-0.13,26.99,-2.79,87.12,7.56,0.59,C0Z310
清水林道,23.27125,121.188272,0.22,24.52,0.02,84.62,12.02,6.99,C0Z320
安通山,23.290728,121.348528,0.24,25.65,3.96,89.04,16.42,12.66,C0Z330
口湖工作站,23.589978,120.180394,0.11,28.32,0.24,76.75,10.48,7.54,12J990
東港工作站,22.479997,120.466058,-0.19,29.1,1.1,69.83,12.08,9.18,12Q970
恆春工作站,22.079678,120.714425,-0.2,28.81,3.1,78.79,11.6,4.15,12Q980
萬大發電廠,23.978875,121.139639,0.74,22.68,-7.53,82.58,8.94,-1.26,42HA10
桃改樹林分場,24.944503,121.386972,-0.97,27.68,1.03,78.38,4.62,0.12,72AI40
桃園農改場,24.950944,121.030583,1.09,28.11,-0.49,82.25,1.38,-6.73,72C440
桃改五峰分場,24.612194,121.157167,1.07,22.68,1.21,89.46,5.05,-4.9,72D080
臺中農改場,24.003028,120.534389,0.58,28.31,4.45,87.21,9.08,-0.22,72G600
中改埔里分場,23.903208,120.963364,0.43,24.28,1.73,90.96,13.24,-3.96,72HA00
南改斗南分場,23.634556,120.477333,0.78,28.57,0.27,82.79,6.42,-4.36,72K220
南改義竹分場,23.360694,120.279361,0.18,28.23,-4.63,81.17,12.67,1.09,72M360
南改鹿草分場,23.416869,120.283061,0.02,28.45,3.35,83.96,9.65,2.89,72M700
臺南農改場,23.0605,120.342194,0.2,28.22,3.41,86.42,14.83,3.52,72N100
七股研究中心,23.081672,120.062894,0.16,29.11,1.54,82.96,16.67,11.39,72N240
高雄農改場,22.709333,120.525889,0.4,28.75,3.34,84.21,15.5,-1.12,72Q010
東改班鳩分場,22.829528,121.077694,0.48,26.59,0.76,84.17,8.37,0.52,72S200
東改賓朗果園,22.813889,121.071278,-5.44,20.22,2.67,92.65,10.44,3.36,72S590
花蓮農改場,23.975222,121.563889,1.03,27.65,-1.16,82.83,11.91,6.61,72T250
花改蘭陽分場,24.686306,121.716583,1.02,27.68,-1.98,84.08,5.25,-1.7,72U480
高改旗南分場,22.857861,120.516667,-0.56,28.22,6.09,82.71,2.24,-14.71,72V140
茶改北部分場,24.955778,121.631222,1.49,25.72,1.05,87.0,5.23,-8.87,82A750
茶改場,24.908472,121.185333,0.88,27.35,-4.66,78.67,2.9,-6.25,82C160
茶改中部分場,23.875611,120.913583,0.07,23.26,1.89,90.93,19.54,3.19,82H320
茶改南部分場,23.762528,120.7405,-0.16,25.42,0.07,88.46,17.5,2.51,82H840
茶改東部分場,22.907694,121.130139,0.21,27.11,2.99,85.12,11.88,4.22,82S580
農工中心,24.985917,121.239833,1.22,28.22,1.15,76.38,2.12,-5.84,A2C560
水試臺西試驗場,23.717231,120.190522,0.25,28.6,2.19,87.25,11.02,4.15,A2K360
臺大雲林校區,23.730628,120.423903,-0.31,28.13,3.23,82.96,9.38,6.89,A2K630
臺南蘭花園區,23.340258,120.379661,-0.15,28.14,4.3,85.38,11.69,9.15,A2N290
畜試北區分所,24.527806,120.770972,2.1,29.23,-3.66,78.25,2.72,-5.53,B2E890
畜產試驗所,23.058972,120.336406,0.05,27.88,1.54,85.88,15.56,0.69,B2N890
畜試南區分所,21.945583,120.802167,-0.07,28.1,-2.01,81.92,13.29,3.71,B2Q810
畜試東區分所,24.669039,121.832561,-0.2,27.74,7.22,90.83,6.12,3.22,B2U990
蓮華池,23.918333,120.885278,-0.69,24.15,5.68,89.12,17.02,-0.32,E2H360
林試畢祿溪站,24.226944,121.308522,-0.09,15.71,12.75,90.71,9.35,9.17,E2HA20
四湖植物園,23.676986,120.163433,0.14,28.42,9.6,94.83,13.08,6.4,E2K600
林試六龜中心,22.991703,120.645722,-0.69,26.47,11.01,87.62,19.94,17.92,E2P980
林試太麻里2,22.598,120.99775,-0.36,28.2,3.63,80.21,0.57,-1.89,E2S960
林試太麻里1,22.598922,120.980044,-0.22,27.86,5.1,82.25,12.21,9.23,E2S980
農試所(霧峰),24.031261,120.688133,1.08,28.7,-1.08,81.65,8.21,-3.23,G2F820
農試嘉義分所,23.485028,120.473806,0.11,27.86,1.39,81.67,15.75,6.11,G2L020
農試溪口農場,23.58565,120.408111,0.98,28.5,0.2,81.67,7.33,2.29,G2M350
農試鳳山分所,22.646611,120.356083,0.05,28.75,2.14,80.33,14.56,0.94,G2P820
苗栗農改場,24.495722,120.829111,0.42,27.85,-0.99,77.88,3.06,-6.49,K2E360
苗改生物防治研究中心,24.422861,120.871833,0.11,26.26,0.14,81.71,6.21,-3.55,K2E710
種苗改良場,24.225972,120.800917,0.74,26.11,5.46,87.33,8.15,-7.23,K2F750
臺大和社,23.590856,120.888864,1.26,23.96,2.59,89.25,9.12,-1.48,U2HA30
臺大內茅埔,23.689722,120.851117,0.49,25.11,1.56,86.54,7.29,-3.9,U2HA40
臺大竹山,23.756972,120.681556,0.18,27.52,1.01,82.0,13.6,0.39,U2HA50
