站名,緯度,經度,平均溫距平,本年度平均溫,平均溼度距平,本年度日均相對溼度,本年度日均降水量,日均降水量距平,站號
淡水,25.164889,121.448906,0.27,25.19,1.13,80.07,7.49,-0.88,466900
鞍部,25.182586,121.529731,-0.16,19.57,4.19,91.57,8.89,-2.63,466910
臺北,25.037658,121.514853,0.41,26.18,-0.88,74.04,12.01,3.77,466920
竹子湖,25.162078,121.544547,0.11,21.42,2.4,86.68,9.27,-0.12,466930
基隆,25.133314,121.740475,0.47,25.34,1.16,78.0,11.43,1.48,466940
花蓮,23.975128,121.613275,0.01,25.34,2.08,82.25,8.41,2.17,466990
新屋,25.006725,121.047492,0.08,25.29,-1.4,82.04,10.24,0.23,467050
宜蘭,24.763975,121.756528,0.04,24.85,2.58,84.21,5.18,-2.7,467080
金門,24.407306,118.289281,1.01,24.26,2.95,86.18,2.98,-2.97,467110
田中,23.873803,120.581286,-0.41,26.9,-7.39,76.61,3.52,-9.66,467270
澎湖,23.565503,119.563094,0.53,26.5,-1.72,81.14,0.83,-3.35,467350
臺南,22.99328,120.20492,0.6,28.27,-4.02,70.82,1.28,-4.28,467410
永康,23.038386,120.2367,0.95,28.28,-0.98,71.79,1.69,-3.95,467420
嘉義,23.495925,120.432906,0.45,27.02,-0.61,78.18,1.78,-3.78,467480
臺中,24.145736,120.684075,0.38,26.96,-1.81,73.29,5.14,-3.66,467490
阿里山,23.508208,120.813242,-0.15,13.13,-0.12,89.71,6.99,-9.75,467530
大武,22.35572,120.90374,0.54,27.34,-1.55,75.11,1.21,-4.19,467540
玉山,23.48718,120.95943,0.41,6.44,-0.19,81.21,6.41,-6.7,467550
新竹,24.827853,121.014219,0.51,26.0,-1.07,76.21,8.97,0.92,467571
恆春,22.003897,120.746339,0.93,28.4,-1.98,73.46,0.84,-4.18,467590
成功,23.097486,121.373428,0.28,25.8,2.36,83.61,7.09,1.86,467610
日月潭,23.881325,120.90805,0.33,21.49,4.08,88.5,8.29,-3.76,467650
臺東,22.752211,121.154586,0.33,26.85,1.13,78.71,5.32,0.54,467660
馬祖,26.169467,119.923158,1.24,22.41,3.02,89.79,4.37,-0.31,467990
山佳,24.974944,121.402008,0.74,26.12,-4.35,76.43,8.98,2.22,C0A520
坪林,24.938183,121.70975,1.29,23.86,-3.62,88.14,11.91,2.74,C0A530
泰平,24.971197,121.823711,0.33,21.77,-0.77,94.25,12.75,1.64,C0A550
桶後,24.848222,121.597992,0.54,22.69,-4.82,88.0,9.18,-0.88,C0A570
石碇,24.993969,121.662917,0.61,23.52,-4.99,85.29,13.77,2.5,C0A640
大坪,25.165914,121.632969,1.03,23.41,-2.92,87.61,14.38,1.51,C0A860
五指山,25.132153,121.608692,1.55,21.91,-3.58,90.71,11.34,2.0,C0A870
雙溪,25.036003,121.864242,0.95,24.65,-3.43,86.96,13.86,4.34,C0A890
三和,25.233153,121.595236,0.1,23.24,-3.95,87.75,15.14,-0.43,C0A931
金山,25.223628,121.643967,0.36,24.38,-5.15,81.43,12.98,3.1,C0A940
鼻頭角,25.129036,121.923372,1.29,25.39,-4.66,84.32,6.41,1.82,C0A950
三貂角,25.007606,122.002058,0.92,24.79,3.22,86.25,9.04,1.23,C0A970
社子,25.109508,121.469681,1.1,26.72,-1.18,79.04,8.41,1.35,C0A980
天母,25.117494,121.537169,0.16,25.74,-4.98,71.93,8.39,1.46,C0A9C0
內湖,25.079422,121.57545,0.95,26.65,-2.76,75.75,10.7,3.35,C0A9F0
大屯山,25.175675,121.522408,1.6,20.03,2.04,96.18,9.41,-0.58,C0AC40
三峽,24.939025,121.369728,1.47,26.88,-3.58,78.11,9.41,0.03,C0AC60
信義,25.037822,121.564597,2.01,27.27,-3.91,77.86,11.88,1.97,C0AC70
文山,25.00235,121.575728,0.03,24.9,-4.62,79.32,11.91,1.82,C0AC80
新莊,25.051478,121.446756,0.19,26.13,-2.58,73.43,10.09,0.66,C0ACA0
八里,25.150211,121.403947,1.31,26.73,4.5,84.29,7.95,-1.78,C0AD10
蘆洲,25.086594,121.472331,0.82,26.91,-2.55,74.71,8.52,-0.17,C0AD30
土城,24.973208,121.445169,0.2,25.28,-1.83,80.11,12.14,3.06,C0AD40
鶯歌,24.951533,121.346294,1.4,26.65,-3.99,80.0,8.84,0.15,C0AD50
汐止,25.066881,121.658778,0.15,25.2,-5.96,79.14,11.7,1.42,C0AH00
永和,25.01125,121.508111,1.01,26.79,-1.44,75.75,11.48,1.9,C0AH10
五分山,25.07125,121.780794,1.65,21.66,-3.49,92.5,13.04,3.23,C0AH30
平等,25.129142,121.577086,-0.1,23.01,-5.79,81.54,8.59,1.18,C0AH40
林口,25.072181,121.38084,1.57,25.59,-3.88,82.42,9.12,2.28,C0AH50
松山,25.04871,121.55042,0.2,26.25,2.42,72.07,10.79,1.98,C0AH70
深坑,25.002703,121.628328,0.9,25.46,-1.47,82.5,12.64,4.01,C0AH80
福山植物園,24.760717,121.58135,-0.3,20.3,0.8,93.93,8.02,-3.19,C0AH90
五股,25.07445,121.42728,-0.15,24.03,-7.75,81.25,9.71,-1.85,C0AI00
屈尺,24.92184,121.54475,0.81,25.78,-0.88,83.11,13.25,2.22,C0AI10
白沙灣,25.283128,121.519058,0.81,24.88,2.5,83.36,7.23,-4.59,C0AI20
三重,25.057328,121.500629,0.16,26.62,-6.07,80.89,8.89,-2.4,C0AI30
石牌,25.115597,121.513139,1.16,27.13,1.71,75.14,7.46,-3.44,C0AI40
七堵,25.094819,121.71713,1.69,26.01,-6.06,82.36,11.48,-3.1,C0B010
基隆嶼,25.19141,121.78391,0.75,24.49,1.95,92.64,8.5,0.16,C0B020
復興,24.820208,121.352281,0.34,22.61,-4.19,81.82,10.32,-0.14,C0C460
桃園,24.992425,121.323172,0.67,26.01,-1.33,72.86,9.41,1.1,C0C480
八德,24.928708,121.283289,0.2,25.3,-7.09,73.71,9.88,0.51,C0C490
觀音,25.027072,121.153317,0.01,24.46,5.91,87.11,11.11,2.07,C0C590
蘆竹,25.084275,121.265767,0.31,25.52,-2.6,79.29,8.46,-0.32,C0C620
大溪,24.882853,121.265547,0.51,24.42,-1.25,77.46,10.05,2.46,C0C630
平鎮,24.897503,121.214636,0.77,24.59,-2.52,78.18,11.9,4.11,C0C650
楊梅,24.912375,121.143047,0.11,24.97,-1.29,77.07,10.52,0.85,C0C660
龍潭,24.870056,121.221389,0.44,24.41,-2.42,78.18,9.95,0.18,C0C670
龜山,25.02846,121.38656,-0.67,23.35,-3.82,76.54,9.59,1.14,C0C680
中壢,24.977661,121.256375,0.16,25.3,-3.53,73.64,7.93,-1.18,C0C700
大溪永福,24.892936,121.324975,1.12,24.64,-5.24,81.68,10.8,-2.64,C0C710
梅花,24.678347,121.208558,0.01,22.16,-0.26,88.14,9.57,-0.41,C0D360
峨眉,24.6905,121.017189,-0.12,24.57,0.44,88.39,9.39,-0.66,C0D430
打鐵坑,24.849664,121.150789,0.05,23.3,-3.29,82.89,7.48,-0.9,C0D480
橫山,24.71116,121.11693,-0.18,23.43,9.47,95.46,6.98,-2.21,C0D540
雪霸,24.526972,121.11605,-0.01,16.13,-2.88,83.21,15.3,4.92,C0D550
竹東,24.767147,121.057881,1.37,25.76,-15.84,60.82,8.52,0.72,C0D560
寶山,24.735006,121.025192,0.15,23.99,0.46,85.96,9.95,1.19,C0D580
新豐,24.87068,120.97721,0.23,24.44,4.43,87.29,10.59,2.12,C0D590
湖口,24.904794,121.043628,0.24,25.3,-6.86,75.86,9.61,0.94,C0D650
新竹市東區,24.798681,120.986942,-0.11,25.36,-1.48,76.04,9.36,0.58,C0D660
竹南,24.708978,120.888897,1.21,26.41,1.35,81.89,5.15,-2.55,C0E420
南庄,24.601775,121.000214,-0.09,23.56,0.93,86.5,11.79,2.46,C0E430
明德,24.583486,120.885411,0.47,25.61,-3.98,80.57,7.71,-1.73,C0E550
通霄,24.471892,120.704622,-0.06,25.47,-1.9,82.71,6.89,-2.08,C0E590
馬都安,24.451272,120.930192,0.25,21.8,2.9,84.79,9.27,0.88,C0E610
頭份,24.688247,120.912206,1.22,26.9,-0.61,75.68,8.3,0.18,C0E730
造橋,24.637056,120.864778,-0.31,25.5,-3.1,81.07,7.41,-2.64,C0E740
苗栗,24.564569,120.824575,-0.16,26.01,-5.53,72.21,7.5,-2.38,C0E750
銅鑼,24.489681,120.790853,-0.13,25.34,-5.17,77.96,7.82,-1.48,C0E780
西湖,24.562947,120.7485,-0.03,25.08,-2.6,85.36,3.5,-5.86,C0E810
獅潭,24.539133,120.920042,-0.36,24.27,-4.36,82.3,11.48,0.57,C0E820
苑裡,24.439714,120.653053,-0.19,25.82,-3.51,78.0,5.32,-3.62,C0E830
大河,24.618069,120.948578,-1.83,23.08,-2.22,82.82,8.89,0.09,C0E850
高鐵苗栗,24.60725,120.826094,-0.25,25.59,4.21,84.0,7.0,0.22,C0E870
石岡,24.276061,120.777644,0.53,25.42,2.86,86.93,7.55,-1.87,C0F0B0
中坑,24.248517,120.903319,-0.87,20.35,-4.9,87.36,13.66,-2.76,C0F0C0
審馬陣,24.381675,121.4203,-0.24,9.62,-6.83,78.54,6.45,-0.69,C0F0D0
東勢,24.246428,120.833047,1.18,25.91,-5.63,76.36,9.04,-5.6,C0F850
大坑,24.173142,120.722289,1.02,27.49,-2.34,75.25,5.5,-6.68,C0F970
神岡,24.272481,120.658314,0.03,25.48,-8.41,76.61,5.93,-3.56,C0F9I0
大安,24.345061,120.588025,-0.36,25.7,-3.65,80.79,4.11,-3.82,C0F9K0
后里,24.310436,120.729725,0.49,26.09,-7.01,76.86,5.77,-4.89,C0F9L0
豐原,24.254322,120.720692,1.43,27.3,-7.52,73.0,8.16,-3.86,C0F9M0
大里,24.092464,120.701378,0.04,27.4,4.51,80.62,7.82,-3.47,C0F9N0
潭子,24.213106,120.703933,0.23,27.0,0.53,78.75,5.8,-6.12,C0F9O0
清水,24.312297,120.562242,-0.15,26.22,-5.32,79.07,3.59,-4.07,C0F9P0
外埔,24.347817,120.705686,-0.05,25.43,-4.27,82.18,5.04,-4.36,C0F9Q0
龍井,24.184536,120.528972,0.13,26.63,-10.68,76.79,2.66,-5.77,C0F9R0
烏日,24.107058,120.624103,0.06,26.95,-4.76,72.57,4.88,-4.1,C0F9S0
西屯,24.179494,120.641275,0.07,26.8,-6.18,72.14,3.2,-7.47,C0F9T0
南屯,24.137006,120.637969,-0.14,27.07,-4.54,72.14,4.64,-5.37,C0F9U0
新社,24.200172,120.815806,0.34,24.18,-6.15,79.39,10.79,-5.06,C0F9V0
大雅(中科園區),24.21528,120.62445,-0.27,25.69,-1.73,77.89,5.2,-1.04,C0F9X0
桃山,24.432739,121.303808,0.0,9.08,-5.15,77.61,8.59,-3.23,C0F9Y0
雪山東峰,24.388792,121.268675,-0.11,9.78,-5.07,76.96,9.5,-0.03,C0F9Z0
芬園,24.015678,120.6213,-0.48,25.49,2.86,86.21,7.93,-1.1,C0G620
員林,23.946503,120.585597,2.19,28.87,-9.14,74.5,5.07,-1.39,C0G650
溪湖,23.94835,120.479122,0.3,26.81,3.29,90.88,8.09,0.51,C0G660
溪州,23.851589,120.499093,0.27,26.65,-8.09,74.14,2.59,-2.17,C0G720
二林,23.903325,120.376081,0.19,26.34,-2.97,85.29,5.32,1.44,C0G730
大城,23.852487,120.320935,0.22,26.37,-2.3,79.37,3.45,-0.82,C0G740
福興,24.041289,120.437669,0.2,27.26,-7.88,75.54,2.8,-4.77,C0G770
秀水,24.03405,120.503869,0.53,27.33,-4.66,78.93,3.89,-3.13,C0G780
埔鹽,24.000394,120.431683,1.75,28.03,-5.1,81.77,2.48,-4.49,C0G800
埔心,23.947633,120.525456,2.33,29.3,-10.68,72.92,10.53,1.91,C0G810
田尾,23.901669,120.509389,0.47,27.22,-1.58,83.61,3.61,-4.96,C0G820
埤頭,23.866003,120.452806,0.24,26.65,-2.99,86.57,2.59,-5.73,C0G830
社頭,23.897647,120.5862,0.56,27.87,2.41,80.04,3.54,-5.13,C0G860
二水,23.810742,120.6173,1.84,28.63,-4.39,78.82,3.64,-4.9,C0G880
伸港,24.148933,120.484403,-0.09,26.48,-7.11,76.96,2.07,-5.67,C0G890
線西,24.143358,120.443536,-0.86,26.52,-5.09,78.43,1.86,-5.11,C0G900
花壇,24.032076,120.549461,0.99,28.31,2.41,82.96,4.92,-2.87,C0G910
埔里,23.972169,120.952425,0.15,24.87,-2.07,81.29,7.88,-4.59,C0H890
草屯,23.973672,120.68085,-0.07,26.54,-4.12,74.86,6.5,-2.79,C0H960
昆陽,24.121322,121.273642,0.06,9.29,-5.11,83.68,10.38,-1.17,C0H990
神木村,23.532742,120.843667,0.37,18.22,-2.14,89.18,7.36,-5.44,C0H9A0
合歡山,24.143442,121.272547,0.87,8.71,-3.59,85.79,16.14,-5.97,C0H9C0
廬山,24.033311,121.181808,0.35,18.61,-3.63,82.57,11.34,-2.46,C0I010
信義,23.689694,120.851036,0.01,23.81,-3.59,82.43,6.59,-3.86,C0I080
竹山,23.761225,120.688156,0.5,26.17,-4.45,80.89,3.41,-4.06,C0I110
水里,23.812553,120.849792,0.19,25.31,-4.45,77.93,6.82,-3.39,C0I360
魚池,23.895703,120.94135,0.24,23.51,-6.12,80.79,8.54,-3.65,C0I370
集集,23.828206,120.801467,-0.07,25.67,-3.16,80.43,8.93,0.47,C0I380
仁愛,24.022122,121.132206,0.33,20.47,-6.49,82.25,10.12,-6.74,C0I390
名間,23.837053,120.701447,-0.28,25.69,-1.12,79.29,3.57,-2.45,C0I410
國姓,24.037803,120.855072,-0.16,25.25,-3.93,80.82,10.91,-1.45,C0I420
南投,23.911469,120.687331,-0.18,26.79,1.52,79.18,3.43,-3.26,C0I460
梅峰,24.085272,121.173572,0.07,14.6,-2.58,88.32,11.45,-6.17,C0I480
萬大林道,23.928228,121.091411,0.36,18.32,-7.61,83.21,16.38,1.72,C0I490
小奇萊,24.131764,121.295717,-0.23,9.22,-3.36,85.04,15.12,-9.13,C0I530
崙背,23.75555,120.318925,-0.14,26.06,-3.67,81.21,2.23,-2.13,C0K250
四湖,23.630414,120.227125,0.71,27.07,-5.89,77.29,1.5,-3.0,C0K280
宜梧,23.536281,120.169329,0.51,27.03,-5.09,77.96,0.93,-4.6,C0K291
虎尾,23.719183,120.442036,0.66,27.3,-0.1,79.04,1.93,-3.17,C0K330
土庫,23.679029,120.395574,0.32,26.81,-8.25,75.0,1.11,-2.79,C0K390
斗六,23.720583,120.541127,0.13,26.84,-7.29,73.79,2.11,-3.02,C0K400
北港,23.573957,120.292802,0.34,26.98,-7.28,74.96,1.2,-3.64,C0K410
西螺,23.800407,120.467394,0.22,26.86,-6.18,76.07,1.79,-4.17,C0K420
褒忠,23.690938,120.303634,0.35,26.59,-6.59,77.61,1.57,-3.63,C0K430
二崙,23.772797,120.408944,0.17,26.54,-1.79,81.61,1.55,-2.31,C0K440
大埤,23.646074,120.431537,0.31,26.98,-6.34,75.68,1.43,-2.44,C0K450
斗南,23.678734,120.478359,0.31,26.93,-2.83,75.89,1.77,-2.55,C0K460
林內,23.748675,120.609642,0.1,26.24,-5.62,78.0,3.38,-2.54,C0K470
莿桐,23.761192,120.502372,0.13,26.51,-7.18,76.32,2.12,-2.96,C0K480
元長,23.64981,120.315024,0.38,26.99,-2.71,77.11,1.29,-2.7,C0K500
水林,23.572924,120.24597,0.58,27.26,-4.78,76.5,1.2,-3.12,C0K510
臺西,23.701547,120.197559,0.11,26.48,-2.02,79.5,1.64,-2.91,C0K530
蔦松,23.514319,120.229736,0.35,27.14,-3.56,78.18,1.21,-3.09,C0K550
棋山,23.68645,120.603417,0.2,26.54,-0.8,80.71,2.23,-3.7,C0K560
高鐵雲林,23.737456,120.417944,-0.17,26.5,-5.72,79.25,1.32,-5.59,C0K580
東後寮,23.369908,120.248065,0.38,26.92,-4.09,79.32,1.61,-2.85,C0M520
奮起湖,23.493903,120.699253,0.49,19.23,-0.22,92.11,6.08,-9.35,C0M530
中埔,23.42538,120.5229,0.26,26.62,-6.24,73.86,1.84,-4.19,C0M640
朴子,23.43463,120.23902,-0.25,26.36,-1.96,80.14,2.75,-1.29,C0M650
溪口,23.604131,120.403569,0.32,26.75,-6.93,76.39,1.79,-3.27,C0M660
大林,23.600616,120.45841,0.35,27.31,-5.48,72.96,2.09,-2.49,C0M670
太保,23.455062,120.331455,0.06,27.02,-6.56,75.43,4.2,-0.46,C0M680
水上,23.419734,120.388909,0.27,26.94,-4.22,77.04,2.27,-2.87,C0M690
竹崎,23.526178,120.555508,0.27,26.42,-4.82,78.14,2.96,-4.48,C0M700
東石,23.458927,120.15385,0.3,27.12,-7.68,75.07,1.11,-4.16,C0M710
番路,23.464657,120.554156,0.42,26.27,-3.66,76.93,1.54,-6.29,C0M720
嘉義市東區,23.457673,120.460531,0.37,27.91,-1.97,74.0,2.45,-3.29,C0M730
六腳,23.492871,120.290625,0.31,27.0,-3.01,76.14,3.32,-2.21,C0M740
布袋,23.380878,120.167789,0.38,27.3,-7.22,74.54,1.57,-2.48,C0M750
民雄,23.551754,120.428457,0.21,27.23,-5.64,74.32,2.02,-2.19,C0M760
嘉義梅山,23.585398,120.555587,0.29,26.56,-4.78,77.11,2.05,-4.47,C0M770
鹿草,23.41134,120.30835,0.53,27.41,-4.91,75.54,3.04,-2.17,C0M780
新港,23.553269,120.345728,0.22,27.15,-4.86,74.82,1.93,-2.19,C0M790
茶山,23.299075,120.664767,0.55,25.16,-4.59,79.54,5.62,-4.84,C0M800
里佳,23.389125,120.716647,0.36,19.69,-4.14,85.04,9.39,-5.95,C0M810
達邦,23.453994,120.749517,0.49,21.81,-0.98,82.75,6.73,-5.94,C0M820
表湖,23.24186,120.64166,0.22,23.49,-5.53,82.04,2.75,-12.03,C0M850
新美,23.338017,120.683169,0.6,24.69,-1.22,79.75,6.77,-12.8,C0M860
北寮,23.079561,120.495008,0.76,27.28,0.74,83.61,2.2,-6.83,C0O830
王爺宮,23.222064,120.40085,2.71,29.0,-10.54,73.39,1.18,-6.01,C0O840
大內,23.11885,120.36083,1.46,28.85,-2.01,80.75,0.98,-6.18,C0O860
善化,23.112883,120.297219,0.87,27.69,1.14,85.54,1.09,-4.05,C0O900
崎頂,22.959547,120.369317,1.64,28.1,-4.21,78.5,2.0,-6.03,C0O960
虎頭埤,23.021375,120.347878,0.6,27.3,-5.87,76.82,1.7,-5.45,C0O970
新市,23.061614,120.298197,1.37,28.59,-8.65,76.07,1.75,-5.25,C0O980
媽廟,22.99175,120.293525,0.42,27.61,-13.26,69.83,1.75,-6.05,C0O990
尾寮山,22.833111,120.683889,1.44,22.23,-0.91,90.39,12.48,-4.51,C0R100
阿禮,22.742908,120.743678,0.26,21.5,-6.16,82.39,12.16,-1.93,C0R130
瑪家,22.682903,120.686639,0.23,23.21,4.57,91.0,3.3,-12.61,C0R140
三地門,22.709889,120.639944,1.59,28.78,-9.45,68.46,1.88,-9.02,C0R150
鹽埔,22.739558,120.530778,0.91,28.15,-5.3,81.32,3.07,-5.71,C0R160
赤山,22.592333,120.614306,1.26,28.58,-2.69,80.61,1.09,-9.21,C0R190
潮州,22.534361,120.54,1.59,28.96,-8.13,71.89,0.66,-6.94,C0R220
來義,22.527306,120.625111,0.71,27.51,-1.91,78.89,0.27,-10.85,C0R240
春日,22.370361,120.628306,-0.29,27.09,-2.59,76.46,0.59,-7.5,C0R260
琉球嶼,22.332244,120.362236,1.43,28.69,-11.67,72.79,0.62,-4.5,C0R270
車城,22.0744,120.716247,0.49,28.31,-5.83,75.82,0.43,-11.23,C0R320
牡丹,22.130036,120.792639,0.22,26.14,0.58,85.68,0.34,-16.42,C0R341
貓鼻頭,21.921774,120.7358,1.06,27.98,-9.14,76.86,1.0,-3.5,C0R350
大漢山,22.405264,120.753181,-0.08,17.21,-0.84,94.5,2.45,-43.11,C0R440
高樹,22.826389,120.600806,0.75,28.24,-5.06,72.07,2.59,-6.96,C0R470
長治,22.693128,120.542622,1.76,29.41,-10.01,71.57,2.52,-6.05,C0R480
九如,22.7405,120.490503,1.54,29.08,-8.83,73.86,2.02,-6.44,C0R490
崁頂,22.514781,120.506914,0.77,28.34,-7.77,75.54,0.05,-8.6,C0R520
佳冬,22.419456,120.552375,0.74,28.25,-5.45,76.29,0.21,-7.88,C0R540
新埤,22.467947,120.582894,0.89,28.25,-11.36,71.5,0.2,-8.18,C0R550
新園,22.5434,120.461558,1.82,29.36,-12.36,70.36,2.57,-6.58,C0R560
麟洛,22.65078,120.52719,2.04,29.77,-3.68,75.79,1.77,-6.05,C0R570
南州,22.48591,120.50274,0.63,28.0,-2.09,79.5,0.43,-7.94,C0R580
里港,22.77919,120.49459,0.93,28.32,-3.83,76.82,1.93,-6.53,C0R590
舊泰武,22.588194,120.664944,0.81,23.75,-4.18,82.96,0.91,-15.18,C0R600
墾雷,21.900836,120.855269,0.51,27.49,3.57,86.68,0.64,-3.7,C0R620
東港,22.46247,120.44074,1.27,28.46,-11.93,74.57,0.79,-14.9,C0R640
竹田,22.58486,120.54344,1.34,28.64,-13.32,74.21,1.38,-16.25,C0R650
枋寮,22.367722,120.590647,0.61,28.0,-1.5,81.57,0.66,-22.63,C0R660
楓港,22.190131,120.692156,-0.01,27.62,-8.9,72.0,0.21,-25.85,C0R670
佳樂水,21.993578,120.861633,0.08,27.69,-4.71,78.32,0.64,-7.67,C0R680
墾丁,21.966756,120.810269,0.59,26.2,-7.45,82.82,0.5,-8.62,C0R690
枋山,22.246844,120.661086,0.84,28.23,-7.92,73.18,0.12,-25.96,C0R700
龍磐,21.931672,120.838942,0.34,27.11,-5.86,82.04,0.34,-7.11,C0R710
旭海,22.205403,120.887614,0.13,25.98,-5.87,80.96,1.69,-15.02,C0R720
大坪頂,22.024633,120.69355,0.38,27.16,-0.04,84.82,0.68,-6.22,C0R730
四林格山,22.076989,120.802439,0.22,23.74,-5.58,90.14,1.59,-10.88,C0R750
南仁湖,22.084681,120.863353,-0.26,24.6,3.34,92.89,2.84,-10.32,C0R760
保力,22.071122,120.764111,0.53,26.95,-5.56,79.82,0.8,-10.02,C0R770
滿州,22.024403,120.839892,0.03,27.06,-4.64,78.43,0.75,-7.61,C0R780
九棚,22.14195,120.889281,0.22,27.15,-4.39,77.75,1.7,-12.48,C0R790
丹路,22.204481,120.750989,0.75,27.42,-7.55,75.04,0.3,-28.59,C0R800
內獅,22.305064,120.642986,0.92,28.42,10.55,90.86,0.12,-25.74,C0R810
白鷺,22.454275,120.666219,0.92,25.33,-5.51,79.11,0.45,-29.5,C0R820
高士,22.121825,120.836781,-0.07,24.62,-2.66,85.96,1.55,-13.17,C0R830
牡丹池山,22.168389,120.841225,-0.22,23.58,-1.8,89.75,0.89,-17.92,C0R840
下馬,23.150427,121.070312,-0.12,22.22,0.61,86.64,2.34,-1.54,C0S660
太麻里,22.60902,120.98533,0.71,23.3,-0.75,90.29,1.54,-3.4,C0S690
知本,22.684866,121.005642,0.81,23.55,-0.87,90.86,3.45,-3.17,C0S700
鹿野,22.917711,121.122994,0.85,24.0,-1.2,88.25,0.91,-4.14,C0S710
綠島,22.6672,121.47533,1.0,26.47,-8.9,82.79,4.48,-0.75,C0S730
池上,23.119628,121.209469,0.43,24.31,-1.56,87.86,1.55,-2.09,C0S740
向陽,23.248397,120.986133,1.05,14.93,0.6,86.91,5.98,-4.18,C0S750
大溪山,22.478475,120.943325,0.51,23.91,-2.45,88.86,2.27,-3.96,C0S770
金崙,22.538122,120.966875,0.86,26.31,-5.09,80.25,0.5,-4.59,C0S790
東河,22.972672,121.303986,-0.12,26.22,-3.46,85.61,4.61,-0.43,C0S810
長濱,23.286817,121.411975,0.48,24.96,-5.65,85.04,3.66,-1.69,C0S830
南田,22.279725,120.889208,0.91,27.52,-11.75,74.25,1.89,-3.88,C0S840
關山,23.0395,121.175017,-0.02,25.07,-1.54,86.32,2.45,-1.65,C0S890
蘭嶼高中,22.04909,121.51214,0.6,27.57,4.48,84.96,5.57,-1.39,C0S900
蘭嶼燈塔,22.081197,121.503117,0.84,26.15,5.0,90.18,2.61,-4.37,C0S910
金峰嘉蘭,22.594789,120.960825,-0.15,26.29,-2.64,81.43,0.84,-6.25,C0S920
延平,22.902581,121.084058,-0.34,24.89,-1.29,83.5,0.8,-4.95,C0S930
石寧山,23.223772,121.406639,0.06,25.67,-4.33,86.39,6.16,-0.1,C0S940
七塊厝,22.954453,121.229922,0.62,24.73,-9.76,82.27,15.2,9.03,C0S950
香蘭,22.587569,120.993375,0.24,27.04,1.22,83.36,0.91,-6.19,C0S960
加津林,22.416211,120.926942,0.14,26.9,-3.82,78.36,2.43,-7.35,C0S970
勝林山,22.430439,120.8938,-1.1,21.24,-0.31,91.14,1.86,-9.71,C0S980
山豬窟,22.318619,120.857372,-0.18,24.87,-4.14,82.04,2.14,-10.9,C0S990
歷坵,22.520969,120.89185,0.12,24.02,-4.24,87.11,0.73,-8.79,C0SA00
檳榔四格山,22.810031,121.109308,-0.5,23.79,0.7,91.32,1.75,-6.58,C0SA10
金崙山,22.567419,120.959667,-0.17,21.71,-2.5,90.39,1.75,-6.63,C0SA20
都歷,23.020333,121.323642,0.21,25.84,-8.52,78.55,1.5,-4.79,C0SA30
瑞和,22.974361,121.156697,-0.35,25.04,-4.07,82.68,1.84,-3.87,C0SA40
知本（水試所）,22.702394,121.082761,-0.05,26.61,-2.64,82.39,2.88,-4.66,C0SA60
土坂,22.453108,120.887572,0.59,26.38,-2.67,81.61,0.75,-12.03,C0SA80
達仁林場,22.264347,120.823972,0.05,24.19,-2.75,85.14,2.32,-24.14,C0SA90
大禹嶺,24.186117,121.316086,-0.08,11.67,-4.92,80.07,9.05,0.61,C0T790
天祥,24.179597,121.495639,0.29,22.15,0.3,84.68,3.2,-1.14,C0T820
鯉魚潭,23.935639,121.508944,-0.22,23.26,0.59,91.25,6.95,-0.15,C0T870
西林,23.8119,121.441458,0.47,24.4,5.27,87.57,10.46,4.4,C0T900
光復,23.660694,121.424964,0.63,24.91,-2.64,86.79,14.09,7.62,C0T960
月眉山,23.809928,121.539828,0.57,22.54,-1.68,92.96,2.54,-3.41,C0T9A0
水源,23.991861,121.537169,0.38,21.95,-1.33,91.0,11.75,3.28,C0T9B0
和中,24.26676,121.74103,-0.09,24.73,9.53,99.71,20.07,11.42,C0T9D0
大坑,23.880628,121.581981,0.38,22.87,1.57,92.54,8.29,0.67,C0T9E0
水璉,23.797131,121.542514,-0.03,24.08,1.47,90.04,6.7,0.36,C0T9F0
鳳林山,23.735269,121.420131,-0.55,21.96,-1.52,92.64,11.84,3.77,C0T9G0
加路蘭山,23.682947,121.5274,0.6,21.94,4.25,98.61,8.8,0.24,C0T9H0
豐濱,23.583897,121.514806,0.63,24.47,-5.6,86.0,15.0,6.46,C0T9I0
靜浦,23.455167,121.495028,0.42,25.04,-1.01,90.71,12.41,6.25,C0T9M0
富里,23.171639,121.249378,0.14,25.05,10.58,98.68,3.98,-3.16,C0T9N0
雙連埤,24.753033,121.641303,-0.31,20.9,-2.8,92.18,8.14,-2.59,C0U520
礁溪,24.817539,121.765608,0.28,24.79,-4.56,83.04,6.27,-3.11,C0U600
玉蘭,24.675286,121.587061,0.53,22.66,-4.42,83.29,8.16,-1.4,C0U650
太平山,24.505486,121.525656,0.08,15.43,-0.77,92.11,7.52,-0.67,C0U710
南山,24.43742,121.38167,-0.29,18.91,-6.79,86.68,5.25,-1.16,C0U720
龜山島,24.841667,121.953133,-0.48,22.12,-4.64,89.54,6.21,1.76,C0U750
東澳,24.52196,121.83318,-0.23,24.59,-2.91,86.0,9.25,-0.31,C0U760
南澳,24.44935,121.81022,-0.3,24.78,-0.47,85.68,4.21,-2.96,C0U770
五結,24.68637,121.79794,-0.21,24.64,-1.82,83.82,4.28,-3.23,C0U780
頭城,24.85323,121.8308,-0.12,24.93,-1.07,86.89,6.11,-1.79,C0U860
大礁溪,24.791042,121.675047,-0.07,22.16,2.09,91.25,7.79,-1.5,C0U870
三星,24.66812,121.65302,-0.19,24.1,-7.88,81.79,5.3,-2.09,C0U890
內城,24.71813,121.68766,0.3,24.71,-4.44,84.46,5.07,-1.69,C0U900
冬山,24.63373,121.7937,0.15,25.05,-2.1,80.36,6.23,0.78,C0U910
羅東,24.68184,121.74934,0.37,25.05,-1.93,83.68,6.5,-0.16,C0U940
鶯子嶺,24.89754,121.79244,0.14,18.95,-7.79,89.5,10.96,-0.17,C0U950
翠峰湖,24.510856,121.608044,-0.21,14.78,0.56,94.36,8.84,-0.36,C0U960
大福,24.80064,121.81389,-0.46,24.35,0.27,84.5,5.07,-2.42,C0U970
坪林石牌,24.86478,121.77396,0.07,21.27,2.07,93.75,9.77,-0.04,C0U980
員山,24.74435,121.72247,-0.09,24.74,0.56,85.61,5.16,-1.72,C0U990
土場,24.576533,121.495333,-0.44,22.8,-3.51,84.86,5.25,-1.5,C0UA00
鴛鴦湖,24.590269,121.412228,-0.28,15.75,2.68,95.57,9.11,-0.21,C0UA10
白嶺,24.527819,121.519031,-0.33,17.73,-1.75,93.25,7.79,0.54,C0UA30
西德山,24.560647,121.752608,0.12,18.99,-1.94,93.04,10.16,1.37,C0UA40
西帽山,24.555361,121.802628,0.15,20.45,-7.06,87.54,17.04,6.0,C0UA50
樟樹山,24.41393,121.78325,-0.05,21.88,-0.54,88.29,6.64,1.75,C0UA60
桃源谷,24.962606,121.888875,0.2,21.56,-0.69,94.54,12.55,2.34,C0UA70
復興,23.222403,120.806089,0.92,23.71,-2.67,79.46,4.91,-11.98,C0V210
溪埔,22.738578,120.446797,0.9,28.18,-2.45,77.21,2.02,-6.19,C0V350
內門,22.975481,120.466769,1.69,28.08,-4.54,77.71,1.62,-6.24,C0V360
古亭坑,22.893178,120.401947,1.04,27.61,-6.46,78.25,2.07,-4.93,C0V370
阿公店,22.804194,120.355528,0.48,27.5,-7.17,76.11,2.05,-6.34,C0V400
鳳山,22.646653,120.356122,0.45,28.29,2.14,78.18,1.55,-6.96,C0V440
鳳森,22.545064,120.392592,0.89,28.12,-8.11,74.86,3.82,-5.39,C0V450
新興,22.627422,120.298803,1.12,28.81,-8.31,71.11,1.36,-6.89,C0V490
阿蓮,22.883208,120.327508,1.28,28.75,-7.84,73.64,1.64,-6.06,C0V530
梓官,22.760558,120.267211,0.5,28.11,-6.11,74.36,2.16,-5.99,C0V610
永安,22.82315,120.236856,0.41,27.76,-7.56,75.71,3.39,-5.24,C0V620
茄萣,22.906642,120.182608,0.77,28.2,-2.05,76.75,2.86,-4.88,C0V630
湖內,22.887139,120.2445,0.09,27.51,-6.48,74.36,4.64,-3.73,C0V640
彌陀,22.783806,120.246361,1.06,28.48,-5.93,76.68,2.71,-5.37,C0V650
岡山,22.797078,120.294958,1.11,29.05,-7.55,71.21,3.07,-5.82,C0V660
仁武,22.701083,120.347722,1.04,29.05,-6.88,72.32,1.3,-6.52,C0V680
鼓山,22.623325,120.275575,0.37,28.07,-7.73,73.79,1.86,-5.84,C0V690
三民,22.645017,120.311233,0.55,28.81,-2.52,71.36,1.59,-6.7,C0V700
苓雅,22.622742,120.330669,1.31,29.32,0.77,74.32,0.02,-7.87,C0V710
林園,22.507747,120.394511,1.26,29.61,-3.15,73.21,2.82,-5.49,C0V720
大寮,22.605614,120.395717,0.7,28.7,-3.3,73.93,1.8,-6.66,C0V730
旗山,22.888614,120.483597,1.9,29.1,-6.23,72.11,1.34,-7.38,C0V740
路竹,22.854997,120.259439,1.17,28.84,-6.98,71.79,3.55,-5.14,C0V750
橋頭,22.757806,120.30575,1.04,29.04,-9.51,69.86,2.11,-6.24,C0V760
大社,22.730306,120.346639,0.74,28.71,-6.05,71.43,1.46,-6.85,C0V770
萬山,22.905944,120.688056,1.14,26.05,-3.54,77.04,8.45,-3.82,C0V790
六龜,22.997889,120.633583,1.0,27.16,-1.8,77.25,3.39,-9.15,C0V800
左營,22.67491,120.28491,0.36,27.92,-6.29,74.29,1.29,-2.85,C0V810
小林,23.148408,120.63325,1.14,25.6,-3.64,80.89,4.89,-14.31,C0V820
花嶼,23.40007,119.32276,0.86,25.8,-2.62,84.39,0.55,-2.2,C0W130
金寧,24.457703,118.328989,0.21,25.28,-4.22,77.89,0.38,-4.49,C0W150
東河,23.296598,120.385608,0.33,27.39,-8.23,73.07,1.04,-3.83,C0X050
下營,23.22695,120.256261,0.57,27.52,-6.93,74.32,1.32,-2.63,C0X060
佳里,23.173039,120.145086,0.62,27.68,-3.02,78.25,1.71,-2.65,C0X080
臺南市北區,23.010394,120.194228,0.59,28.37,-3.52,73.67,1.52,-5.47,C0X100
臺南市南區,22.961189,120.188378,0.62,28.35,-4.71,75.82,1.36,-5.93,C0X110
麻豆,23.183289,120.248611,1.19,28.59,-3.55,77.61,1.21,-5.09,C0X120
官田,23.193217,120.315422,0.83,28.16,-0.81,79.68,1.07,-6.19,C0X130
西港,23.125608,120.203108,0.34,27.88,-7.3,74.79,0.93,-5.43,C0X140
安定,23.102614,120.227839,0.9,28.18,-4.01,78.5,1.36,-5.21,C0X150
仁德,22.968258,120.257689,0.99,28.53,-3.04,76.79,1.7,-6.23,C0X160
關廟,22.963017,120.327797,0.05,27.78,-0.02,76.81,1.52,-7.15,C0X170
山上,23.0757,120.363253,0.9,27.85,-3.83,78.5,2.25,-5.1,C0X180
安平,22.993161,120.152181,0.52,28.06,-14.43,68.25,1.73,-5.11,C0X190
左鎮,23.056758,120.408522,1.61,28.0,-5.88,78.89,1.86,-5.41,C0X200
白河,23.347466,120.414427,0.26,27.16,-3.84,75.93,2.32,-2.24,C0X210
學甲,23.230367,120.182187,0.61,27.47,-3.11,75.68,0.8,-5.01,C0X220
鹽水,23.272621,120.247641,0.36,27.15,-3.28,77.07,0.73,-3.22,C0X230
關子嶺,23.331169,120.508025,0.2,24.87,0.64,85.96,3.0,-5.15,C0X240
新營,23.310689,120.316681,0.41,27.69,-4.02,73.89,0.95,-4.61,C0X250
後壁,23.366358,120.362326,0.41,27.23,-6.01,75.18,1.16,-4.96,C0X260
將軍,23.214999,120.13577,0.31,27.17,-4.36,76.07,1.12,-3.06,C0X280
北門,23.267772,120.125481,0.33,27.24,-5.15,76.93,0.98,-3.09,C0X290
鹿寮,23.386047,120.477331,0.13,26.46,-3.96,79.5,4.34,-1.27,C0X300
柳營,23.253328,120.375253,0.33,27.57,-4.97,74.96,0.73,-11.47,C0X320
明里,23.208717,121.262342,0.4,24.3,-0.44,90.18,3.48,-1.86,C0Z020
佳心,23.34567,121.21316,0.3,20.85,6.64,94.39,3.46,-1.25,C0Z050
玉里,23.3215,121.339656,0.93,25.3,4.42,91.46,3.02,-2.26,C0Z061
舞鶴,23.46811,121.37407,0.69,24.11,8.78,99.29,3.89,-0.86,C0Z070
富源,23.587642,121.378225,0.53,24.08,-0.82,90.0,10.73,3.99,C0Z080
東華,23.89525,121.549833,0.32,25.2,0.32,89.43,3.23,-1.87,C0Z100
吉安光華,23.930925,121.595153,0.17,24.95,-8.87,79.46,6.8,2.3,C0Z150
鳳林,23.746114,121.453411,-0.11,24.41,-2.53,83.25,8.96,3.64,C0Z160
卓溪,23.3443,121.3029,-0.31,24.99,-3.41,79.43,3.55,-1.45,C0Z170
新城,24.040486,121.604878,0.01,24.95,13.6,97.71,12.59,7.52,C0Z180
富世,24.14743,121.6297,0.1,25.02,-3.39,84.07,11.61,6.8,C0Z190
萬榮,23.709219,121.420106,0.15,24.34,-3.62,84.71,11.0,6.32,C0Z200
瑞穗,23.5239,121.39021,0.38,24.85,0.72,87.57,6.5,1.64,C0Z210
和平林道,24.343922,121.656317,-0.31,21.64,-4.22,88.32,3.5,-1.07,C0Z220
和平,24.30717,121.77007,-0.81,24.27,-3.22,80.21,11.0,7.3,C0Z230
瑞穗林道,23.49284,121.30688,-0.11,19.4,2.44,97.36,10.18,2.28,C0Z250
蕃薯寮,23.73835,121.540108,0.17,23.14,-3.66,89.39,9.88,5.29,C0Z270
德武,23.47426,121.41071,0.07,24.37,-0.19,88.36,3.29,-0.56,C0Z280
赤柯山,23.36893,121.38293,0.24,20.61,-1.03,91.21,4.43,-0.87,C0Z290
東里,23.26853,121.30547,0.25,25.0,-4.04,84.57,2.57,-2.47,C0Z300
清水斷崖,24.218294,121.689142,-0.39,24.36,-3.15,85.86,14.84,8.91,C0Z310
清水林道,23.27125,121.188272,0.27,22.15,-2.17,85.96,2.78,-2.48,C0Z320
安通山,23.290728,121.348528,-0.13,23.02,2.57,90.25,2.75,-1.49,C0Z330
口湖工作站,23.589978,120.180394,1.11,26.81,-5.28,72.52,1.07,-5.81,12J990
東港工作站,22.479997,120.466058,1.25,28.49,-8.15,64.89,1.26,-13.21,12Q970
恆春工作站,22.079678,120.714425,1.91,28.18,-1.76,71.15,0.44,-1.96,12Q980
萬大發電廠,23.978875,121.139639,0.45,21.17,-9.68,80.96,13.96,-5.74,42HA10
桃改樹林分場,24.944503,121.386972,-0.22,25.3,-7.2,75.11,10.07,-6.68,72AI40
桃園農改場,24.950944,121.030583,0.54,25.35,-2.64,81.74,11.0,4.03,72C440
桃改五峰分場,24.612194,121.157167,0.63,20.46,-1.16,88.19,8.17,-1.1,72D080
臺中農改場,24.003028,120.534389,0.31,26.38,2.55,84.93,6.41,0.57,72G600
中改埔里分場,23.903208,120.963364,0.57,22.93,-3.75,87.89,8.46,-12.63,72HA00
南改斗南分場,23.634556,120.477333,0.91,27.17,-3.85,78.93,0.83,-5.64,72K220
南改義竹分場,23.360694,120.279361,0.58,27.04,-8.49,76.33,1.57,-3.53,72M360
南改鹿草分場,23.416869,120.283061,1.01,26.89,-4.65,80.63,4.22,-3.86,72M700
臺南農改場,23.0605,120.342194,0.55,27.44,-0.92,80.04,0.59,-5.63,72N100
七股研究中心,23.081672,120.062894,1.1,27.73,-5.08,78.11,1.91,-7.36,72N240
高雄農改場,22.709333,120.525889,1.0,28.63,-1.85,76.41,3.54,-2.79,72Q010
東改班鳩分場,22.829528,121.077694,0.46,24.66,-0.57,83.93,1.88,-3.65,72S200
東改賓朗果園,22.813889,121.071278,-2.1,21.73,-1.98,88.46,1.91,-3.5,72S590
花蓮農改場,23.975222,121.563889,0.52,25.04,-1.4,82.59,6.87,1.22,72T250
花改蘭陽分場,24.686306,121.716583,0.42,24.75,-2.13,83.56,6.19,-0.44,72U480
高改旗南分場,22.857861,120.516667,-0.43,27.67,2.52,76.56,1.24,-4.84,72V140
茶改北部分場,24.955778,121.631222,0.65,22.81,-0.09,84.7,13.13,3.09,82A750
茶改場,24.908472,121.185333,0.46,24.56,-5.47,78.33,10.91,3.66,82C160
茶改中部分場,23.875611,120.913583,-0.59,21.57,-0.03,87.56,9.48,-2.31,82H320
茶改南部分場,23.762528,120.7405,-0.34,24.01,-1.65,84.81,6.29,-0.25,82H840
茶改東部分場,22.907694,121.130139,-0.0,25.24,-1.83,82.52,1.5,-3.63,82S580
農工中心,24.985917,121.239833,0.7,25.38,0.23,75.44,10.39,3.23,A2C560
水試臺西試驗場,23.717231,120.190522,-0.03,26.98,1.22,83.11,2.07,-3.48,A2K360
臺大雲林校區,23.730628,120.423903,-0.25,26.48,-2.52,79.52,1.61,-12.06,A2K630
臺南蘭花園區,23.340258,120.379661,0.29,27.13,-2.34,80.0,1.74,-8.4,A2N290
畜產試驗所,23.058972,120.336406,0.55,27.3,-2.13,79.3,1.48,-4.24,B2N890
畜試南區分所,21.945583,120.802167,0.63,27.74,-5.68,73.22,0.5,-4.22,B2Q810
畜試東區分所,24.669039,121.832561,0.04,24.76,1.42,90.15,6.57,0.56,B2U990
蓮華池,23.918333,120.885278,-0.96,22.75,3.13,86.52,8.2,-3.53,E2H360
林試畢祿溪站,24.226944,121.308522,-0.55,14.02,1.0,84.89,8.72,-0.01,E2HA20
四湖植物園,23.676986,120.163433,0.98,26.77,5.16,91.3,2.35,-5.58,E2K600
林試六龜中心,22.991703,120.645722,0.47,26.16,0.33,81.26,5.02,-15.12,E2P980
林試太麻里2,22.598,120.99775,0.05,26.79,-5.46,77.0,0.98,-3.07,E2S960
林試太麻里1,22.598922,120.980044,0.39,26.47,-3.81,79.44,1.54,-2.8,E2S980
農試所(霧峰),24.031261,120.688133,0.51,26.69,3.04,85.96,9.37,1.99,G2F820
農試嘉義分所,23.485028,120.473806,0.49,26.56,-3.8,77.56,2.11,-4.74,G2L020
農試溪口農場,23.58565,120.408111,1.67,26.91,-5.84,78.93,1.8,-5.21,G2M350
農試鳳山分所,22.646611,120.356083,0.49,28.46,-2.13,72.11,1.35,-5.47,G2P820
苗栗農改場,24.495722,120.829111,0.03,25.13,-0.84,80.3,10.15,3.27,K2E360
苗改生物防治研究中心,24.422861,120.871833,-0.49,23.83,-2.49,82.07,8.54,-1.6,K2E710
種苗改良場,24.225972,120.800917,0.31,24.22,5.96,86.59,9.33,-2.05,K2F750
溪頭,23.670306,120.798194,2.0,20.86,-3.31,88.3,1.45,-10.33,U2H480
臺大和社,23.590856,120.888864,1.17,22.54,-3.34,86.11,7.02,-7.54,U2HA30
臺大內茅埔,23.689722,120.851117,0.66,23.84,-5.29,82.56,6.8,-9.19,U2HA40
臺大竹山,23.756972,120.681556,0.16,26.13,-4.03,77.67,3.61,-6.18,U2HA50
