站名,緯度,經度,平均溫距平,本年度平均溫,平均溼度距平,本年度日均相對溼度,本年度日均降水量,日均降水量距平,站號
淡水,25.164889,121.448906,2.02,31.1,-12.54,62.5,0.1,-3.64,466900
鞍部,25.182586,121.529731,0.07,23.5,0.55,86.67,0.35,-7.59,466910
臺北,25.037658,121.514853,1.21,31.33,-8.13,62.5,0.02,-7.05,466920
竹子湖,25.162078,121.544547,0.66,25.73,-4.48,78.5,0.17,-6.6,466930
基隆,25.133314,121.740475,0.96,30.55,-4.9,67.5,0.85,-3.11,466940
花蓮,23.975128,121.613275,0.3,29.05,-1.39,76.0,4.42,-2.82,466990
新屋,25.006725,121.047492,0.55,30.07,-5.17,72.83,0.02,-0.62,467050
宜蘭,24.763975,121.756528,0.3,29.37,0.58,77.67,2.6,-2.5,467080
金門,24.407306,118.289281,2.04,30.5,-13.49,72.0,0.03,-1.58,467110
田中,23.873803,120.581286,-1.2,28.82,3.12,81.0,14.17,13.04,467270
澎湖,23.565503,119.563094,0.25,29.22,0.95,84.0,8.92,5.01,467350
臺南,22.99328,120.20492,-0.42,29.35,0.54,75.67,22.75,14.39,467410
永康,23.038386,120.2367,-0.31,29.15,4.77,77.5,27.75,19.56,467420
嘉義,23.495925,120.432906,-1.12,28.15,8.41,84.0,19.5,7.14,467480
臺中,24.145736,120.684075,0.17,29.28,3.49,77.5,14.0,4.32,467490
阿里山,23.508208,120.813242,-0.59,14.42,5.29,94.5,11.67,-8.21,467530
大武,22.35572,120.90374,-1.19,27.77,5.74,82.17,68.5,54.35,467540
玉山,23.48718,120.95943,-0.53,7.68,-2.62,72.0,5.18,-9.04,467550
新竹,24.827853,121.014219,0.89,30.46,-2.65,70.6,0.04,-2.98,467571
恆春,22.003897,120.746339,-0.76,28.23,2.57,82.5,56.03,42.27,467590
成功,23.097486,121.373428,-0.48,27.83,1.52,81.5,34.68,25.12,467610
日月潭,23.881325,120.90805,0.28,23.35,6.76,90.83,1.42,-12.74,467650
臺東,22.752211,121.154586,-0.92,28.35,4.12,79.83,36.08,27.4,467660
馬祖,26.169467,119.923158,0.35,27.75,7.86,92.5,0.08,-2.41,467990
山佳,24.974944,121.402008,1.85,31.3,-6.49,68.17,0.0,-8.33,C0A520
坪林,24.938183,121.70975,1.9,28.38,-6.28,81.5,1.17,-8.41,C0A530
泰平,24.971197,121.823711,0.93,26.37,-2.19,88.5,3.42,-4.46,C0A550
桶後,24.848222,121.597992,1.3,27.2,-10.21,78.17,0.58,-9.39,C0A570
石碇,24.993969,121.662917,1.33,28.28,-14.4,72.33,0.75,-5.4,C0A640
大坪,25.165914,121.632969,0.65,27.37,-3.31,80.5,0.33,-5.29,C0A860
五指山,25.132153,121.608692,1.95,26.43,-4.56,85.5,0.25,-5.9,C0A870
雙溪,25.036003,121.864242,1.8,30.0,-3.4,79.33,6.5,1.34,C0A890
三和,25.233153,121.595236,0.16,27.95,0.6,84.67,0.17,-5.42,C0A931
金山,25.223628,121.643967,0.86,29.72,-8.56,69.67,0.17,-4.11,C0A940
鼻頭角,25.129036,121.923372,0.74,29.15,1.36,85.5,7.08,4.67,C0A950
三貂角,25.007606,122.002058,1.05,29.12,2.83,84.83,8.83,6.79,C0A970
社子,25.109508,121.469681,1.92,32.08,-9.7,63.67,0.0,-5.02,C0A980
天母,25.117494,121.537169,1.2,31.03,-10.43,60.83,0.0,-6.01,C0A9C0
內湖,25.079422,121.57545,1.62,31.83,-6.73,64.17,0.08,-8.62,C0A9F0
大屯山,25.175675,121.522408,1.39,23.53,2.27,96.67,0.17,-4.0,C0AC40
三峽,24.939025,121.369728,2.52,32.03,-6.61,68.67,0.0,-6.89,C0AC60
信義,25.037822,121.564597,1.16,31.15,-7.44,65.0,0.0,-8.02,C0AC70
文山,25.00235,121.575728,0.9,30.12,-13.59,65.83,0.08,-7.26,C0AC80
新莊,25.051478,121.446756,0.94,31.55,-9.43,58.5,0.0,-4.93,C0ACA0
八里,25.150211,121.403947,2.09,32.05,-1.29,70.17,0.0,-2.4,C0AD10
蘆洲,25.086594,121.472331,0.73,31.62,-1.65,67.0,0.0,-4.47,C0AD30
土城,24.973208,121.445169,0.73,29.93,-5.81,70.83,0.0,-6.97,C0AD40
鶯歌,24.951533,121.346294,1.71,31.28,-6.67,69.67,0.0,-7.57,C0AD50
汐止,25.066881,121.658778,0.96,30.57,-13.53,63.17,0.25,-7.76,C0AH00
永和,25.01125,121.508111,1.47,31.48,-1.79,66.5,0.0,-8.12,C0AH10
五分山,25.07125,121.780794,1.37,25.2,-0.95,92.0,1.75,-7.24,C0AH30
平等,25.129142,121.577086,0.15,27.4,-5.84,73.0,0.25,-7.53,C0AH40
林口,25.072181,121.38084,1.75,30.03,-5.54,73.83,0.0,-7.72,C0AH50
松山,25.04871,121.55042,1.05,31.17,1.02,65.33,0.0,-8.33,C0AH70
深坑,25.002703,121.628328,1.86,29.85,-10.17,72.17,0.33,-9.5,C0AH80
福山植物園,24.760717,121.58135,0.06,24.07,0.08,90.5,2.0,-5.46,C0AH90
五股,25.07445,121.42728,2.38,30.92,-4.54,72.0,0.0,-9.81,C0AI00
屈尺,24.92184,121.54475,2.75,31.08,-10.92,71.5,0.17,-13.33,C0AI10
白沙灣,25.283128,121.519058,0.92,29.62,0.42,76.17,0.0,-3.53,C0AI20
三重,25.057328,121.500629,1.79,32.12,-12.21,66.17,0.0,-9.38,C0AI30
石牌,25.115597,121.513139,0.87,31.55,-3.98,63.83,0.0,-11.12,C0AI40
七堵,25.094819,121.71713,1.71,30.93,-7.71,70.33,0.42,-8.31,C0B010
基隆嶼,25.19141,121.78391,0.17,28.6,3.58,91.83,0.0,-4.94,C0B020
復興,24.820208,121.352281,1.54,27.05,-9.12,74.0,0.08,-7.75,C0C460
桃園,24.992425,121.323172,1.27,31.2,-5.81,61.17,0.0,-5.68,C0C480
八德,24.928708,121.283289,1.02,30.17,-8.42,64.67,0.0,-5.38,C0C490
觀音,25.027072,121.153317,1.08,29.88,-4.19,71.5,0.0,-1.24,C0C590
蘆竹,25.084275,121.265767,1.89,31.42,-9.79,65.5,0.0,-1.72,C0C620
大溪,24.882853,121.265547,1.07,28.95,-3.43,69.83,0.0,-5.9,C0C630
平鎮,24.897503,121.214636,1.08,29.1,-2.74,72.0,0.0,-5.64,C0C650
楊梅,24.912375,121.143047,0.48,29.52,-2.14,68.5,0.0,-5.14,C0C660
龍潭,24.870056,121.221389,0.73,28.77,-3.21,70.5,0.0,-11.47,C0C670
龜山,25.02846,121.38656,1.07,29.2,-16.73,57.33,0.0,-10.66,C0C680
中壢,24.977661,121.256375,0.68,30.1,-4.38,64.17,0.0,-8.04,C0C700
大溪永福,24.892936,121.324975,1.57,29.37,-7.56,73.5,0.0,-14.84,C0C710
梅花,24.678347,121.208558,0.4,25.65,0.01,85.17,0.75,-13.09,C0D360
峨眉,24.6905,121.017189,0.1,28.13,6.26,89.67,1.25,-3.37,C0D430
打鐵坑,24.849664,121.150789,0.49,27.38,-5.31,77.33,0.33,-4.78,C0D480
橫山,24.71116,121.11693,0.59,27.55,4.42,87.67,0.33,-6.98,C0D540
雪霸,24.526972,121.11605,-0.32,18.47,8.2,89.5,1.58,-2.39,C0D550
竹東,24.767147,121.057881,1.78,30.05,0.26,71.33,0.08,-2.81,C0D560
寶山,24.735006,121.025192,0.41,27.7,4.3,86.0,0.42,-3.29,C0D580
新豐,24.87068,120.97721,0.88,29.15,-0.47,77.83,0.0,-0.92,C0D590
湖口,24.904794,121.043628,0.66,29.95,-5.26,69.17,0.08,-0.76,C0D650
新竹市東區,24.798681,120.986942,0.43,29.55,-0.58,71.33,0.0,-3.52,C0D660
竹南,24.708978,120.888897,0.48,29.63,7.44,81.17,0.25,-2.73,C0E420
南庄,24.601775,121.000214,0.02,26.8,7.04,88.0,11.5,1.87,C0E430
明德,24.583486,120.885411,0.4,29.12,5.53,82.17,5.92,3.11,C0E550
通霄,24.471892,120.704622,0.11,29.02,3.26,83.0,7.58,5.47,C0E590
馬都安,24.451272,120.930192,0.26,24.12,3.53,88.67,5.17,-5.17,C0E610
頭份,24.688247,120.912206,0.17,29.95,6.69,75.5,1.83,0.12,C0E730
造橋,24.637056,120.864778,0.02,29.4,3.88,81.17,1.25,-0.42,C0E740
苗栗,24.564569,120.824575,-0.36,29.4,1.97,72.33,4.08,1.29,C0E750
銅鑼,24.489681,120.790853,0.25,28.9,1.24,78.83,4.42,0.16,C0E780
西湖,24.562947,120.7485,0.33,28.82,2.04,85.5,1.25,-0.19,C0E810
獅潭,24.539133,120.920042,-0.11,27.68,2.71,84.8,6.2,2.08,C0E820
苑裡,24.439714,120.653053,-0.0,29.42,2.04,78.17,5.92,2.81,C0E830
大河,24.618069,120.948578,-1.84,26.52,1.92,78.5,6.17,-0.02,C0E850
高鐵苗栗,24.60725,120.826094,-0.65,29.2,19.42,86.67,2.17,1.23,C0E870
石岡,24.276061,120.777644,0.83,27.8,1.56,83.0,11.67,-3.13,C0F0B0
中坑,24.248517,120.903319,0.48,22.82,0.24,91.83,8.5,-12.34,C0F0C0
審馬陣,24.381675,121.4203,2.45,13.45,-28.33,61.83,3.08,-1.27,C0F0D0
東勢,24.246428,120.833047,1.53,28.43,-1.9,77.5,6.08,-5.06,C0F850
大坑,24.173142,120.722289,1.15,29.9,4.53,78.5,10.83,2.28,C0F970
神岡,24.272481,120.658314,0.14,28.42,-0.59,79.5,13.67,9.02,C0F9I0
大安,24.345061,120.588025,-0.18,29.05,2.47,81.67,9.58,6.06,C0F9K0
后里,24.310436,120.729725,0.49,28.9,3.17,81.17,13.33,7.72,C0F9L0
豐原,24.254322,120.720692,2.22,30.6,-0.08,75.17,15.92,8.85,C0F9M0
大里,24.092464,120.701378,1.32,30.88,4.53,77.0,6.83,-0.83,C0F9N0
潭子,24.213106,120.703933,0.25,29.57,4.69,78.5,11.75,5.11,C0F9O0
清水,24.312297,120.562242,-0.12,29.58,1.71,80.17,5.5,1.81,C0F9P0
外埔,24.347817,120.705686,-0.11,28.57,2.57,82.0,9.17,4.81,C0F9Q0
龍井,24.184536,120.528972,0.09,29.67,-3.79,78.0,17.75,13.68,C0F9R0
烏日,24.107058,120.624103,0.36,29.67,0.39,74.67,9.08,2.35,C0F9S0
西屯,24.179494,120.641275,0.04,29.38,1.65,75.5,20.08,13.7,C0F9T0
南屯,24.137006,120.637969,0.03,29.67,1.64,75.17,13.5,6.44,C0F9U0
新社,24.200172,120.815806,0.53,26.45,4.57,89.5,11.17,-0.94,C0F9V0
大雅(中科園區),24.21528,120.62445,0.56,28.57,1.7,80.5,15.75,8.56,C0F9X0
桃山,24.432739,121.303808,1.37,11.93,-17.65,69.0,1.42,-6.55,C0F9Y0
雪山東峰,24.388792,121.268675,1.75,13.12,-19.03,65.67,2.42,-4.94,C0F9Z0
芬園,24.015678,120.6213,-0.29,28.03,6.78,88.5,11.42,1.95,C0G620
員林,23.946503,120.585597,3.06,32.5,-1.1,77.67,9.25,1.26,C0G650
溪湖,23.94835,120.479122,0.68,29.68,-2.21,80.5,14.5,5.56,C0G660
溪州,23.851589,120.499093,0.55,28.83,-4.25,77.33,16.92,2.11,C0G720
二林,23.903325,120.376081,0.31,28.82,1.17,88.0,15.33,3.48,C0G730
大城,23.852487,120.320935,0.19,28.6,1.42,83.83,8.92,-4.15,C0G740
福興,24.041289,120.437669,-0.04,30.02,-4.49,77.0,7.83,-0.34,C0G770
秀水,24.03405,120.503869,0.38,29.97,1.14,80.83,10.33,2.63,C0G780
埔鹽,24.000394,120.431683,0.67,29.85,-4.08,78.5,18.5,10.1,C0G800
埔心,23.947633,120.525456,1.29,30.9,2.29,78.5,8.5,-0.43,C0G810
田尾,23.901669,120.509389,0.45,29.6,3.01,85.67,6.67,-3.1,C0G820
埤頭,23.866003,120.452806,-0.13,29.18,3.06,88.67,11.58,3.15,C0G830
社頭,23.897647,120.5862,0.3,30.05,10.07,82.0,8.17,-2.93,C0G860
二水,23.810742,120.6173,1.01,29.85,1.36,80.67,14.33,2.69,C0G880
伸港,24.148933,120.484403,0.49,30.0,0.26,80.0,0.0,-4.41,C0G890
線西,24.143358,120.443536,-0.73,29.48,1.71,80.33,7.17,4.6,C0G900
埔里,23.972169,120.952425,1.74,27.52,-7.22,78.33,0.92,-8.86,C0H890
草屯,23.973672,120.68085,0.34,29.0,1.17,77.67,5.0,-4.57,C0H960
昆陽,24.121322,121.273642,1.02,12.78,-16.43,73.67,2.83,-6.01,C0H990
神木村,23.532742,120.843667,0.25,19.93,-1.38,92.0,7.33,-9.79,C0H9A0
合歡山,24.143442,121.272547,0.77,11.18,2.53,83.5,2.92,-5.39,C0H9C0
廬山,24.033311,121.181808,0.79,21.22,-10.72,76.5,1.75,-8.44,C0I010
信義,23.689694,120.851036,1.16,25.88,-5.35,83.5,2.75,-6.85,C0I080
竹山,23.761225,120.688156,0.11,27.87,-1.43,82.83,14.5,-2.34,C0I110
水里,23.812553,120.849792,1.14,27.65,-5.77,76.83,0.75,-9.2,C0I360
魚池,23.895703,120.94135,1.48,25.8,-6.82,80.33,1.83,-9.97,C0I370
集集,23.828206,120.801467,0.88,27.85,-5.02,79.83,4.33,-14.79,C0I380
仁愛,24.022122,121.132206,1.06,22.62,-7.96,79.67,3.33,-5.47,C0I390
名間,23.837053,120.701447,0.09,27.48,4.49,84.67,4.25,-8.76,C0I410
國姓,24.037803,120.855072,1.59,27.95,-6.26,80.17,2.92,-11.42,C0I420
南投,23.911469,120.687331,0.53,28.98,4.92,82.5,7.25,-8.79,C0I460
梅峰,24.085272,121.173572,1.7,17.73,-13.45,78.0,2.08,-13.83,C0I480
萬大林道,23.928228,121.091411,1.14,20.43,-10.53,81.17,3.67,-8.95,C0I490
小奇萊,24.131764,121.295717,2.32,12.77,-19.54,76.0,3.17,-10.31,C0I530
崙背,23.75555,120.318925,0.06,28.43,-2.39,81.83,15.25,3.66,C0K250
四湖,23.630414,120.227125,0.05,28.97,-2.29,81.83,15.08,10.35,C0K280
宜梧,23.536281,120.169329,-0.33,28.8,0.22,82.5,29.92,25.41,C0K291
虎尾,23.719183,120.442036,-0.34,29.03,4.41,84.0,29.92,20.99,C0K330
土庫,23.679029,120.395574,0.13,28.65,-1.89,79.0,24.0,12.76,C0K390
斗六,23.720583,120.541127,0.15,28.48,-1.9,79.17,23.33,9.59,C0K400
北港,23.573957,120.292802,0.12,28.67,-2.8,79.5,23.67,16.48,C0K410
西螺,23.800407,120.467394,0.55,29.07,-3.57,79.17,25.58,12.5,C0K420
褒忠,23.690938,120.303634,0.25,28.65,0.38,82.67,11.17,2.22,C0K430
二崙,23.772797,120.408944,0.01,28.6,-0.35,81.2,22.42,9.94,C0K440
大埤,23.646074,120.431537,0.21,28.72,-1.67,78.83,13.83,1.71,C0K450
斗南,23.678734,120.478359,0.04,28.53,3.25,80.83,21.17,9.79,C0K460
林內,23.748675,120.609642,0.07,27.73,0.83,83.0,26.08,9.88,C0K470
莿桐,23.761192,120.502372,0.19,28.52,0.9,80.0,26.83,11.41,C0K480
元長,23.64981,120.315024,0.27,28.95,0.55,80.33,15.25,4.65,C0K500
水林,23.572924,120.24597,0.3,29.05,1.18,81.33,24.67,16.44,C0K510
臺西,23.701547,120.197559,0.02,28.5,1.12,83.67,11.92,2.91,C0K530
蔦松,23.514319,120.229736,0.12,28.78,-0.32,82.33,23.92,15.17,C0K550
棋山,23.68645,120.603417,0.04,27.75,6.59,88.17,25.75,6.49,C0K560
高鐵雲林,23.737456,120.417944,-0.17,28.43,-1.92,82.83,25.42,9.35,C0K580
東後寮,23.369908,120.248065,-0.05,28.13,1.62,86.17,32.42,21.16,C0M520
奮起湖,23.493903,120.699253,-0.35,20.03,3.72,97.0,18.25,0.3,C0M530
中埔,23.42538,120.5229,-0.59,27.38,1.87,79.5,21.08,4.14,C0M640
朴子,23.43463,120.23902,-0.64,27.82,2.36,85.17,28.17,17.61,C0M650
溪口,23.604131,120.403569,0.06,28.38,-2.02,80.5,8.67,-2.79,C0M660
大林,23.600616,120.45841,-0.05,28.55,2.95,81.67,13.5,0.0,C0M670
太保,23.455062,120.331455,-0.18,28.45,-2.16,80.17,24.33,10.78,C0M680
水上,23.419734,120.388909,-0.2,28.03,1.28,83.0,18.83,2.38,C0M690
竹崎,23.526178,120.555508,-0.47,26.92,4.23,86.83,40.92,22.36,C0M700
東石,23.458927,120.15385,0.01,28.83,-3.04,80.33,30.92,21.96,C0M710
番路,23.464657,120.554156,-0.34,26.97,4.58,82.67,34.92,16.87,C0M720
嘉義市東區,23.457673,120.460531,-0.29,28.2,4.51,83.67,18.08,1.24,C0M730
六腳,23.492871,120.290625,-0.32,28.23,1.71,82.67,20.83,10.22,C0M740
布袋,23.380878,120.167789,0.18,28.97,-2.91,79.83,25.25,15.47,C0M750
民雄,23.551754,120.428457,-0.64,28.15,2.95,83.17,20.58,7.53,C0M760
嘉義梅山,23.585398,120.555587,-0.35,27.53,5.68,85.33,35.5,16.75,C0M770
鹿草,23.41134,120.30835,0.03,28.63,3.33,84.0,16.83,0.45,C0M780
新港,23.553269,120.345728,-0.27,28.42,-0.06,79.83,17.75,8.5,C0M790
茶山,23.299075,120.664767,0.7,25.52,-2.88,86.5,13.83,-3.99,C0M800
里佳,23.389125,120.716647,0.55,20.85,-1.74,88.33,10.92,-7.97,C0M810
達邦,23.453994,120.749517,0.84,22.78,-0.43,87.17,5.75,-8.66,C0M820
表湖,23.24186,120.64166,-0.1,23.5,-2.25,89.33,26.92,0.77,C0M850
新美,23.338017,120.683169,0.12,25.03,4.38,89.0,13.08,4.83,C0M860
北寮,23.079561,120.495008,-0.13,27.5,6.59,90.67,20.42,1.32,C0O830
王爺宮,23.222064,120.40085,1.64,29.35,-5.98,79.67,28.5,13.57,C0O840
大內,23.11885,120.36083,0.75,29.6,1.59,85.0,20.83,7.74,C0O860
善化,23.112883,120.297219,0.06,29.03,7.65,91.33,20.5,12.25,C0O900
崎頂,22.959547,120.369317,1.38,29.05,-2.95,82.83,16.42,0.21,C0O960
虎頭埤,23.021375,120.347878,-0.51,27.62,-2.32,83.17,22.5,6.12,C0O970
新市,23.061614,120.298197,0.62,29.33,-2.8,81.5,22.5,7.79,C0O980
媽廟,22.99175,120.293525,0.19,28.93,-0.61,82.83,15.75,-0.61,C0O990
尾寮山,22.833111,120.683889,0.41,22.77,-0.41,92.5,18.92,-1.36,C0R100
阿禮,22.742908,120.743678,0.1,22.77,-7.98,80.67,16.58,2.11,C0R130
瑪家,22.682903,120.686639,-0.55,23.65,8.3,96.5,22.0,-3.86,C0R140
三地門,22.709889,120.639944,-0.05,28.52,-3.66,77.5,16.83,2.27,C0R150
鹽埔,22.739558,120.530778,0.18,28.47,0.23,87.83,20.08,2.39,C0R160
赤山,22.592333,120.614306,-0.4,28.07,6.31,91.17,16.33,-6.48,C0R190
潮州,22.534361,120.54,-0.43,28.58,0.26,80.67,20.75,8.41,C0R220
來義,22.527306,120.625111,-1.13,26.83,9.35,93.33,19.5,-6.37,C0R240
春日,22.370361,120.628306,-1.71,26.55,2.7,86.0,26.75,4.85,C0R260
琉球嶼,22.332244,120.362236,0.56,29.23,-5.9,80.5,22.83,15.05,C0R270
車城,22.0744,120.716247,-1.72,27.48,0.83,85.33,40.42,32.35,C0R320
牡丹,22.130036,120.792639,-1.46,25.6,3.5,92.5,68.33,63.83,C0R341
貓鼻頭,21.921774,120.7358,-0.58,28.07,1.29,84.67,50.42,38.67,C0R350
大漢山,22.405264,120.753181,-1.13,17.17,1.71,99.33,73.67,68.29,C0R440
高樹,22.826389,120.600806,-0.32,28.27,-0.67,78.83,22.0,5.82,C0R470
長治,22.693128,120.542622,0.44,29.1,-1.88,80.83,22.25,2.84,C0R480
九如,22.7405,120.490503,0.32,29.05,-1.36,81.83,22.0,2.47,C0R490
崁頂,22.514781,120.506914,-0.47,28.55,-0.63,82.5,3.6,-17.4,C0R520
佳冬,22.419456,120.552375,-0.32,28.7,-3.0,78.5,20.42,1.5,C0R540
新埤,22.467947,120.582894,-0.39,28.22,-6.42,78.17,19.92,-0.31,C0R550
新園,22.5434,120.461558,0.57,29.52,-5.77,76.5,28.42,6.6,C0R560
麟洛,22.65078,120.52719,0.73,29.6,1.1,83.83,22.83,1.89,C0R570
南州,22.48591,120.50274,-0.21,28.48,4.95,84.17,16.5,-2.6,C0R580
里港,22.77919,120.49459,0.09,28.53,0.97,85.17,20.75,3.76,C0R590
舊泰武,22.588194,120.664944,-0.43,24.12,0.58,86.67,21.58,-8.96,C0R600
墾雷,21.900836,120.855269,-1.13,27.55,9.58,94.83,64.92,47.88,C0R620
東港,22.46247,120.44074,0.05,28.98,-5.9,80.17,17.42,6.67,C0R640
竹田,22.58486,120.54344,-0.06,28.57,-4.62,83.0,20.92,-3.46,C0R650
枋寮,22.367722,120.590647,-0.03,28.83,-0.33,81.17,20.67,12.98,C0R660
楓港,22.190131,120.692156,-1.02,28.17,-7.33,74.67,32.42,23.79,C0R670
佳樂水,21.993578,120.861633,-1.3,28.08,4.21,86.83,64.17,61.85,C0R680
墾丁,21.966756,120.810269,-1.34,26.08,3.75,93.0,66.67,61.17,C0R690
枋山,22.246844,120.661086,1.2,29.78,-7.5,76.0,0.12,-9.75,C0R700
龍磐,21.931672,120.838942,-2.22,26.97,7.33,91.33,57.0,55.0,C0R710
旭海,22.205403,120.887614,-2.4,25.85,8.92,90.17,93.92,93.35,C0R720
大坪頂,22.024633,120.69355,-1.88,26.55,4.5,91.0,44.42,40.1,C0R730
四林格山,22.076989,120.802439,-1.38,23.63,-0.58,97.17,64.5,57.0,C0R750
南仁湖,22.084681,120.863353,-1.89,24.93,9.88,99.0,86.42,82.29,C0R760
保力,22.071122,120.764111,-0.6,26.9,0.08,89.33,58.42,46.67,C0R770
滿州,22.024403,120.839892,-1.45,27.13,2.54,86.67,65.42,62.98,C0R780
九棚,22.14195,120.889281,-2.64,26.48,9.88,89.0,94.67,90.85,C0R790
丹路,22.204481,120.750989,-1.05,27.08,-4.29,81.33,67.58,60.21,C0R800
內獅,22.305064,120.642986,-0.62,28.37,-0.71,79.67,23.67,16.23,C0R810
白鷺,22.454275,120.666219,-0.32,24.62,-5.38,86.0,26.75,20.44,C0R820
高士,22.121825,120.836781,-2.35,24.2,6.96,95.33,100.5,92.62,C0R830
牡丹池山,22.168389,120.841225,-1.68,23.8,6.67,98.17,94.5,91.69,C0R840
下馬,23.150427,121.070312,-0.72,23.82,0.6,82.17,18.83,15.46,C0S660
太麻里,22.60902,120.98533,-0.63,24.82,10.46,88.83,45.58,37.7,C0S690
知本,22.684866,121.005642,-0.97,24.72,9.4,90.83,44.5,32.64,C0S700
鹿野,22.917711,121.122994,0.08,26.1,1.96,84.33,29.58,22.76,C0S710
綠島,22.6672,121.47533,-0.48,27.53,1.92,86.17,60.92,53.4,C0S730
池上,23.119628,121.209469,-0.53,26.8,1.67,81.33,24.33,14.29,C0S740
向陽,23.248397,120.986133,-0.96,14.98,10.83,93.33,21.0,4.8,C0S750
大溪山,22.478475,120.943325,-1.17,24.72,13.1,88.17,59.0,46.14,C0S770
金崙,22.538122,120.966875,-1.39,26.52,10.71,86.83,50.58,42.37,C0S790
東河,22.972672,121.303986,-1.35,27.78,3.06,85.0,42.08,34.83,C0S810
長濱,23.286817,121.411975,-0.56,27.28,0.71,81.33,20.75,13.95,C0S830
南田,22.279725,120.889208,-1.21,27.42,5.69,85.5,90.08,76.52,C0S840
關山,23.0395,121.175017,-0.39,27.27,3.46,83.83,24.17,17.59,C0S890
蘭嶼高中,22.04909,121.51214,-1.13,28.45,5.17,85.67,22.83,14.18,C0S900
蘭嶼燈塔,22.081197,121.503117,-0.75,27.08,5.21,90.33,20.25,11.62,C0S910
金峰嘉蘭,22.594789,120.960825,-3.56,25.95,10.21,81.0,52.75,48.5,C0S920
延平,22.902581,121.084058,-1.27,26.67,3.13,81.0,30.33,26.83,C0S930
石寧山,23.223772,121.406639,-0.48,28.38,2.4,82.33,21.5,20.75,C0S940
七塊厝,22.954453,121.229922,-1.08,25.82,-5.1,78.83,41.25,31.53,C0S950
香蘭,22.587569,120.993375,-1.97,27.73,4.46,77.83,50.25,50.25,C0S960
加津林,22.416211,120.926942,-2.14,27.6,13.88,83.67,63.17,55.26,C0S970
勝林山,22.430439,120.8938,-3.33,21.45,16.1,96.67,70.25,62.78,C0S980
山豬窟,22.318619,120.857372,-2.67,24.58,13.17,90.67,86.42,76.26,C0S990
歷坵,22.520969,120.89185,-3.09,24.25,16.69,91.83,59.25,53.44,C0SA00
檳榔四格山,22.810031,121.109308,-1.29,25.47,5.33,88.67,30.83,27.15,C0SA10
金崙山,22.567419,120.959667,-3.43,21.95,17.67,93.67,55.5,50.34,C0SA20
都歷,23.020333,121.323642,-0.77,28.02,-0.86,76.5,39.25,36.06,C0SA30
瑞和,22.974361,121.156697,-1.41,27.0,1.48,80.83,28.33,25.18,C0SA40
知本（水試所）,22.702394,121.082761,-1.79,27.88,5.5,83.5,40.0,40.0,C0SA60
土坂,22.453108,120.887572,-3.08,26.4,20.96,88.83,71.58,71.58,C0SA80
達仁林場,22.264347,120.823972,-2.2,24.13,13.17,95.17,95.75,93.75,C0SA90
大禹嶺,24.186117,121.316086,-0.53,13.5,-0.86,83.67,3.25,-4.72,C0T790
天祥,24.179597,121.495639,0.94,25.78,-5.75,76.0,3.58,-6.6,C0T820
鯉魚潭,23.935639,121.508944,-0.3,26.65,-0.68,85.17,4.75,-2.49,C0T870
西林,23.8119,121.441458,0.01,27.93,3.29,79.17,4.83,-1.01,C0T900
光復,23.660694,121.424964,-0.07,27.92,-2.32,80.83,5.42,-2.16,C0T960
月眉山,23.809928,121.539828,0.22,25.6,-0.49,88.17,5.42,-1.39,C0T9A0
水源,23.991861,121.537169,-0.02,25.05,-0.29,86.33,6.42,-2.28,C0T9B0
和中,24.26676,121.74103,-0.74,27.73,-9.21,79.83,4.75,-1.99,C0T9D0
大坑,23.880628,121.581981,-0.19,25.98,4.44,88.0,5.33,1.51,C0T9E0
水璉,23.797131,121.542514,-0.43,27.22,2.64,84.67,5.83,0.49,C0T9F0
鳳林山,23.735269,121.420131,-1.11,25.13,-0.11,88.67,6.0,-0.95,C0T9G0
加路蘭山,23.682947,121.5274,-0.01,25.08,5.56,90.5,7.42,3.13,C0T9H0
豐濱,23.583897,121.514806,0.27,27.42,-0.27,82.67,9.75,4.02,C0T9I0
靜浦,23.455167,121.495028,-0.02,27.8,2.81,87.0,19.0,13.27,C0T9M0
富里,23.171639,121.249378,-1.18,26.72,-5.02,75.83,18.67,12.54,C0T9N0
雙連埤,24.753033,121.641303,-0.8,24.48,-1.54,89.83,3.17,-1.76,C0U520
礁溪,24.817539,121.765608,1.08,29.75,-7.33,75.5,2.92,-3.15,C0U600
玉蘭,24.675286,121.587061,0.07,26.53,-1.29,78.17,1.58,-5.16,C0U650
太平山,24.505486,121.525656,0.05,18.03,-6.46,87.33,2.25,-12.65,C0U710
南山,24.43742,121.38167,-0.93,22.02,2.5,84.5,1.58,-0.65,C0U720
龜山島,24.841667,121.953133,-0.86,25.42,3.92,93.17,1.5,0.49,C0U750
東澳,24.52196,121.83318,0.48,29.4,-10.08,75.17,5.67,0.71,C0U760
南澳,24.44935,121.81022,-0.37,28.43,-2.71,82.33,5.0,2.98,C0U770
五結,24.68637,121.79794,-0.72,28.93,-1.38,76.17,3.08,1.14,C0U780
頭城,24.85323,121.8308,1.37,30.32,-6.79,79.83,2.25,-0.73,C0U860
大礁溪,24.791042,121.675047,-0.5,25.55,8.5,90.17,2.75,-2.52,C0U870
三星,24.66812,121.65302,0.11,28.37,-9.17,74.83,1.75,-0.17,C0U890
內城,24.71813,121.68766,0.8,29.12,-4.0,77.17,1.92,0.29,C0U900
冬山,24.63373,121.7937,0.51,29.58,-3.75,70.33,3.42,2.4,C0U910
羅東,24.68184,121.74934,0.63,29.57,-0.5,75.33,2.75,1.6,C0U940
鶯子嶺,24.89754,121.79244,-1.04,21.57,9.25,100.0,10.33,-1.5,C0U950
翠峰湖,24.510856,121.608044,0.06,17.85,-1.58,89.67,2.83,-6.27,C0U960
大福,24.80064,121.81389,0.48,29.23,0.0,78.0,2.33,-0.19,C0U970
坪林石牌,24.86478,121.77396,-0.34,24.48,5.92,96.67,4.25,-6.52,C0U980
員山,24.74435,121.72247,0.37,29.15,-0.17,78.5,3.42,1.17,C0U990
土場,24.576533,121.495333,0.57,27.1,-11.58,77.17,1.58,-4.0,C0UA00
鴛鴦湖,24.590269,121.412228,-0.14,18.68,5.5,95.0,1.92,-13.69,C0UA10
白嶺,24.527819,121.519031,-1.02,20.32,4.04,94.33,2.33,-1.94,C0UA30
西德山,24.560647,121.752608,0.26,22.75,-5.12,84.67,2.58,-2.25,C0UA40
西帽山,24.555361,121.802628,-0.68,23.58,-3.75,84.5,5.0,2.1,C0UA50
樟樹山,24.41393,121.78325,-0.49,25.22,2.46,84.67,4.67,2.15,C0UA60
桃源谷,24.962606,121.888875,-0.76,24.73,7.29,98.5,4.17,0.54,C0UA70
復興,23.222403,120.806089,0.52,24.75,2.04,84.33,9.0,-1.66,C0V210
溪埔,22.738578,120.446797,-0.3,28.1,7.22,89.0,35.58,17.15,C0V350
內門,22.975481,120.466769,0.86,28.42,2.25,89.5,24.17,4.62,C0V360
古亭坑,22.893178,120.401947,-0.3,27.82,-1.26,85.83,21.08,9.49,C0V370
阿公店,22.804194,120.355528,-0.39,28.03,1.62,84.33,18.5,3.82,C0V400
鳳山,22.646653,120.356122,-0.79,28.23,5.55,86.33,27.17,8.18,C0V440
鳳森,22.545064,120.392592,-0.5,28.02,-1.48,83.5,34.33,16.97,C0V450
新興,22.627422,120.298803,-0.23,29.47,-5.22,75.33,22.83,13.3,C0V490
梓官,22.760558,120.267211,-0.4,28.93,0.55,79.33,24.33,11.87,C0V610
永安,22.82315,120.236856,-0.24,28.9,-4.83,79.17,22.08,7.33,C0V620
茄萣,22.906642,120.182608,0.19,29.53,1.61,79.67,23.33,10.39,C0V630
湖內,22.887139,120.2445,-0.58,28.52,-4.52,79.33,23.83,10.05,C0V640
彌陀,22.783806,120.246361,-0.09,28.97,-5.18,79.5,19.83,6.5,C0V650
岡山,22.797078,120.294958,0.16,29.67,-0.7,78.33,26.42,9.78,C0V660
仁武,22.701083,120.347722,0.21,29.58,1.46,78.83,21.83,5.07,C0V680
鼓山,22.623325,120.275575,-0.37,29.13,-0.25,78.5,16.58,4.96,C0V690
三民,22.645017,120.311233,-0.29,29.5,2.11,75.67,23.33,8.78,C0V700
苓雅,22.622742,120.330669,0.32,29.78,4.07,80.0,25.5,9.04,C0V710
林園,22.507747,120.394511,0.31,30.05,0.96,78.83,25.75,12.26,C0V720
大寮,22.605614,120.395717,-0.51,28.73,5.54,85.17,35.5,15.88,C0V730
旗山,22.888614,120.483597,0.78,29.18,-1.87,79.67,27.0,9.29,C0V740
路竹,22.854997,120.259439,0.4,29.73,-2.86,77.33,15.67,-0.09,C0V750
橋頭,22.757806,120.30575,0.07,29.6,-3.68,75.5,28.67,14.48,C0V760
大社,22.730306,120.346639,0.21,29.53,0.57,79.83,26.5,9.01,C0V770
萬山,22.905944,120.688056,0.63,26.42,-1.25,84.5,14.08,-3.21,C0V790
六龜,22.997889,120.633583,0.17,27.43,2.49,83.67,17.58,-2.18,C0V800
左營,22.67491,120.28491,-0.35,28.82,-1.93,78.17,21.08,7.77,C0V810
小林,23.148408,120.63325,0.13,25.97,1.92,87.17,10.25,-0.25,C0V820
東莒,25.9652,119.98069,0.64,28.18,-0.57,88.67,0.0,-2.7,C0W110
西嶼,23.5626,119.468436,0.89,27.97,-2.66,89.67,7.42,0.54,C0W120
花嶼,23.40007,119.32276,0.8,28.13,-0.93,88.17,7.92,4.29,C0W130
金沙,24.488292,118.408778,1.92,30.17,-16.27,71.17,0.08,-2.31,C0W140
金寧,24.457703,118.328989,1.13,30.08,-18.26,70.83,2.25,0.06,C0W150
東河,23.296598,120.385608,-0.27,28.0,-2.46,80.5,23.83,7.49,C0X050
下營,23.22695,120.256261,0.35,28.62,-3.34,80.83,27.17,14.29,C0X060
臺南市北區,23.010394,120.194228,-0.31,29.55,3.52,78.5,26.67,13.53,C0X100
臺南市南區,22.961189,120.188378,-0.22,29.37,-1.94,79.5,22.75,11.36,C0X110
麻豆,23.183289,120.248611,0.46,29.72,2.12,82.17,17.5,7.04,C0X120
官田,23.193217,120.315422,-0.3,28.83,8.38,88.83,28.5,17.05,C0X130
西港,23.125608,120.203108,1.08,30.48,-5.42,73.75,23.33,12.38,C0X140
安定,23.102614,120.227839,0.24,29.48,1.88,82.5,18.0,7.15,C0X150
仁德,22.968258,120.257689,-0.05,29.18,-0.18,79.83,24.33,9.36,C0X160
關廟,22.963017,120.327797,-0.28,28.95,4.85,82.33,22.33,5.33,C0X170
山上,23.0757,120.363253,0.01,28.37,0.04,82.67,21.5,7.19,C0X180
安平,22.993161,120.152181,-0.07,29.53,-10.66,69.67,24.25,12.78,C0X190
左鎮,23.056758,120.408522,0.91,28.77,-2.6,83.0,23.33,5.04,C0X200
白河,23.347466,120.414427,-0.44,27.83,4.49,85.33,34.25,20.49,C0X210
學甲,23.230367,120.182187,0.35,28.77,1.2,82.0,16.83,6.11,C0X220
鹽水,23.272621,120.247641,-0.08,28.15,1.54,85.67,22.75,10.86,C0X230
關子嶺,23.331169,120.508025,-0.46,25.63,6.88,91.0,38.33,15.83,C0X240
新營,23.310689,120.316681,-0.12,28.65,1.88,82.17,24.5,7.47,C0X250
後壁,23.366358,120.362326,-0.07,28.32,-0.28,81.83,30.5,15.75,C0X260
將軍,23.214999,120.13577,0.18,28.77,-1.48,80.5,16.0,3.6,C0X280
北門,23.267772,120.125481,0.08,28.88,-0.12,82.0,24.42,14.04,C0X290
鹿寮,23.386047,120.477331,-0.48,27.07,1.92,87.17,21.5,5.62,C0X300
柳營,23.253328,120.375253,-1.0,28.03,9.12,85.5,24.42,21.35,C0X320
明里,23.208717,121.262342,-1.16,26.78,-1.62,81.33,16.33,8.03,C0Z020
佳心,23.34567,121.21316,-0.55,23.13,4.96,88.33,15.25,6.46,C0Z050
玉里,23.3215,121.339656,-1.06,27.12,-9.21,75.5,14.42,6.59,C0Z061
舞鶴,23.46811,121.37407,-0.63,26.47,-4.36,81.33,12.33,7.01,C0Z070
富源,23.587642,121.378225,-0.49,26.82,-2.79,83.5,8.5,0.91,C0Z080
東華,23.89525,121.549833,-0.12,28.42,2.02,83.83,0.0,-6.93,C0Z100
吉安光華,23.930925,121.595153,0.28,28.2,0.02,83.83,4.25,2.75,C0Z150
鳳林,23.746114,121.453411,-0.2,27.57,-2.07,76.83,4.75,3.39,C0Z160
卓溪,23.3443,121.3029,-1.1,27.18,-1.38,76.5,15.0,12.98,C0Z170
新城,24.040486,121.604878,0.45,28.57,-5.29,75.67,4.17,1.96,C0Z180
富世,24.14743,121.6297,-0.07,28.28,-6.0,79.5,9.42,5.52,C0Z190
萬榮,23.709219,121.420106,0.12,27.55,-4.32,77.33,5.5,2.55,C0Z200
瑞穗,23.5239,121.39021,0.02,27.62,0.75,82.5,14.58,13.46,C0Z210
和平林道,24.343922,121.656317,-0.01,25.35,-8.5,80.0,3.58,1.1,C0Z220
和平,24.30717,121.77007,-0.33,28.22,-4.75,73.83,3.92,-0.27,C0Z230
瑞穗林道,23.49284,121.30688,-0.84,21.73,2.75,93.17,11.17,8.71,C0Z250
蕃薯寮,23.73835,121.540108,0.01,26.22,-3.07,84.33,6.42,5.37,C0Z270
德武,23.47426,121.41071,-0.21,27.12,-1.0,82.0,13.75,12.08,C0Z280
赤柯山,23.36893,121.38293,-0.64,22.82,-2.83,84.17,17.67,14.0,C0Z290
東里,23.26853,121.30547,-0.72,27.17,-4.25,79.83,17.75,14.58,C0Z300
清水斷崖,24.218294,121.689142,0.05,27.92,-8.57,80.33,4.67,-4.52,C0Z310
清水林道,23.27125,121.188272,-0.73,24.22,-3.62,80.0,15.08,8.67,C0Z320
安通山,23.290728,121.348528,-1.07,25.35,3.17,84.5,16.92,15.31,C0Z330
口湖工作站,23.589978,120.180394,-0.06,28.47,1.48,77.17,14.67,10.1,12J990
東港工作站,22.479997,120.466058,0.16,28.75,-4.92,69.33,18.25,5.19,12Q970
恆春工作站,22.079678,120.714425,-0.68,28.05,-0.25,78.5,33.08,19.97,12Q980
萬大發電廠,23.978875,121.139639,0.97,23.63,-15.23,75.83,1.42,-7.22,42HA10
桃改樹林分場,24.944503,121.386972,1.12,30.17,-11.75,65.0,0.0,-8.12,72AI40
桃園農改場,24.950944,121.030583,1.18,29.95,-4.84,73.33,0.0,-1.88,72C440
桃改五峰分場,24.612194,121.157167,0.48,23.08,3.44,89.33,2.17,-10.17,72D080
臺中農改場,24.003028,120.534389,-0.18,28.9,7.78,87.5,19.0,11.38,72G600
中改埔里分場,23.903208,120.963364,0.83,25.18,-2.83,87.17,3.5,-1.19,72HA00
南改斗南分場,23.634556,120.477333,-0.59,28.23,5.14,85.5,14.25,3.55,72K220
南改義竹分場,23.360694,120.279361,-1.11,27.98,-0.72,82.83,33.92,25.35,72M360
南改鹿草分場,23.416869,120.283061,-0.26,28.45,3.48,83.67,23.83,16.65,72M700
臺南農改場,23.0605,120.342194,-1.01,28.07,6.86,87.33,21.75,14.51,72N100
七股研究中心,23.081672,120.062894,0.44,29.25,-2.85,80.83,22.92,3.51,72N240
高雄農改場,22.709333,120.525889,-0.89,28.18,3.64,83.17,23.0,11.18,72Q010
東改班鳩分場,22.829528,121.077694,-0.96,26.22,2.79,82.67,33.92,24.38,72S200
東改賓朗果園,22.813889,121.071278,-1.4,25.42,-0.54,87.5,33.17,24.8,72S590
花蓮農改場,23.975222,121.563889,0.22,28.43,-3.1,76.0,4.75,-2.29,72T250
花改蘭陽分場,24.686306,121.716583,0.45,29.05,-5.57,75.17,1.92,-3.01,72U480
高改旗南分場,22.857861,120.516667,-1.56,27.97,9.23,84.33,22.42,13.17,72V140
茶改北部分場,24.955778,121.631222,0.8,27.03,-5.85,76.5,0.5,-9.28,82A750
茶改場,24.908472,121.185333,0.85,29.08,-10.79,67.5,0.0,-5.71,82C160
茶改中部分場,23.875611,120.913583,-1.54,22.53,3.03,90.33,2.83,-11.38,82H320
茶改南部分場,23.762528,120.7405,0.21,26.13,-1.59,86.17,6.0,-14.64,82H840
茶改東部分場,22.907694,121.130139,-1.2,26.73,2.38,82.83,30.42,18.87,82S580
農工中心,24.985917,121.239833,1.05,30.35,-5.58,64.33,0.0,-4.29,A2C560
水試臺西試驗場,23.717231,120.190522,-0.54,28.9,2.42,88.5,10.25,-0.34,A2K360
臺大雲林校區,23.730628,120.423903,-0.59,28.43,4.17,82.67,27.5,24.31,A2K630
臺南蘭花園區,23.340258,120.379661,-0.64,27.83,5.29,87.67,23.75,20.12,A2N290
畜試北區分所,24.527806,120.770972,-0.35,28.17,10.71,87.67,3.75,2.1,B2E890
畜產試驗所,23.058972,120.336406,-0.95,27.72,4.33,87.0,22.58,13.36,B2N890
畜試南區分所,21.945583,120.802167,-1.51,27.2,0.26,84.0,68.75,56.28,B2Q810
畜試東區分所,24.669039,121.832561,0.92,29.3,-1.46,81.17,3.92,2.23,B2U990
蓮華池,23.918333,120.885278,-1.03,25.07,6.51,85.67,2.5,-12.72,E2H360
林試畢祿溪站,24.226944,121.308522,0.25,17.1,-8.55,74.2,0.0,-2.62,E2HA20
四湖植物園,23.676986,120.163433,0.29,28.85,9.65,94.83,12.25,0.69,E2K600
林試六龜中心,22.991703,120.645722,-0.79,26.4,7.33,88.83,14.17,14.17,E2P980
林試太麻里2,22.598,120.99775,-2.53,27.22,10.25,83.5,45.33,45.33,E2S960
林試太麻里1,22.598922,120.980044,-2.65,26.72,11.04,84.17,48.75,48.75,E2S980
農試所(霧峰),24.031261,120.688133,0.07,28.88,1.07,80.83,9.58,-0.23,G2F820
農試嘉義分所,23.485028,120.473806,-1.55,26.9,11.02,87.0,18.58,11.99,G2L020
農試溪口農場,23.58565,120.408111,-0.88,28.55,2.38,82.67,9.75,5.75,G2M350
農試鳳山分所,22.646611,120.356083,-1.21,28.32,7.43,81.83,26.5,18.8,G2P820
苗栗農改場,24.495722,120.829111,-0.75,28.0,5.83,83.4,5.1,0.45,K2E360
苗改生物防治研究中心,24.422861,120.871833,0.24,26.87,2.88,83.33,9.83,1.92,K2E710
種苗改良場,24.225972,120.800917,0.1,26.52,1.44,82.0,11.17,-2.9,K2F750
溪頭,23.670306,120.798194,-0.04,20.65,5.32,95.5,7.0,-5.27,U2H480
臺大和社,23.590856,120.888864,1.37,24.72,-3.19,85.5,2.33,-3.48,U2HA30
臺大內茅埔,23.689722,120.851117,0.7,25.87,-4.21,83.17,2.58,-2.14,U2HA40
臺大竹山,23.756972,120.681556,0.44,27.9,-2.17,81.0,15.33,0.31,U2HA50
