站名,緯度,經度,平均溫距平,本年度平均溫,平均溼度距平,本年度日均相對溼度,本年度日均降水量,日均降水量距平,站號
淡水,25.164889,121.448906,2.8,31.83,-15.16,60.33,0.0,-4.41,466900
鞍部,25.182586,121.529731,0.46,23.9,0.12,86.0,0.03,-8.38,466910
臺北,25.037658,121.514853,1.78,31.87,-9.94,61.0,0.0,-8.78,466920
竹子湖,25.162078,121.544547,1.14,26.23,-5.88,77.0,0.0,-8.09,466930
基隆,25.133314,121.740475,1.44,31.03,-3.8,68.33,0.03,-4.46,466940
花蓮,23.975128,121.613275,1.31,30.03,-4.18,73.33,0.33,-7.22,466990
新屋,25.006725,121.047492,1.26,30.8,-6.36,71.67,0.0,-0.68,467050
宜蘭,24.763975,121.756528,0.72,29.73,2.2,79.67,0.03,-4.23,467080
金門,24.407306,118.289281,2.38,30.93,-14.74,71.0,0.0,-0.76,467110
田中,23.873803,120.581286,0.75,30.37,-4.6,76.0,0.0,-1.8,467270
澎湖,23.565503,119.563094,0.77,29.8,1.71,84.67,0.0,-3.93,467350
臺南,22.99328,120.20492,1.0,30.83,-3.58,71.67,0.0,-9.75,467410
永康,23.038386,120.2367,1.23,30.8,-0.23,72.33,0.0,-9.56,467420
嘉義,23.495925,120.432906,-0.14,29.2,5.56,81.0,6.5,-5.34,467480
臺中,24.145736,120.684075,1.52,30.67,-0.98,72.67,0.0,-11.47,467490
阿里山,23.508208,120.813242,0.03,15.0,3.24,92.33,0.0,-25.81,467530
大武,22.35572,120.90374,0.52,29.6,1.21,77.33,1.0,-9.04,467540
玉山,23.48718,120.95943,0.71,9.03,-4.42,67.67,0.0,-17.56,467550
新竹,24.827853,121.014219,1.38,30.97,-3.32,69.67,0.0,-3.59,467571
恆春,22.003897,120.746339,0.74,29.9,-4.07,75.67,2.89,-6.21,467590
成功,23.097486,121.373428,0.74,29.1,-2.56,77.33,0.36,-7.08,467610
日月潭,23.881325,120.90805,1.26,24.37,6.93,90.67,0.0,-18.37,467650
臺東,22.752211,121.154586,0.68,30.03,-0.27,75.33,0.5,-6.73,467660
馬祖,26.169467,119.923158,0.17,27.7,9.07,93.33,0.06,-3.09,467990
山佳,24.974944,121.402008,2.46,31.87,-9.62,65.33,0.0,-8.9,C0A520
坪林,24.938183,121.70975,2.63,29.07,-7.35,80.67,0.0,-9.88,C0A530
泰平,24.971197,121.823711,1.51,26.93,-2.5,88.0,0.0,-8.29,C0A550
桶後,24.848222,121.597992,2.15,28.0,-13.43,75.67,0.0,-10.3,C0A570
石碇,24.993969,121.662917,2.0,29.0,-16.52,70.33,0.0,-6.42,C0A640
大坪,25.165914,121.632969,0.93,27.6,-2.23,81.33,0.0,-6.87,C0A860
五指山,25.132153,121.608692,2.25,26.77,-4.22,85.67,0.0,-7.24,C0A870
雙溪,25.036003,121.864242,2.34,30.53,-3.28,79.33,0.0,-5.5,C0A890
三和,25.233153,121.595236,0.55,28.37,3.33,86.0,0.0,-6.06,C0A931
金山,25.223628,121.643967,1.23,30.1,-6.57,71.67,0.0,-5.58,C0A940
鼻頭角,25.129036,121.923372,0.97,29.43,3.2,86.67,0.0,-1.2,C0A950
三貂角,25.007606,122.002058,1.92,29.93,1.73,83.67,0.0,-1.92,C0A970
社子,25.109508,121.469681,2.42,32.53,-11.52,62.33,0.0,-5.3,C0A980
天母,25.117494,121.537169,1.76,31.57,-12.05,59.67,0.0,-6.8,C0A9C0
內湖,25.079422,121.57545,2.05,32.27,-7.25,64.0,0.0,-9.88,C0A9F0
大屯山,25.175675,121.522408,1.8,23.97,1.78,96.0,0.0,-3.49,C0AC40
三峽,24.939025,121.369728,3.4,32.9,-9.07,66.33,0.0,-6.28,C0AC60
信義,25.037822,121.564597,1.56,31.57,-8.19,64.33,0.0,-8.74,C0AC70
文山,25.00235,121.575728,1.6,30.83,-16.01,63.67,0.0,-8.35,C0AC80
新莊,25.051478,121.446756,1.68,32.3,-12.09,56.0,0.0,-5.15,C0ACA0
八里,25.150211,121.403947,2.77,32.7,-4.05,68.0,0.0,-2.99,C0AD10
蘆洲,25.086594,121.472331,1.29,32.13,-3.02,65.67,0.0,-4.27,C0AD30
土城,24.973208,121.445169,1.19,30.37,-7.3,69.67,0.0,-8.4,C0AD40
鶯歌,24.951533,121.346294,2.45,32.0,-9.66,66.67,0.0,-7.0,C0AD50
汐止,25.066881,121.658778,1.48,31.1,-14.0,62.67,0.0,-7.96,C0AH00
永和,25.01125,121.508111,2.13,32.03,-3.47,65.33,0.0,-11.04,C0AH10
五分山,25.07125,121.780794,2.11,26.13,0.09,92.33,0.0,-7.64,C0AH30
平等,25.129142,121.577086,0.59,27.83,-5.82,73.33,0.0,-10.95,C0AH40
林口,25.072181,121.38084,2.28,30.53,-8.48,71.67,0.0,-9.05,C0AH50
松山,25.04871,121.55042,1.71,31.73,-0.8,64.0,0.0,-13.23,C0AH70
深坑,25.002703,121.628328,2.49,30.53,-11.53,70.67,0.0,-14.0,C0AH80
福山植物園,24.760717,121.58135,0.45,24.53,0.47,90.67,0.0,-7.4,C0AH90
五股,25.07445,121.42728,3.17,31.7,-6.53,70.33,0.0,-12.23,C0AI00
屈尺,24.92184,121.54475,3.61,31.83,-14.2,68.33,0.0,-13.0,C0AI10
白沙灣,25.283128,121.519058,1.54,29.97,-1.03,76.67,0.0,-5.65,C0AI20
三重,25.057328,121.500629,2.54,32.4,-15.27,65.33,0.0,-15.0,C0AI30
石牌,25.115597,121.513139,1.82,32.07,-8.23,62.67,0.0,-17.8,C0AI40
七堵,25.094819,121.71713,2.06,31.47,-6.4,70.33,0.0,-9.8,C0B010
基隆嶼,25.19141,121.78391,0.53,28.73,5.07,94.67,0.0,-6.7,C0B020
復興,24.820208,121.352281,2.34,27.77,-13.51,70.0,0.0,-9.43,C0C460
桃園,24.992425,121.323172,1.97,31.9,-7.95,59.0,0.0,-5.7,C0C480
八德,24.928708,121.283289,1.92,30.97,-11.09,62.33,0.0,-6.48,C0C490
觀音,25.027072,121.153317,1.99,30.77,-6.42,69.33,0.0,-1.04,C0C590
蘆竹,25.084275,121.265767,2.77,32.27,-12.33,63.0,0.0,-2.0,C0C620
大溪,24.882853,121.265547,1.79,29.63,-5.82,67.67,0.0,-6.48,C0C630
平鎮,24.897503,121.214636,1.73,29.73,-4.48,70.33,0.0,-5.5,C0C650
楊梅,24.912375,121.143047,1.23,30.27,-3.68,66.67,0.0,-6.74,C0C660
龍潭,24.870056,121.221389,1.42,29.37,-4.97,69.0,0.0,-15.14,C0C670
龜山,25.02846,121.38656,1.66,29.8,-18.87,55.33,0.0,-11.78,C0C680
中壢,24.977661,121.256375,1.39,30.7,-6.93,62.33,0.0,-11.6,C0C700
大溪永福,24.892936,121.324975,2.5,30.1,-11.73,70.67,0.0,-23.75,C0C710
梅花,24.678347,121.208558,1.21,26.37,-3.23,82.67,0.0,-15.85,C0D360
峨眉,24.6905,121.017189,0.97,28.97,3.76,87.33,0.0,-4.77,C0D430
打鐵坑,24.849664,121.150789,1.24,28.1,-7.04,75.67,0.0,-4.66,C0D480
橫山,24.71116,121.11693,1.28,28.2,5.24,88.67,0.0,-7.38,C0D540
雪霸,24.526972,121.11605,0.12,18.93,8.34,89.0,0.0,-3.28,C0D550
竹東,24.767147,121.057881,2.74,31.0,-2.73,68.33,0.0,-2.08,C0D560
寶山,24.735006,121.025192,1.19,28.47,2.26,84.0,0.0,-2.94,C0D580
新豐,24.87068,120.97721,1.58,29.87,-1.47,76.67,0.0,-0.68,C0D590
湖口,24.904794,121.043628,1.43,30.73,-6.58,67.33,0.0,-0.9,C0D650
新竹市東區,24.798681,120.986942,1.17,30.3,-2.63,69.0,0.0,-4.52,C0D660
竹南,24.708978,120.888897,1.31,30.47,6.47,79.67,0.0,-3.57,C0E420
南庄,24.601775,121.000214,1.03,27.77,4.71,85.67,0.17,-8.67,C0E430
明德,24.583486,120.885411,1.19,29.93,3.99,80.33,1.0,-2.15,C0E550
通霄,24.471892,120.704622,1.06,29.93,1.6,81.33,0.0,-2.37,C0E590
馬都安,24.451272,120.930192,0.96,24.83,3.81,88.67,0.0,-12.32,C0E610
頭份,24.688247,120.912206,1.07,30.9,4.69,73.0,0.0,-1.82,C0E730
造橋,24.637056,120.864778,0.92,30.23,2.51,79.67,0.0,-2.01,C0E740
苗栗,24.564569,120.824575,0.52,30.3,0.38,70.33,0.0,-3.38,C0E750
銅鑼,24.489681,120.790853,1.3,29.97,-1.53,75.67,0.0,-4.81,C0E780
西湖,24.562947,120.7485,1.27,29.73,0.24,83.67,0.0,-1.71,C0E810
獅潭,24.539133,120.920042,1.24,29.0,-0.3,81.5,0.0,-3.42,C0E820
苑裡,24.439714,120.653053,1.11,30.5,0.36,76.33,0.0,-3.74,C0E830
大河,24.618069,120.948578,-0.83,27.33,2.52,80.0,0.0,-7.1,C0E850
高鐵苗栗,24.60725,120.826094,0.32,30.03,16.67,84.67,0.0,-0.97,C0E870
石岡,24.276061,120.777644,2.11,28.93,-1.82,80.33,0.0,-15.0,C0F0B0
中坑,24.248517,120.903319,0.92,23.2,0.52,92.67,9.0,-13.77,C0F0C0
審馬陣,24.381675,121.4203,3.47,14.47,-41.53,49.0,0.0,-5.9,C0F0D0
東勢,24.246428,120.833047,2.38,29.3,-4.07,75.0,0.0,-12.26,C0F850
大坑,24.173142,120.722289,2.4,31.1,0.96,75.0,0.0,-8.93,C0F970
神岡,24.272481,120.658314,1.39,29.67,-4.06,76.0,0.0,-4.73,C0F9I0
大安,24.345061,120.588025,0.9,30.13,0.62,79.67,0.0,-4.34,C0F9K0
后里,24.310436,120.729725,1.66,30.1,-0.58,77.0,0.0,-5.81,C0F9L0
豐原,24.254322,120.720692,3.48,31.87,-4.51,70.67,0.0,-6.74,C0F9M0
大里,24.092464,120.701378,2.55,32.13,1.67,74.0,0.0,-8.29,C0F9N0
潭子,24.213106,120.703933,2.0,31.33,1.22,75.0,0.0,-6.69,C0F9O0
清水,24.312297,120.562242,1.02,30.77,-0.2,78.0,0.0,-4.08,C0F9P0
外埔,24.347817,120.705686,0.96,29.63,0.42,79.67,0.0,-4.61,C0F9Q0
龍井,24.184536,120.528972,1.24,30.83,-6.44,75.33,0.0,-5.16,C0F9R0
烏日,24.107058,120.624103,1.73,31.03,-3.89,70.33,0.0,-7.0,C0F9S0
西屯,24.179494,120.641275,1.34,30.7,-2.02,71.67,0.0,-6.2,C0F9T0
南屯,24.137006,120.637969,1.31,30.93,-2.29,71.33,0.0,-7.52,C0F9U0
新社,24.200172,120.815806,1.57,27.5,0.13,84.67,0.17,-13.24,C0F9V0
大雅(中科園區),24.21528,120.62445,2.03,29.87,-2.92,77.0,0.0,-6.98,C0F9X0
桃山,24.432739,121.303808,2.52,13.03,-32.36,54.0,0.0,-8.68,C0F9Y0
雪山東峰,24.388792,121.268675,2.58,14.03,-29.92,54.0,0.0,-6.1,C0F9Z0
芬園,24.015678,120.6213,1.12,29.5,2.84,84.0,0.0,-10.54,C0G620
員林,23.946503,120.585597,3.05,32.5,-5.74,73.33,0.0,-9.92,C0G650
溪湖,23.94835,120.479122,1.89,30.9,-5.4,77.33,0.0,-11.72,C0G660
溪州,23.851589,120.499093,1.92,30.13,-8.96,73.0,0.0,-19.38,C0G720
二林,23.903325,120.376081,1.57,30.03,-1.48,86.0,0.0,-16.91,C0G730
大城,23.852487,120.320935,1.44,29.8,-1.32,81.0,0.0,-17.59,C0G740
福興,24.041289,120.437669,1.34,31.33,-7.38,74.0,0.0,-12.01,C0G770
秀水,24.03405,120.503869,1.59,31.17,-1.93,78.0,0.0,-11.09,C0G780
埔鹽,24.000394,120.431683,1.93,31.1,-6.91,76.0,0.0,-12.57,C0G800
埔心,23.947633,120.525456,2.55,32.2,-0.81,74.33,0.0,-11.72,C0G810
田尾,23.901669,120.509389,1.98,31.13,-1.18,81.33,0.0,-12.47,C0G820
埤頭,23.866003,120.452806,1.19,30.5,0.13,85.33,0.0,-11.06,C0G830
社頭,23.897647,120.5862,1.66,31.43,7.09,79.0,0.0,-13.73,C0G860
二水,23.810742,120.6173,2.4,31.23,-2.91,76.33,0.0,-12.44,C0G880
伸港,24.148933,120.484403,0.96,30.47,-1.76,78.0,0.0,-5.68,C0G890
線西,24.143358,120.443536,0.58,30.6,-1.27,78.33,0.0,-3.8,C0G900
埔里,23.972169,120.952425,3.2,28.83,-12.99,73.33,0.0,-10.88,C0H890
草屯,23.973672,120.68085,1.79,30.47,-3.72,73.0,0.0,-9.97,C0H960
昆陽,24.121322,121.273642,1.9,13.77,-26.4,62.0,0.0,-9.82,C0H990
神木村,23.532742,120.843667,1.36,21.07,-5.17,88.67,0.0,-22.76,C0H9A0
合歡山,24.143442,121.272547,1.41,12.0,-4.69,72.67,0.0,-7.24,C0H9C0
廬山,24.033311,121.181808,1.36,21.77,-12.31,75.33,0.0,-12.69,C0I010
信義,23.689694,120.851036,2.58,27.23,-11.08,78.0,0.0,-9.74,C0I080
竹山,23.761225,120.688156,1.73,29.43,-5.44,78.33,1.0,-17.31,C0I110
水里,23.812553,120.849792,2.55,28.9,-10.56,73.0,0.0,-12.82,C0I360
魚池,23.895703,120.94135,2.81,26.97,-11.25,76.67,0.0,-14.68,C0I370
集集,23.828206,120.801467,2.45,29.23,-10.8,75.0,0.0,-21.58,C0I380
仁愛,24.022122,121.132206,1.75,23.23,-11.81,76.67,0.0,-9.2,C0I390
名間,23.837053,120.701447,1.83,29.0,-1.32,80.0,0.0,-13.64,C0I410
國姓,24.037803,120.855072,3.23,29.37,-11.53,75.67,0.0,-17.16,C0I420
南投,23.911469,120.687331,2.15,30.37,-1.43,77.33,0.0,-19.7,C0I460
梅峰,24.085272,121.173572,1.9,17.93,-13.84,78.0,0.0,-14.68,C0I480
萬大林道,23.928228,121.091411,2.01,21.27,-12.63,79.33,0.0,-10.76,C0I490
小奇萊,24.131764,121.295717,3.09,13.73,-26.87,67.67,0.0,-15.07,C0I530
崙背,23.75555,120.318925,1.47,29.67,-7.87,77.33,0.0,-16.74,C0K250
四湖,23.630414,120.227125,1.41,30.37,-8.59,76.33,0.0,-5.33,C0K280
宜梧,23.536281,120.169329,1.09,30.3,-3.3,78.67,0.0,-5.18,C0K291
虎尾,23.719183,120.442036,1.15,30.57,-1.71,78.0,0.0,-9.77,C0K330
土庫,23.679029,120.395574,1.5,29.97,-6.62,74.67,0.0,-13.54,C0K390
斗六,23.720583,120.541127,1.86,30.07,-8.38,73.33,0.5,-17.86,C0K400
北港,23.573957,120.292802,1.48,30.03,-7.21,75.0,0.17,-8.67,C0K410
西螺,23.800407,120.467394,2.2,30.6,-9.7,73.33,0.0,-16.98,C0K420
褒忠,23.690938,120.303634,1.5,29.9,-4.29,78.0,0.0,-11.29,C0K430
二崙,23.772797,120.408944,1.8,30.2,-6.02,76.5,0.0,-17.64,C0K440
大埤,23.646074,120.431537,1.69,30.13,-6.68,74.0,0.17,-15.55,C0K450
斗南,23.678734,120.478359,1.57,30.0,-2.08,75.67,4.17,-12.03,C0K460
林內,23.748675,120.609642,1.71,29.2,-4.87,78.33,0.17,-19.95,C0K470
莿桐,23.761192,120.502372,1.87,30.0,-5.49,74.67,0.17,-21.71,C0K480
元長,23.64981,120.315024,1.73,30.37,-4.82,75.0,0.0,-13.02,C0K500
水林,23.572924,120.24597,1.75,30.5,-4.4,75.67,0.0,-10.57,C0K510
臺西,23.701547,120.197559,1.22,29.7,-1.73,80.67,0.0,-11.16,C0K530
蔦松,23.514319,120.229736,1.72,30.3,-6.24,77.0,0.0,-12.06,C0K550
棋山,23.68645,120.603417,1.59,29.17,1.27,83.67,7.17,-15.88,C0K560
高鐵雲林,23.737456,120.417944,1.75,29.97,-9.93,77.33,0.0,-23.07,C0K580
東後寮,23.369908,120.248065,1.41,29.67,-2.88,81.33,0.5,-13.61,C0M520
奮起湖,23.493903,120.699253,0.3,20.73,3.19,96.67,1.83,-21.92,C0M530
中埔,23.42538,120.5229,0.52,28.6,-1.81,75.33,9.67,-7.37,C0M640
朴子,23.43463,120.23902,0.81,29.3,-2.54,80.0,0.0,-13.96,C0M650
溪口,23.604131,120.403569,1.41,29.7,-6.24,76.33,0.33,-13.7,C0M660
大林,23.600616,120.45841,1.31,29.87,-2.82,76.0,4.83,-11.85,C0M670
太保,23.455062,120.331455,1.14,29.8,-7.58,74.67,4.67,-13.28,C0M680
水上,23.419734,120.388909,1.02,29.27,-2.8,78.67,1.17,-18.55,C0M690
竹崎,23.526178,120.555508,0.79,28.2,-0.93,82.33,19.17,-1.48,C0M700
東石,23.458927,120.15385,1.43,30.33,-6.6,76.33,0.0,-11.86,C0M710
番路,23.464657,120.554156,0.74,28.1,0.85,78.67,18.67,0.72,C0M720
嘉義市東區,23.457673,120.460531,0.73,29.37,0.54,79.0,4.67,-12.01,C0M730
六腳,23.492871,120.290625,1.41,29.97,-5.0,76.0,1.5,-11.96,C0M740
布袋,23.380878,120.167789,1.75,30.6,-7.64,75.0,0.0,-12.52,C0M750
民雄,23.551754,120.428457,0.63,29.4,-0.95,79.33,16.17,4.22,C0M760
嘉義梅山,23.585398,120.555587,0.96,28.87,0.5,80.0,8.0,-14.0,C0M770
鹿草,23.41134,120.30835,1.52,30.17,-2.2,78.33,1.67,-20.96,C0M780
新港,23.553269,120.345728,1.18,29.87,-5.08,74.67,1.83,-7.9,C0M790
茶山,23.299075,120.664767,2.01,26.77,-8.47,81.33,0.67,-22.45,C0M800
里佳,23.389125,120.716647,1.3,21.6,-2.99,87.33,0.33,-24.21,C0M810
達邦,23.453994,120.749517,1.85,23.77,-4.33,83.67,0.0,-17.16,C0M820
表湖,23.24186,120.64166,1.45,24.73,-8.0,85.33,12.83,-25.07,C0M850
新美,23.338017,120.683169,1.77,26.33,-2.33,83.67,0.33,-12.67,C0M860
北寮,23.079561,120.495008,1.22,28.93,2.68,86.33,0.0,-22.14,C0O830
王爺宮,23.222064,120.40085,3.12,30.93,-8.83,76.0,3.83,-13.14,C0O840
大內,23.11885,120.36083,2.16,31.07,-2.0,81.0,0.0,-16.0,C0O860
善化,23.112883,120.297219,1.62,30.67,3.57,87.0,0.0,-9.39,C0O900
崎頂,22.959547,120.369317,2.93,30.7,-6.97,78.33,0.0,-19.49,C0O960
虎頭埤,23.021375,120.347878,1.11,29.27,-5.52,79.33,0.0,-18.23,C0O970
新市,23.061614,120.298197,2.09,30.9,-6.35,77.33,0.17,-16.39,C0O980
媽廟,22.99175,120.293525,1.86,30.67,-6.36,76.67,0.0,-18.4,C0O990
尾寮山,22.833111,120.683889,1.05,23.57,0.71,93.0,0.0,-25.64,C0R100
阿禮,22.742908,120.743678,1.24,24.03,-7.53,80.67,0.0,-12.87,C0R130
瑪家,22.682903,120.686639,0.25,24.6,9.32,96.67,0.0,-26.41,C0R140
三地門,22.709889,120.639944,1.36,30.07,-7.68,72.67,0.0,-17.58,C0R150
鹽埔,22.739558,120.530778,1.39,29.83,-0.92,85.33,2.0,-19.43,C0R160
赤山,22.592333,120.614306,0.93,29.6,3.04,86.67,0.33,-22.6,C0R190
潮州,22.534361,120.54,0.69,29.9,-1.82,77.67,5.17,-8.11,C0R220
來義,22.527306,120.625111,-0.03,28.13,7.25,90.33,2.67,-22.22,C0R240
春日,22.370361,120.628306,-0.54,27.87,2.94,86.0,0.0,-19.97,C0R260
琉球嶼,22.332244,120.362236,2.2,31.0,-8.63,76.67,0.0,-6.31,C0R270
車城,22.0744,120.716247,0.38,29.3,-7.47,78.33,5.17,-1.63,C0R320
牡丹,22.130036,120.792639,0.37,27.13,-3.4,88.0,10.5,6.3,C0R341
貓鼻頭,21.921774,120.7358,0.47,29.33,-2.27,80.33,9.83,1.94,C0R350
大漢山,22.405264,120.753181,-0.73,17.83,2.07,98.67,2.83,-5.17,C0R440
高樹,22.826389,120.600806,1.18,29.87,-3.44,75.33,0.0,-19.87,C0R470
長治,22.693128,120.542622,1.68,30.53,-5.76,75.67,4.0,-16.77,C0R480
九如,22.7405,120.490503,1.56,30.47,-3.25,78.67,5.33,-18.01,C0R490
崁頂,22.514781,120.506914,0.54,29.73,-2.4,80.0,5.33,-17.67,C0R520
佳冬,22.419456,120.552375,0.65,29.8,-3.67,77.33,0.17,-18.96,C0R540
新埤,22.467947,120.582894,0.6,29.37,-6.99,76.67,1.0,-21.1,C0R550
新園,22.5434,120.461558,1.71,30.83,-8.83,73.0,12.83,-11.54,C0R560
麟洛,22.65078,120.52719,2.04,31.1,-1.25,80.67,8.17,-15.02,C0R570
南州,22.48591,120.50274,0.84,29.67,3.47,81.67,0.33,-18.82,C0R580
里港,22.77919,120.49459,1.42,30.0,-0.84,82.33,0.33,-20.07,C0R590
舊泰武,22.588194,120.664944,0.08,24.77,3.77,89.0,1.83,-27.54,C0R600
墾雷,21.900836,120.855269,-0.22,28.63,8.24,93.0,13.17,-2.07,C0R620
東港,22.46247,120.44074,1.26,30.23,-8.07,78.33,0.17,-12.4,C0R640
竹田,22.58486,120.54344,1.34,29.97,-8.43,79.67,4.0,-24.65,C0R650
枋寮,22.367722,120.590647,1.09,29.73,-1.07,81.33,0.0,-10.6,C0R660
楓港,22.190131,120.692156,0.81,29.67,-14.13,69.67,0.83,-11.37,C0R670
佳樂水,21.993578,120.861633,0.0,29.2,-0.13,83.67,15.0,12.8,C0R680
墾丁,21.966756,120.810269,-0.01,27.43,-0.73,88.67,12.83,10.43,C0R690
枋山,22.246844,120.661086,1.78,30.0,-12.93,72.67,0.0,-11.2,C0R700
龍磐,21.931672,120.838942,-1.13,28.13,5.2,89.0,10.33,9.23,C0R710
旭海,22.205403,120.887614,-0.67,27.37,3.0,87.0,5.83,5.03,C0R720
大坪頂,22.024633,120.69355,-0.01,28.37,-3.87,83.33,0.5,-4.4,C0R730
四林格山,22.076989,120.802439,-0.31,24.73,-2.4,95.0,13.0,3.0,C0R750
南仁湖,22.084681,120.863353,-0.59,26.07,8.47,98.67,19.67,13.37,C0R760
保力,22.071122,120.764111,1.29,28.47,-7.33,83.67,9.17,-7.33,C0R770
滿州,22.024403,120.839892,0.21,28.47,-2.8,83.0,15.33,13.43,C0R780
九棚,22.14195,120.889281,-0.99,27.97,4.6,86.0,20.5,14.4,C0R790
丹路,22.204481,120.750989,0.83,28.73,-11.2,76.0,4.17,-4.73,C0R800
內獅,22.305064,120.642986,0.35,29.23,-1.0,80.0,0.0,-6.4,C0R810
白鷺,22.454275,120.666219,1.17,25.93,-7.67,84.33,0.17,-9.63,C0R820
高士,22.121825,120.836781,-0.87,25.47,2.27,92.67,24.0,12.2,C0R830
牡丹池山,22.168389,120.841225,-0.22,25.1,3.13,97.33,7.83,4.13,C0R840
下馬,23.150427,121.070312,1.16,25.17,-8.63,75.67,0.0,-5.4,C0S660
太麻里,22.60902,120.98533,0.8,26.3,3.83,85.33,1.83,-4.42,C0S690
知本,22.684866,121.005642,0.31,26.07,4.7,88.0,0.33,-9.36,C0S700
鹿野,22.917711,121.122994,1.66,27.73,-6.0,79.0,0.5,-4.35,C0S710
綠島,22.6672,121.47533,0.77,28.9,-2.2,83.0,5.5,-0.14,C0S730
池上,23.119628,121.209469,1.1,28.47,-7.33,75.67,0.0,-7.8,C0S740
向陽,23.248397,120.986133,-0.28,15.7,1.5,88.0,1.67,-15.61,C0S750
大溪山,22.478475,120.943325,0.3,26.33,5.17,83.67,3.5,-5.82,C0S770
金崙,22.538122,120.966875,0.39,28.4,3.27,82.67,3.0,-3.51,C0S790
東河,22.972672,121.303986,-0.06,29.1,-0.47,82.33,0.5,-5.81,C0S810
長濱,23.286817,121.411975,0.41,28.23,-2.73,79.67,0.0,-7.3,C0S830
南田,22.279725,120.889208,0.77,29.47,-4.27,80.33,5.0,-6.59,C0S840
關山,23.0395,121.175017,1.46,29.0,-4.5,78.0,0.0,-3.7,C0S890
蘭嶼高中,22.04909,121.51214,-0.24,29.2,2.67,83.67,6.17,-7.68,C0S900
蘭嶼燈塔,22.081197,121.503117,-0.09,27.73,4.07,89.67,5.17,-8.48,C0S910
金峰嘉蘭,22.594789,120.960825,-1.68,27.53,4.75,77.0,1.5,-5.3,C0S920
延平,22.902581,121.084058,0.76,28.17,-3.89,76.67,0.17,-5.43,C0S930
石寧山,23.223772,121.406639,1.26,29.73,-1.92,79.33,0.0,-0.45,C0S940
七塊厝,22.954453,121.229922,0.67,27.23,-10.62,74.0,0.0,-15.55,C0S950
香蘭,22.587569,120.993375,0.33,29.53,-2.53,73.67,3.17,3.17,C0S960
加津林,22.416211,120.926942,0.45,29.47,4.04,78.67,2.0,-10.65,C0S970
勝林山,22.430439,120.8938,-1.65,22.73,10.17,94.67,3.0,-8.95,C0S980
山豬窟,22.318619,120.857372,-0.91,26.0,5.88,87.0,0.83,-15.17,C0S990
歷坵,22.520969,120.89185,-1.15,25.77,9.92,87.67,1.0,-8.25,C0SA00
檳榔四格山,22.810031,121.109308,0.92,26.97,-1.67,85.33,0.0,-5.9,C0SA10
金崙山,22.567419,120.959667,-1.73,22.97,12.25,93.0,4.0,-4.25,C0SA20
都歷,23.020333,121.323642,0.5,29.17,-3.12,75.0,0.5,-4.6,C0SA30
瑞和,22.974361,121.156697,0.85,28.63,-7.12,75.0,0.0,-5.05,C0SA40
知本（水試所）,22.702394,121.082761,0.25,29.57,-0.47,79.33,1.33,1.33,C0SA60
土坂,22.453108,120.887572,-0.39,28.43,8.33,81.33,4.33,4.33,C0SA80
達仁林場,22.264347,120.823972,-0.69,25.53,9.07,92.67,3.83,0.63,C0SA90
大禹嶺,24.186117,121.316086,0.15,14.2,-4.64,78.0,0.0,-9.29,C0T790
天祥,24.179597,121.495639,1.55,26.37,-10.47,72.67,0.0,-9.54,C0T820
鯉魚潭,23.935639,121.508944,0.51,27.43,-3.03,83.67,0.0,-5.28,C0T870
西林,23.8119,121.441458,0.94,28.87,-0.5,76.0,0.0,-1.4,C0T900
光復,23.660694,121.424964,0.97,28.97,-5.03,78.67,0.0,-6.15,C0T960
月眉山,23.809928,121.539828,1.19,26.53,-0.45,88.0,0.17,-6.23,C0T9A0
水源,23.991861,121.537169,0.45,25.5,1.18,87.33,3.67,-3.93,C0T9B0
和中,24.26676,121.74103,-0.13,28.3,-9.47,80.67,0.5,-5.98,C0T9D0
大坑,23.880628,121.581981,1.0,27.13,4.92,88.67,0.0,-5.48,C0T9E0
水璉,23.797131,121.542514,0.53,28.13,1.6,84.0,0.0,-4.98,C0T9F0
鳳林山,23.735269,121.420131,-0.34,25.87,-0.8,88.0,0.0,-5.88,C0T9G0
加路蘭山,23.682947,121.5274,1.43,26.47,9.05,94.0,0.5,-4.08,C0T9H0
豐濱,23.583897,121.514806,1.48,28.57,-1.43,81.67,0.5,-4.09,C0T9I0
靜浦,23.455167,121.495028,1.23,29.1,3.8,89.0,4.0,-0.83,C0T9M0
富里,23.171639,121.249378,1.01,28.33,-13.88,69.0,0.0,-9.7,C0T9N0
雙連埤,24.753033,121.641303,-0.54,24.83,0.27,91.33,1.33,-2.06,C0U520
礁溪,24.817539,121.765608,1.51,30.13,-5.93,77.0,0.33,-5.19,C0U600
玉蘭,24.675286,121.587061,0.25,26.73,-0.4,79.67,0.0,-6.7,C0U650
太平山,24.505486,121.525656,0.36,18.43,-8.8,85.0,0.0,-17.39,C0U710
南山,24.43742,121.38167,-0.55,22.37,0.67,82.33,0.0,-1.9,C0U720
龜山島,24.841667,121.953133,-0.27,25.97,4.4,92.33,0.0,-1.18,C0U750
東澳,24.52196,121.83318,0.89,29.77,-8.13,77.33,2.17,-3.35,C0U760
南澳,24.44935,121.81022,0.15,28.93,-3.6,82.0,0.5,-0.79,C0U770
五結,24.68637,121.79794,-0.28,29.4,-0.73,77.0,0.17,-0.32,C0U780
頭城,24.85323,121.8308,2.14,31.0,-7.6,79.0,0.0,-1.68,C0U860
大礁溪,24.791042,121.675047,-0.18,25.87,10.53,92.0,0.5,-4.37,C0U870
三星,24.66812,121.65302,0.48,28.73,-9.47,75.0,0.0,-1.63,C0U890
內城,24.71813,121.68766,1.19,29.47,-3.07,78.33,0.5,-0.6,C0U900
冬山,24.63373,121.7937,0.89,29.93,-2.67,71.33,0.17,-1.23,C0U910
羅東,24.68184,121.74934,1.12,30.0,-0.47,75.67,0.67,-0.2,C0U940
翠峰湖,24.510856,121.608044,0.49,18.47,-3.47,86.67,0.0,-9.4,C0U960
大福,24.80064,121.81389,1.1,29.83,0.43,78.33,0.17,-1.9,C0U970
坪林石牌,24.86478,121.77396,0.23,25.03,6.67,97.0,0.33,-12.27,C0U980
員山,24.74435,121.72247,0.79,29.53,1.27,80.0,1.0,-1.77,C0U990
土場,24.576533,121.495333,1.03,27.47,-12.53,76.33,0.0,-6.33,C0UA00
鴛鴦湖,24.590269,121.412228,0.07,18.97,5.17,93.67,0.0,-13.47,C0UA10
白嶺,24.527819,121.519031,-0.84,20.6,4.33,94.0,0.17,-4.2,C0UA30
西德山,24.560647,121.752608,0.94,23.5,-6.67,83.33,0.17,-3.9,C0UA40
西帽山,24.555361,121.802628,-0.29,23.93,-2.13,86.0,1.67,-1.7,C0UA50
樟樹山,24.41393,121.78325,0.27,25.9,2.4,84.67,0.5,-2.4,C0UA60
桃源谷,24.962606,121.888875,-0.09,25.3,7.4,98.0,0.17,-3.83,C0UA70
復興,23.222403,120.806089,1.46,25.8,-0.37,81.33,0.0,-10.49,C0V210
溪埔,22.738578,120.446797,1.1,29.67,3.67,85.0,10.0,-11.54,C0V350
內門,22.975481,120.466769,2.1,29.73,1.6,88.0,0.0,-22.66,C0V360
古亭坑,22.893178,120.401947,1.18,29.37,-4.04,82.33,0.0,-13.64,C0V370
阿公店,22.804194,120.355528,0.87,29.4,-1.78,80.33,1.0,-16.19,C0V400
鳳山,22.646653,120.356122,0.42,29.6,4.33,84.33,0.17,-18.15,C0V440
鳳森,22.545064,120.392592,0.62,29.33,-2.9,81.33,11.83,-4.25,C0V450
新興,22.627422,120.298803,1.01,30.8,-6.6,74.0,0.0,-9.16,C0V490
梓官,22.760558,120.267211,0.79,30.23,-0.97,77.67,0.83,-12.65,C0V610
永安,22.82315,120.236856,1.04,30.27,-6.3,77.33,0.0,-16.9,C0V620
茄萣,22.906642,120.182608,1.59,31.07,-0.9,76.67,0.0,-13.77,C0V630
湖內,22.887139,120.2445,0.8,29.97,-7.18,76.33,0.0,-14.66,C0V640
彌陀,22.783806,120.246361,1.17,30.33,-6.53,77.67,0.0,-14.86,C0V650
岡山,22.797078,120.294958,1.57,31.2,-3.37,75.0,0.67,-18.1,C0V660
仁武,22.701083,120.347722,1.29,30.8,0.31,77.0,2.33,-16.72,C0V680
鼓山,22.623325,120.275575,0.53,30.2,-0.34,78.0,0.0,-11.31,C0V690
三民,22.645017,120.311233,0.83,30.77,1.3,74.33,0.0,-13.59,C0V700
苓雅,22.622742,120.330669,1.57,31.17,3.09,78.0,1.0,-13.9,C0V710
林園,22.507747,120.394511,1.41,31.3,-0.46,77.0,0.5,-11.39,C0V720
大寮,22.605614,120.395717,0.77,30.17,2.91,82.0,2.33,-17.34,C0V730
旗山,22.888614,120.483597,2.12,30.63,-4.25,76.67,8.5,-14.19,C0V740
路竹,22.854997,120.259439,1.8,31.23,-6.13,73.67,0.0,-16.59,C0V750
橋頭,22.757806,120.30575,1.28,30.93,-5.63,73.0,1.5,-13.54,C0V760
大社,22.730306,120.346639,1.58,31.03,-1.5,77.0,1.33,-18.78,C0V770
萬山,22.905944,120.688056,1.99,27.87,-5.99,79.67,0.0,-19.97,C0V790
六龜,22.997889,120.633583,1.61,28.93,-1.55,79.33,0.83,-21.55,C0V800
左營,22.67491,120.28491,0.77,29.93,-1.57,78.67,2.0,-12.98,C0V810
小林,23.148408,120.63325,1.54,27.2,-3.37,83.33,0.0,-15.2,C0V820
東莒,25.9652,119.98069,0.54,28.27,0.67,89.33,0.0,-2.53,C0W110
西嶼,23.5626,119.468436,1.24,28.37,-2.03,90.33,0.0,-6.7,C0W120
花嶼,23.40007,119.32276,1.21,28.57,-0.33,88.67,0.0,-3.16,C0W130
金沙,24.488292,118.408778,2.24,30.57,-16.9,70.0,0.0,-1.13,C0W140
金寧,24.457703,118.328989,1.6,30.6,-19.9,69.0,0.0,-2.25,C0W150
東河,23.296598,120.385608,1.26,29.6,-7.94,74.67,2.5,-13.5,C0X050
下營,23.22695,120.256261,1.75,30.1,-7.15,76.67,1.0,-14.09,C0X060
臺南市北區,23.010394,120.194228,1.08,31.07,-0.11,74.67,0.0,-13.32,C0X100
臺南市南區,22.961189,120.188378,0.87,30.57,-5.0,76.33,0.0,-11.9,C0X110
麻豆,23.183289,120.248611,1.96,31.3,-2.27,77.33,0.0,-12.01,C0X120
官田,23.193217,120.315422,1.15,30.37,2.75,83.0,1.83,-12.3,C0X130
西港,23.125608,120.203108,1.5,31.0,-7.23,71.67,0.17,-12.11,C0X140
安定,23.102614,120.227839,1.85,31.2,-2.41,77.67,0.0,-12.14,C0X150
仁德,22.968258,120.257689,1.61,30.93,-3.49,76.33,0.0,-17.23,C0X160
關廟,22.963017,120.327797,1.27,30.57,0.77,78.0,0.0,-19.26,C0X170
山上,23.0757,120.363253,1.48,29.9,-4.12,78.33,0.17,-16.47,C0X180
安平,22.993161,120.152181,1.34,31.07,-14.28,65.67,0.0,-10.78,C0X190
左鎮,23.056758,120.408522,2.23,30.17,-5.72,79.33,0.0,-20.45,C0X200
白河,23.347466,120.414427,0.79,29.17,1.35,81.67,14.17,-0.32,C0X210
學甲,23.230367,120.182187,1.88,30.4,-3.36,77.0,0.0,-12.66,C0X220
鹽水,23.272621,120.247641,1.37,29.7,-2.98,80.67,0.17,-12.65,C0X230
關子嶺,23.331169,120.508025,0.65,26.8,3.51,87.67,11.0,-13.04,C0X240
新營,23.310689,120.316681,1.43,30.27,-3.52,76.33,1.5,-17.82,C0X250
後壁,23.366358,120.362326,1.28,29.73,-5.52,76.33,5.17,-12.58,C0X260
將軍,23.214999,120.13577,1.54,30.23,-5.5,76.0,0.0,-14.5,C0X280
北門,23.267772,120.125481,1.58,30.4,-4.57,77.67,0.0,-11.54,C0X290
鹿寮,23.386047,120.477331,0.55,28.13,-1.4,84.0,7.33,-6.43,C0X300
柳營,23.253328,120.375253,0.81,29.63,2.2,80.0,3.33,-1.07,C0X320
明里,23.208717,121.262342,0.3,28.27,-7.53,77.0,0.0,-2.77,C0Z020
佳心,23.34567,121.21316,0.4,24.13,0.73,84.33,0.0,-7.79,C0Z050
玉里,23.3215,121.339656,-0.26,28.07,-14.2,71.67,0.0,-1.62,C0Z061
舞鶴,23.46811,121.37407,0.46,27.63,-7.9,78.33,0.0,-2.08,C0Z070
富源,23.587642,121.378225,0.74,28.07,-7.53,80.0,0.0,-2.28,C0Z080
東華,23.89525,121.549833,0.75,29.27,0.3,83.0,0.0,-1.91,C0Z100
吉安光華,23.930925,121.595153,1.31,29.07,-2.12,82.33,0.0,-2.33,C0Z150
鳳林,23.746114,121.453411,1.04,28.57,-6.0,74.0,0.0,-2.12,C0Z160
卓溪,23.3443,121.3029,0.67,28.67,-7.53,72.0,0.0,-1.83,C0Z170
新城,24.040486,121.604878,1.3,29.23,-6.33,75.33,0.0,-3.0,C0Z180
富世,24.14743,121.6297,0.82,29.03,-9.0,77.33,7.17,2.27,C0Z190
萬榮,23.709219,121.420106,1.24,28.43,-7.8,75.0,0.0,-4.7,C0Z200
瑞穗,23.5239,121.39021,1.53,28.83,-3.6,79.33,0.0,-1.6,C0Z210
和平林道,24.343922,121.656317,0.83,26.0,-11.27,78.33,0.0,-3.97,C0Z220
和平,24.30717,121.77007,0.45,28.87,-7.27,72.0,0.0,-5.43,C0Z230
瑞穗林道,23.49284,121.30688,0.03,22.4,3.33,94.33,0.0,-2.67,C0Z250
蕃薯寮,23.73835,121.540108,0.98,27.1,-3.05,84.0,0.17,-1.51,C0Z270
德武,23.47426,121.41071,1.14,28.2,-4.93,79.33,0.0,-1.67,C0Z280
赤柯山,23.36893,121.38293,0.6,23.87,-6.73,81.33,0.0,-3.8,C0Z290
東里,23.26853,121.30547,0.93,28.5,-9.07,76.0,0.0,-4.47,C0Z300
清水斷崖,24.218294,121.689142,1.17,28.8,-11.47,78.33,0.17,-12.7,C0Z310
清水林道,23.27125,121.188272,0.69,25.3,-10.0,74.67,0.0,-8.97,C0Z320
安通山,23.290728,121.348528,0.26,26.4,0.4,82.67,0.0,-2.33,C0Z330
口湖工作站,23.589978,120.180394,1.51,29.87,-2.87,73.33,0.0,-6.13,12J990
東港工作站,22.479997,120.466058,1.47,30.0,-7.8,67.0,0.0,-15.59,12Q970
恆春工作站,22.079678,120.714425,1.13,29.67,-7.07,72.33,3.83,-10.34,12Q980
萬大發電廠,23.978875,121.139639,1.24,24.0,-15.27,75.33,0.0,-5.48,42HA10
桃改樹林分場,24.944503,121.386972,2.37,30.97,-16.07,62.33,0.0,-13.0,72AI40
桃園農改場,24.950944,121.030583,1.87,30.63,-5.37,72.67,0.0,-2.27,72C440
桃改五峰分場,24.612194,121.157167,1.12,23.67,2.77,88.67,0.0,-14.3,72D080
臺中農改場,24.003028,120.534389,1.18,30.27,5.34,85.0,0.0,-10.3,72G600
中改埔里分場,23.903208,120.963364,2.0,26.3,-6.73,83.67,0.0,-5.3,72HA00
南改斗南分場,23.634556,120.477333,0.6,29.47,1.86,82.0,1.83,-9.64,72K220
南改義竹分場,23.360694,120.279361,0.31,29.5,-5.74,78.0,1.5,-8.23,72M360
南改鹿草分場,23.416869,120.283061,1.45,29.87,-3.13,78.67,0.5,-9.35,72M700
臺南農改場,23.0605,120.342194,0.6,29.67,1.35,82.0,0.17,-9.16,72N100
七股研究中心,23.081672,120.062894,2.1,30.8,-6.9,77.0,1.0,-25.4,72N240
高雄農改場,22.709333,120.525889,0.38,29.6,0.17,79.0,6.67,-6.12,72Q010
東改班鳩分場,22.829528,121.077694,0.6,27.83,-2.28,77.33,1.5,-7.07,72S200
東改賓朗果園,22.813889,121.071278,0.08,26.93,-5.38,82.67,0.5,-8.12,72S590
花蓮農改場,23.975222,121.563889,0.75,28.97,-3.27,75.67,0.0,-6.59,72T250
花改蘭陽分場,24.686306,121.716583,0.94,29.5,-5.56,75.33,0.33,-3.49,72U480
高改旗南分場,22.857861,120.516667,-0.13,29.5,5.09,80.0,2.83,-7.98,72V140
茶改北部分場,24.955778,121.631222,1.51,27.7,-7.04,75.0,0.0,-11.58,82A750
茶改場,24.908472,121.185333,1.54,29.73,-11.58,66.67,0.0,-6.7,82C160
茶改南部分場,23.762528,120.7405,1.78,27.5,-5.9,82.33,0.0,-23.9,82H840
茶改東部分場,22.907694,121.130139,0.44,28.4,-3.08,77.0,0.0,-8.86,82S580
農工中心,24.985917,121.239833,1.86,31.1,-8.0,62.0,0.0,-4.99,A2C560
水試臺西試驗場,23.717231,120.190522,0.79,30.17,-1.43,85.33,0.0,-10.54,A2K360
臺大雲林校區,23.730628,120.423903,1.29,29.87,-3.6,78.0,0.0,-5.1,A2K630
臺南蘭花園區,23.340258,120.379661,1.07,29.23,-0.87,83.33,5.17,-0.63,A2N290
畜試北區分所,24.527806,120.770972,0.72,28.97,8.27,86.33,0.0,-2.1,B2E890
畜產試驗所,23.058972,120.336406,0.52,29.27,-0.97,81.67,0.0,-10.17,B2N890
畜試南區分所,21.945583,120.802167,-0.28,28.6,-4.19,79.33,16.83,7.06,B2Q810
畜試東區分所,24.669039,121.832561,1.36,29.6,2.0,84.0,1.0,-0.7,B2U990
蓮華池,23.918333,120.885278,-0.03,26.17,5.0,83.0,0.0,-20.07,E2H360
林試畢祿溪站,24.226944,121.308522,0.22,17.0,-10.73,72.67,0.0,-3.6,E2HA20
四湖植物園,23.676986,120.163433,2.0,30.2,7.3,94.0,0.0,-17.5,E2K600
林試六龜中心,22.991703,120.645722,0.81,27.83,1.2,84.0,0.5,0.5,E2P980
林試太麻里2,22.598,120.99775,-0.35,28.97,3.0,79.0,1.83,1.83,E2S960
林試太麻里1,22.598922,120.980044,-0.58,28.4,4.47,79.67,1.67,1.67,E2S980
農試所(霧峰),24.031261,120.688133,1.36,30.23,-2.47,77.0,0.0,-10.99,G2F820
農試嘉義分所,23.485028,120.473806,-0.88,27.73,10.04,85.33,7.67,3.57,G2L020
農試溪口農場,23.58565,120.408111,0.61,29.9,-1.8,79.0,1.17,-4.5,G2M350
農試鳳山分所,22.646611,120.356083,0.08,29.8,5.75,79.33,0.17,-5.75,G2P820
苗栗農改場,24.495722,120.829111,0.61,29.4,1.89,79.0,0.0,-4.56,K2E360
苗改生物防治研究中心,24.422861,120.871833,1.57,27.87,-1.33,80.67,0.0,-7.77,K2E710
種苗改良場,24.225972,120.800917,1.36,27.73,-2.36,78.0,0.0,-17.73,K2F750
溪頭,23.670306,120.798194,2.13,22.8,1.8,92.0,11.0,-4.57,U2H480
臺大和社,23.590856,120.888864,2.64,26.07,-8.27,80.33,0.0,-5.35,U2HA30
臺大內茅埔,23.689722,120.851117,2.09,27.2,-9.7,78.0,0.0,-5.8,U2HA40
臺大竹山,23.756972,120.681556,2.33,29.43,-9.2,76.0,0.83,-19.43,U2HA50
