站名,緯度,經度,平均溫距平,本年度平均溫,平均溼度距平,本年度日均相對溼度,本年度日均降水量,日均降水量距平,站號
淡水,25.164889,121.448906,1.18,27.3,-4.83,75.0,0.0,-16.35,466900
鞍部,25.182586,121.529731,1.41,22.2,1.83,91.0,0.0,-20.15,466910
臺北,25.037658,121.514853,1.83,28.9,-8.4,67.0,0.0,-11.06,466920
竹子湖,25.162078,121.544547,1.33,23.8,0.55,86.0,0.0,-17.23,466930
基隆,25.133314,121.740475,0.98,27.1,-5.07,74.0,0.0,-13.57,466940
花蓮,23.975128,121.613275,0.97,27.5,-0.47,80.0,0.0,-5.98,466990
新屋,25.006725,121.047492,-0.08,27.2,-2.43,82.0,0.09,-19.53,467050
宜蘭,24.763975,121.756528,0.89,27.0,-1.93,80.0,0.0,-8.05,467080
金門,24.407306,118.289281,0.05,24.9,1.6,88.0,0.09,-5.16,467110
田中,23.873803,120.581286,-0.93,28.3,-2.67,79.0,0.5,0.5,467270
澎湖,23.565503,119.563094,1.1,28.1,-2.1,82.0,0.09,-4.25,467350
臺南,22.99328,120.20492,0.58,28.9,-2.93,74.0,18.0,8.69,467410
永康,23.038386,120.2367,0.67,28.8,0.08,75.0,7.0,-1.48,467420
嘉義,23.495925,120.432906,1.46,29.1,-4.17,75.0,0.0,-11.86,467480
臺中,24.145736,120.684075,1.07,28.6,-2.08,74.0,0.09,-11.76,467490
阿里山,23.508208,120.813242,1.66,15.6,3.77,95.0,0.09,-33.24,467530
大武,22.35572,120.90374,1.02,28.7,-1.0,76.0,0.09,-8.15,467540
玉山,23.48718,120.95943,2.72,9.7,9.31,94.0,0.09,-15.69,467550
新竹,24.827853,121.014219,1.22,28.1,0.28,77.0,0.5,-6.23,467571
恆春,22.003897,120.746339,-0.24,27.9,8.18,86.0,3.0,-5.02,467590
成功,23.097486,121.373428,0.48,27.1,6.38,88.0,0.09,-4.46,467610
日月潭,23.881325,120.90805,1.23,23.1,4.92,91.0,0.0,-18.1,467650
臺東,22.752211,121.154586,0.92,28.5,2.08,80.0,0.0,-4.82,467660
馬祖,26.169467,119.923158,2.26,24.9,-3.25,84.0,0.09,-6.75,467990
山佳,24.974944,121.402008,2.23,28.8,-6.74,74.0,0.0,-8.93,C0A520
坪林,24.938183,121.70975,3.13,26.9,-9.16,84.0,0.0,-11.39,C0A530
泰平,24.971197,121.823711,2.67,25.4,-10.5,86.0,0.0,-12.4,C0A550
桶後,24.848222,121.597992,1.74,25.1,-7.17,86.0,0.0,-9.27,C0A570
石碇,24.993969,121.662917,2.19,26.5,-15.18,77.0,0.0,-15.56,C0A640
大坪,25.165914,121.632969,2.61,26.2,-5.83,84.0,0.0,-19.17,C0A860
五指山,25.132153,121.608692,3.52,25.0,-6.83,88.0,0.0,-13.98,C0A870
雙溪,25.036003,121.864242,2.93,27.9,-9.56,81.0,0.0,-10.91,C0A890
三和,25.233153,121.595236,0.3,25.7,-3.05,89.0,0.0,-40.62,C0A931
金山,25.223628,121.643967,0.86,26.2,-6.54,81.0,0.0,-18.89,C0A940
鼻頭角,25.129036,121.923372,1.45,26.9,-8.0,82.0,0.0,-7.1,C0A950
三貂角,25.007606,122.002058,1.6,26.8,-8.5,81.0,0.0,-7.07,C0A970
社子,25.109508,121.469681,1.86,28.8,-5.11,75.0,0.0,-11.92,C0A980
天母,25.117494,121.537169,1.38,28.3,-7.2,69.0,0.0,-11.1,C0A9C0
內湖,25.079422,121.57545,2.14,29.0,-8.29,71.0,0.0,-10.8,C0A9F0
大屯山,25.175675,121.522408,3.69,23.3,-1.43,95.0,0.0,-18.38,C0AC40
三峽,24.939025,121.369728,2.02,29.1,-4.61,77.0,0.0,-10.62,C0AC60
信義,25.037822,121.564597,2.49,29.3,-14.41,68.0,0.0,-15.56,C0AC70
文山,25.00235,121.575728,0.82,27.2,-9.59,76.0,0.0,-13.15,C0AC80
新莊,25.051478,121.446756,0.86,28.5,-7.84,68.0,0.0,-14.53,C0ACA0
八里,25.150211,121.403947,2.18,28.9,-2.36,79.0,0.0,-15.69,C0AD10
蘆洲,25.086594,121.472331,1.77,29.5,-6.94,70.0,0.0,-14.23,C0AD30
土城,24.973208,121.445169,0.81,27.5,-5.53,77.0,0.0,-11.41,C0AD40
鶯歌,24.951533,121.346294,2.02,29.0,-6.31,77.0,0.0,-10.15,C0AD50
汐止,25.066881,121.658778,0.56,27.7,-12.08,73.0,0.0,-16.52,C0AH00
永和,25.01125,121.508111,1.15,29.2,-3.82,72.0,0.0,-17.31,C0AH10
五分山,25.07125,121.780794,3.46,25.2,-8.93,87.0,0.0,-26.03,C0AH30
平等,25.129142,121.577086,1.02,25.6,-6.89,78.0,0.0,-34.96,C0AH40
松山,25.04871,121.55042,1.17,28.6,-2.17,70.0,0.0,-4.56,C0AH70
深坑,25.002703,121.628328,1.42,27.4,-7.67,79.0,0.0,-9.89,C0AH80
福山植物園,24.760717,121.58135,0.66,23.2,-3.78,90.0,0.0,-0.89,C0AH90
五股,25.07445,121.42728,-0.15,27.1,-16.0,75.0,0.0,-2.92,C0AI00
屈尺,24.92184,121.54475,1.63,27.9,-5.44,82.0,0.0,-12.5,C0AI10
白沙灣,25.283128,121.519058,-0.18,26.5,2.17,85.0,0.0,-4.17,C0AI20
三重,25.057328,121.500629,-0.1,29.4,-8.0,74.0,0.0,-1.83,C0AI30
石牌,25.115597,121.513139,0.48,29.5,-2.17,70.0,0.0,-2.33,C0AI40
七堵,25.094819,121.71713,1.0,28.3,-13.33,77.0,0.0,-11.08,C0B010
基隆嶼,25.19141,121.78391,0.08,26.4,-1.5,92.0,0.0,-2.83,C0B020
復興,24.820208,121.352281,1.65,25.2,-10.13,78.0,0.0,-14.82,C0C460
桃園,24.992425,121.323172,1.7,28.5,-7.31,68.0,0.0,-13.04,C0C480
八德,24.928708,121.283289,0.14,27.5,-6.89,72.0,0.0,-9.77,C0C490
觀音,25.027072,121.153317,1.14,26.8,1.92,85.0,0.5,-13.86,C0C590
蘆竹,25.084275,121.265767,0.79,27.9,-4.85,77.0,0.0,-16.07,C0C620
大溪,24.882853,121.265547,1.45,26.7,-4.75,75.0,0.0,-9.04,C0C630
平鎮,24.897503,121.214636,1.77,27.0,-6.03,76.0,0.0,-9.58,C0C650
楊梅,24.912375,121.143047,0.48,27.5,-2.83,76.0,0.5,-11.95,C0C660
龍潭,24.870056,121.221389,0.5,26.9,-2.62,76.0,0.0,-12.36,C0C670
龜山,25.02846,121.38656,0.3,25.8,-10.0,72.0,0.0,-26.75,C0C680
中壢,24.977661,121.256375,1.14,27.9,-5.78,71.0,0.0,-0.83,C0C700
大溪永福,24.892936,121.324975,0.07,26.9,-2.83,80.0,0.0,-1.0,C0C710
梅花,24.678347,121.208558,0.71,24.0,-1.28,87.0,0.0,-9.32,C0D360
峨眉,24.6905,121.017189,-0.14,26.8,4.0,88.0,0.0,-7.43,C0D430
打鐵坑,24.849664,121.150789,0.69,25.4,-4.79,82.0,0.0,-8.73,C0D480
橫山,24.71116,121.11693,0.74,25.7,7.15,94.0,0.0,-10.76,C0D540
雪霸,24.526972,121.11605,0.69,18.3,6.28,89.0,0.0,-17.33,C0D550
竹東,24.767147,121.057881,2.73,28.5,-15.62,62.0,0.0,-8.29,C0D560
寶山,24.735006,121.025192,0.72,26.1,0.21,85.0,0.0,-8.92,C0D580
新豐,24.87068,120.97721,1.18,26.6,1.33,86.0,0.0,-7.64,C0D590
湖口,24.904794,121.043628,0.2,27.4,-7.67,75.0,0.5,-12.0,C0D650
新竹市東區,24.798681,120.986942,0.08,27.6,0.11,77.0,0.0,-6.58,C0D660
竹南,24.708978,120.888897,2.94,29.5,3.79,83.0,0.0,-6.68,C0E420
南庄,24.601775,121.000214,0.29,25.3,5.26,88.0,0.0,-9.03,C0E430
明德,24.583486,120.885411,0.42,27.9,0.3,79.0,0.0,-4.85,C0E550
通霄,24.471892,120.704622,0.19,27.9,-0.37,81.0,0.0,-6.74,C0E590
馬都安,24.451272,120.930192,1.53,23.9,3.5,87.0,0.0,-15.29,C0E610
頭份,24.688247,120.912206,2.11,29.4,-0.74,74.0,0.0,-6.05,C0E730
造橋,24.637056,120.864778,-0.12,28.0,-0.41,79.0,0.0,-4.93,C0E740
苗栗,24.564569,120.824575,-0.28,28.1,-2.89,71.0,0.0,-5.19,C0E750
銅鑼,24.489681,120.790853,0.41,28.0,-4.71,76.0,0.0,-7.91,C0E780
西湖,24.562947,120.7485,0.39,27.6,-1.89,83.0,0.0,-4.11,C0E810
獅潭,24.539133,120.920042,-0.19,26.7,-1.67,80.0,0.0,-8.94,C0E820
苑裡,24.439714,120.653053,-0.29,28.0,-1.9,77.0,0.0,-7.74,C0E830
大河,24.618069,120.948578,-2.09,25.4,3.87,83.0,0.0,-12.13,C0E850
高鐵苗栗,24.60725,120.826094,-0.07,27.8,12.44,86.0,0.0,-0.72,C0E870
石岡,24.276061,120.777644,0.84,27.5,-3.33,79.0,0.0,-19.79,C0F0B0
中坑,24.248517,120.903319,-0.01,22.2,-3.5,90.0,0.0,-40.12,C0F0C0
審馬陣,24.381675,121.4203,1.62,11.8,2.56,93.0,0.0,-2.78,C0F0D0
東勢,24.246428,120.833047,1.39,28.0,-3.0,75.0,0.0,-14.7,C0F850
大坑,24.173142,120.722289,1.05,29.3,0.7,75.0,0.0,-11.67,C0F970
神岡,24.272481,120.658314,0.51,27.8,-7.33,75.0,0.0,-5.18,C0F9I0
大安,24.345061,120.588025,0.11,28.0,-2.74,80.0,0.0,-3.85,C0F9K0
后里,24.310436,120.729725,0.83,28.4,-6.52,74.0,0.0,-8.39,C0F9L0
豐原,24.254322,120.720692,1.4,29.1,-6.74,71.0,0.0,-8.63,C0F9M0
大里,24.092464,120.701378,0.09,29.3,5.3,78.0,0.0,-12.13,C0F9N0
潭子,24.213106,120.703933,1.08,29.7,-1.11,74.0,0.5,-9.85,C0F9O0
清水,24.312297,120.562242,0.18,28.5,-4.44,78.0,0.0,-4.11,C0F9P0
外埔,24.347817,120.705686,0.28,27.7,-3.44,80.0,0.0,-4.91,C0F9Q0
龍井,24.184536,120.528972,0.47,28.7,-10.48,77.0,0.0,-5.24,C0F9R0
烏日,24.107058,120.624103,0.27,28.9,-3.15,72.0,0.0,-10.56,C0F9S0
西屯,24.179494,120.641275,0.28,28.9,-3.59,72.0,0.0,-8.57,C0F9T0
南屯,24.137006,120.637969,0.08,29.0,-2.59,72.0,0.0,-9.81,C0F9U0
新社,24.200172,120.815806,0.83,26.2,-5.52,80.0,0.0,-16.48,C0F9V0
大雅(中科園區),24.21528,120.62445,0.35,27.8,-2.67,78.0,0.0,-10.67,C0F9X0
桃山,24.432739,121.303808,1.34,11.4,3.33,89.0,0.0,-37.46,C0F9Y0
雪山東峰,24.388792,121.268675,1.29,12.2,4.6,88.0,0.0,-36.72,C0F9Z0
芬園,24.015678,120.6213,-0.44,27.2,5.93,87.0,1.0,-8.53,C0G620
員林,23.946503,120.585597,2.75,30.4,-6.15,75.0,0.0,-12.86,C0G650
溪州,23.851589,120.499093,1.35,29.2,-14.13,69.0,0.0,-23.83,C0G720
二林,23.903325,120.376081,0.18,28.1,-4.53,83.0,0.0,-19.2,C0G730
大城,23.852487,120.320935,0.28,28.1,-1.8,81.0,0.0,-18.63,C0G740
福興,24.041289,120.437669,0.35,29.1,-6.81,76.0,0.0,-7.8,C0G770
秀水,24.03405,120.503869,0.3,28.8,-1.56,81.0,0.0,-7.96,C0G780
埔心,23.947633,120.525456,1.75,30.5,-3.9,73.0,0.0,-13.2,C0G810
田尾,23.901669,120.509389,0.94,29.4,-1.37,82.0,0.0,-16.76,C0G820
埤頭,23.866003,120.452806,0.81,29.0,-3.67,84.0,0.0,-17.13,C0G830
社頭,23.897647,120.5862,0.28,29.3,5.6,81.0,0.5,-16.13,C0G860
伸港,24.148933,120.484403,0.29,28.7,-6.89,76.0,0.0,-4.78,C0G890
線西,24.143358,120.443536,-0.83,28.5,-3.67,78.0,0.0,-4.0,C0G900
花壇,24.032076,120.549461,1.03,30.4,7.0,83.0,0.0,0.0,C0G910
埔里,23.972169,120.952425,0.89,27.0,-4.2,79.0,0.0,-46.87,C0H890
草屯,23.973672,120.68085,-0.3,28.0,1.26,78.0,0.5,-12.47,C0H960
昆陽,24.121322,121.273642,1.61,11.7,2.4,97.0,1.0,-14.49,C0H990
神木村,23.532742,120.843667,1.73,20.3,1.2,92.0,0.5,-27.2,C0H9A0
合歡山,24.143442,121.272547,1.71,10.5,10.91,100.0,0.5,-27.33,C0H9C0
廬山,24.033311,121.181808,1.97,21.0,-4.93,83.0,0.0,-23.09,C0I010
信義,23.689694,120.851036,0.61,25.6,-2.87,83.0,0.0,-45.77,C0I080
竹山,23.761225,120.688156,0.78,27.6,4.48,84.0,4.5,-11.34,C0I110
水里,23.812553,120.849792,0.49,27.0,-4.27,78.0,0.0,-42.33,C0I360
魚池,23.895703,120.94135,0.62,25.4,-5.67,80.0,0.0,-44.47,C0I370
集集,23.828206,120.801467,-0.05,27.2,-0.2,83.0,0.0,-37.73,C0I380
仁愛,24.022122,121.132206,1.17,22.4,-6.67,83.0,0.0,-61.93,C0I390
名間,23.837053,120.701447,-0.51,27.0,4.4,85.0,0.0,-30.33,C0I410
國姓,24.037803,120.855072,0.51,27.4,-4.4,80.0,0.0,-39.93,C0I420
南投,23.911469,120.687331,-0.29,28.4,7.8,84.0,1.0,-27.67,C0I460
梅峰,24.085272,121.173572,1.61,17.1,-4.67,88.0,0.0,-61.7,C0I480
萬大林道,23.928228,121.091411,1.43,20.5,-9.27,84.0,0.0,-35.57,C0I490
小奇萊,24.131764,121.295717,1.71,11.3,2.0,98.0,0.0,-10.67,C0I530
崙背,23.75555,120.318925,0.41,28.4,-6.0,79.0,0.0,-32.6,C0K250
四湖,23.630414,120.227125,1.44,28.7,-7.07,78.0,0.0,-13.05,C0K280
宜梧,23.536281,120.169329,0.29,28.5,-5.4,79.0,0.0,-12.91,C0K291
虎尾,23.719183,120.442036,1.61,29.2,0.8,79.0,0.0,-16.23,C0K330
土庫,23.679029,120.395574,0.18,28.6,-7.73,76.0,0.0,-30.1,C0K390
斗六,23.720583,120.541127,0.36,28.7,-8.33,72.0,0.0,-35.9,C0K400
北港,23.573957,120.292802,0.35,28.5,-8.0,76.0,0.0,-6.75,C0K410
西螺,23.800407,120.467394,0.5,28.8,-6.59,75.0,0.0,-27.61,C0K420
褒忠,23.690938,120.303634,0.41,28.2,-9.67,76.0,0.0,-25.42,C0K430
二崙,23.772797,120.408944,0.48,28.4,4.93,89.0,0.0,-34.63,C0K440
大埤,23.646074,120.431537,0.65,28.8,-6.8,75.0,0.0,-33.8,C0K450
斗南,23.678734,120.478359,0.57,28.8,-3.4,75.0,0.0,-32.33,C0K460
林內,23.748675,120.609642,-0.24,27.5,-1.4,81.0,0.5,-32.57,C0K470
莿桐,23.761192,120.502372,0.49,28.5,-5.27,75.0,0.0,-35.13,C0K480
元長,23.64981,120.315024,0.33,28.6,-3.67,78.0,0.0,-24.23,C0K500
水林,23.572924,120.24597,0.27,28.6,-3.53,78.0,0.0,-7.7,C0K510
臺西,23.701547,120.197559,-0.1,28.0,-1.27,81.0,0.0,-25.53,C0K530
蔦松,23.514319,120.229736,0.52,29.0,-3.73,79.0,0.0,-4.9,C0K550
棋山,23.68645,120.603417,0.09,28.1,1.87,82.0,0.0,-44.6,C0K560
高鐵雲林,23.737456,120.417944,0.0,28.4,-2.44,79.0,0.0,-2.39,C0K580
東後寮,23.369908,120.248065,0.25,28.5,-4.47,80.0,0.0,-3.93,C0M520
奮起湖,23.493903,120.699253,1.37,20.8,3.2,96.0,2.0,-26.49,C0M530
中埔,23.42538,120.5229,0.33,28.3,-6.67,72.0,1.5,-12.83,C0M640
朴子,23.43463,120.23902,-0.48,27.8,-0.8,82.0,0.0,-3.63,C0M650
溪口,23.604131,120.403569,0.54,28.5,-7.41,76.0,0.0,-18.42,C0M660
大林,23.600616,120.45841,0.79,29.3,-7.53,71.0,0.0,-29.47,C0M670
太保,23.455062,120.331455,0.29,28.8,-7.33,76.0,0.0,-6.93,C0M680
水上,23.419734,120.388909,0.59,28.9,-6.53,75.0,0.0,-6.3,C0M690
竹崎,23.526178,120.555508,0.8,28.3,-2.5,77.0,0.0,-16.22,C0M700
東石,23.458927,120.15385,-0.23,28.4,-8.17,77.0,0.5,-4.89,C0M710
番路,23.464657,120.554156,0.9,28.3,-5.4,74.0,0.0,-15.73,C0M720
嘉義市東區,23.457673,120.460531,0.63,29.7,-5.07,72.0,0.0,-9.2,C0M730
六腳,23.492871,120.290625,0.39,28.7,-2.6,77.0,0.0,-6.14,C0M740
布袋,23.380878,120.167789,-0.13,28.5,-5.93,77.0,0.0,-5.0,C0M750
民雄,23.551754,120.428457,0.8,29.4,-8.33,72.0,0.0,-18.67,C0M760
嘉義梅山,23.585398,120.555587,0.49,28.4,-6.2,74.0,0.0,-32.89,C0M770
鹿草,23.41134,120.30835,0.37,28.9,-4.53,77.0,0.0,-7.07,C0M780
新港,23.553269,120.345728,0.34,28.7,-4.87,76.0,0.0,-10.53,C0M790
茶山,23.299075,120.664767,0.42,26.2,-0.4,84.0,2.0,-54.33,C0M800
里佳,23.389125,120.716647,0.47,21.0,1.6,91.0,3.5,-64.13,C0M810
達邦,23.453994,120.749517,1.43,23.6,-0.27,85.0,0.0,-59.9,C0M820
表湖,23.24186,120.64166,-0.68,24.0,2.56,88.0,3.0,-11.39,C0M850
新美,23.338017,120.683169,0.1,25.8,6.67,84.0,1.5,1.33,C0M860
北寮,23.079561,120.495008,0.08,28.4,3.67,85.0,9.5,-1.1,C0O830
王爺宮,23.222064,120.40085,1.93,29.8,-8.5,75.0,2.0,-6.55,C0O840
大內,23.11885,120.36083,0.25,29.4,3.67,84.0,1.0,-2.24,C0O860
善化,23.112883,120.297219,1.01,28.6,5.0,88.0,4.5,-4.57,C0O900
崎頂,22.959547,120.369317,0.77,28.9,-1.76,82.0,4.0,-0.67,C0O960
虎頭埤,23.021375,120.347878,-0.31,28.0,-3.44,79.0,8.5,3.52,C0O970
新市,23.061614,120.298197,0.22,29.2,-2.78,80.0,2.0,-2.02,C0O980
媽廟,22.99175,120.293525,-0.53,28.5,0.33,82.0,3.0,-1.62,C0O990
尾寮山,22.833111,120.683889,1.56,22.8,2.22,96.0,27.0,7.52,C0R100
阿禮,22.742908,120.743678,-0.25,22.0,1.47,89.0,17.0,-3.48,C0R130
瑪家,22.682903,120.686639,-0.67,23.6,12.0,98.0,27.0,-0.71,C0R140
三地門,22.709889,120.639944,1.35,28.8,-0.11,78.0,21.0,4.06,C0R150
鹽埔,22.739558,120.530778,-0.45,28.2,0.39,86.0,11.0,4.1,C0R160
赤山,22.592333,120.614306,-0.39,28.5,7.11,89.0,8.5,-0.83,C0R190
潮州,22.534361,120.54,0.69,28.7,3.22,81.0,8.0,-3.89,C0R220
來義,22.527306,120.625111,-1.3,26.9,8.89,90.0,29.5,21.64,C0R240
春日,22.370361,120.628306,-2.04,26.6,8.18,89.0,56.5,52.76,C0R260
琉球嶼,22.332244,120.362236,-0.67,27.1,5.6,92.0,14.0,7.22,C0R270
車城,22.0744,120.716247,-1.4,27.7,4.67,87.0,5.0,5.0,C0R320
牡丹,22.130036,120.792639,-1.47,25.5,16.0,98.0,11.0,11.0,C0R341
貓鼻頭,21.921774,120.7358,-0.09,27.5,2.0,87.0,4.0,-3.67,C0R350
大漢山,22.405264,120.753181,0.6,18.8,6.33,100.0,98.5,98.5,C0R440
高樹,22.826389,120.600806,-0.63,28.3,2.38,78.0,10.5,1.24,C0R470
長治,22.693128,120.542622,0.03,29.2,5.22,84.0,13.5,6.33,C0R480
九如,22.7405,120.490503,0.02,29.0,-0.87,81.0,16.0,11.17,C0R490
崁頂,22.514781,120.506914,-0.96,28.2,4.06,86.0,3.5,0.38,C0R520
佳冬,22.419456,120.552375,-1.06,27.9,4.44,86.0,28.5,25.12,C0R540
新埤,22.467947,120.582894,-1.24,27.7,-0.89,82.0,49.5,46.19,C0R550
新園,22.5434,120.461558,0.31,29.4,-4.6,77.0,1.5,-1.62,C0R560
麟洛,22.65078,120.52719,-0.13,29.2,6.78,85.0,11.5,5.55,C0R570
南州,22.48591,120.50274,-0.96,28.0,7.5,88.0,6.5,3.79,C0R580
里港,22.77919,120.49459,-0.75,28.1,3.89,84.0,14.5,9.52,C0R590
舊泰武,22.588194,120.664944,-0.78,23.5,7.11,93.0,41.5,21.62,C0R600
墾雷,21.900836,120.855269,-1.34,27.1,11.0,96.0,5.0,4.17,C0R620
東港,22.46247,120.44074,-0.9,28.3,0.17,84.0,2.0,2.0,C0R640
竹田,22.58486,120.54344,-1.15,28.5,3.83,82.0,9.5,9.17,C0R650
枋寮,22.367722,120.590647,-0.83,27.7,8.33,91.0,27.0,27.0,C0R660
楓港,22.190131,120.692156,-1.43,27.6,2.33,83.0,17.0,17.0,C0R670
佳樂水,21.993578,120.861633,-1.9,27.4,12.0,90.0,7.0,7.0,C0R680
墾丁,21.966756,120.810269,-1.77,25.4,8.33,96.0,8.5,8.5,C0R690
枋山,22.246844,120.661086,-0.37,28.1,2.33,84.0,17.0,17.0,C0R700
龍磐,21.931672,120.838942,-1.97,26.5,7.67,93.0,5.5,5.5,C0R710
旭海,22.205403,120.887614,-2.03,26.0,11.0,88.0,1.5,1.5,C0R720
大坪頂,22.024633,120.69355,-1.47,26.6,9.33,96.0,5.5,5.5,C0R730
四林格山,22.076989,120.802439,-1.2,23.6,4.67,99.0,17.5,17.5,C0R750
南仁湖,22.084681,120.863353,-2.03,24.7,16.67,99.0,12.5,12.5,C0R760
保力,22.071122,120.764111,-0.97,26.7,5.67,91.0,9.0,9.0,C0R770
滿州,22.024403,120.839892,-1.73,27.0,10.0,88.0,5.0,5.0,C0R780
九棚,22.14195,120.889281,-2.5,26.8,16.0,87.0,5.0,5.0,C0R790
丹路,22.204481,120.750989,-0.53,27.4,2.67,85.0,26.5,26.5,C0R800
內獅,22.305064,120.642986,-0.53,27.9,17.33,98.0,39.0,39.0,C0R810
白鷺,22.454275,120.666219,0.03,25.0,1.33,90.0,48.0,48.0,C0R820
高士,22.121825,120.836781,-2.3,24.3,16.0,97.0,15.0,15.0,C0R830
牡丹池山,22.168389,120.841225,-2.17,23.4,15.33,98.0,15.0,15.0,C0R840
下馬,23.150427,121.070312,0.52,24.7,5.25,86.0,0.5,0.5,C0S660
太麻里,22.60902,120.98533,2.42,25.9,-2.0,86.0,0.0,-7.16,C0S690
知本,22.684866,121.005642,2.75,26.5,1.0,88.0,0.0,-9.8,C0S700
鹿野,22.917711,121.122994,1.89,26.1,4.0,87.0,0.0,-7.33,C0S710
綠島,22.6672,121.47533,0.78,27.3,3.0,89.0,9.5,5.0,C0S730
池上,23.119628,121.209469,1.78,26.7,1.0,86.0,0.5,-4.24,C0S740
向陽,23.248397,120.986133,2.8,17.7,16.0,88.0,0.0,-22.82,C0S750
大溪山,22.478475,120.943325,2.27,26.5,-5.0,83.0,0.5,-7.14,C0S770
金崙,22.538122,120.966875,2.3,28.6,-3.33,76.0,1.0,-4.39,C0S790
東河,22.972672,121.303986,0.24,27.7,3.33,87.0,0.5,-4.6,C0S810
長濱,23.286817,121.411975,1.15,26.7,2.33,88.0,0.5,-4.23,C0S830
南田,22.279725,120.889208,0.32,28.0,2.0,79.0,0.5,-10.01,C0S840
關山,23.0395,121.175017,0.43,27.1,3.0,85.0,0.0,-15.12,C0S890
蘭嶼高中,22.04909,121.51214,-1.28,28.1,14.0,92.0,4.5,4.5,C0S900
蘭嶼燈塔,22.081197,121.503117,-1.32,26.3,14.33,97.0,3.5,3.5,C0S910
金峰嘉蘭,22.594789,120.960825,0.17,29.1,0.33,78.0,0.0,-0.08,C0S920
延平,22.902581,121.084058,-0.33,27.2,5.33,83.0,0.0,0.0,C0S930
石寧山,23.223772,121.406639,-0.33,27.8,0.67,87.0,0.0,0.0,C0S940
七塊厝,22.954453,121.229922,-0.07,26.5,-5.33,82.0,0.5,0.42,C0S950
香蘭,22.587569,120.993375,-0.0,29.1,4.67,81.0,0.0,0.0,C0S960
加津林,22.416211,120.926942,-0.43,28.1,2.0,81.0,1.5,1.5,C0S970
勝林山,22.430439,120.8938,-2.2,23.0,10.33,93.0,3.5,3.5,C0S980
山豬窟,22.318619,120.857372,-2.27,25.4,11.33,88.0,3.0,3.0,C0S990
歷坵,22.520969,120.89185,0.57,26.7,-3.0,83.0,1.5,1.42,C0SA00
檳榔四格山,22.810031,121.109308,-0.5,26.1,3.0,89.0,0.0,-0.08,C0SA10
金崙山,22.567419,120.959667,1.23,25.4,-5.67,83.0,1.0,1.0,C0SA20
都歷,23.020333,121.323642,-0.77,27.4,1.67,83.0,0.5,0.5,C0SA30
瑞和,22.974361,121.156697,-0.87,27.3,2.33,82.0,0.0,0.0,C0SA40
知本（水試所）,22.702394,121.082761,-0.5,28.7,2.67,81.0,0.0,0.0,C0SA60
土坂,22.453108,120.887572,-0.4,28.0,7.5,82.0,4.0,4.0,C0SA80
達仁林場,22.264347,120.823972,-1.97,24.3,15.33,94.0,28.0,28.0,C0SA90
大禹嶺,24.186117,121.316086,1.86,14.4,2.07,85.0,0.0,-12.58,C0T790
天祥,24.179597,121.495639,1.49,24.5,-3.44,80.0,0.0,-4.13,C0T820
鯉魚潭,23.935639,121.508944,0.97,25.7,-2.67,89.0,0.0,-5.18,C0T870
西林,23.8119,121.441458,1.44,26.8,-1.6,85.0,0.0,-4.9,C0T900
光復,23.660694,121.424964,2.13,27.6,-11.11,81.0,0.0,-5.32,C0T960
月眉山,23.809928,121.539828,1.71,24.8,-6.5,90.0,0.0,-7.21,C0T9A0
水源,23.991861,121.537169,1.79,24.3,-9.67,88.0,0.0,-5.45,C0T9B0
和中,24.26676,121.74103,1.89,28.0,7.33,100.0,0.0,-9.02,C0T9D0
大坑,23.880628,121.581981,1.5,25.4,-2.44,90.0,0.0,-6.99,C0T9E0
水璉,23.797131,121.542514,0.74,26.2,-3.0,88.0,0.0,-6.42,C0T9F0
鳳林山,23.735269,121.420131,0.67,24.5,-7.44,91.0,0.0,-7.49,C0T9G0
加路蘭山,23.682947,121.5274,2.42,25.2,-1.67,96.0,1.5,-6.69,C0T9H0
豐濱,23.583897,121.514806,1.4,26.6,-8.67,84.0,1.0,-6.89,C0T9I0
靜浦,23.455167,121.495028,1.41,27.0,5.0,92.0,0.5,-4.68,C0T9M0
富里,23.171639,121.249378,-0.47,27.2,16.67,99.0,0.0,-0.33,C0T9N0
雙連埤,24.753033,121.641303,0.42,23.3,-9.44,88.0,0.0,-11.82,C0U520
礁溪,24.817539,121.765608,1.21,27.0,-12.56,77.0,0.0,-8.46,C0U600
玉蘭,24.675286,121.587061,2.0,25.4,-14.56,78.0,0.0,-8.29,C0U650
太平山,24.505486,121.525656,1.89,18.4,-5.11,88.0,0.0,-8.16,C0U710
南山,24.43742,121.38167,0.98,21.9,-11.33,83.0,0.0,-2.89,C0U720
龜山島,24.841667,121.953133,0.66,24.5,-15.33,82.0,0.0,-5.02,C0U750
東澳,24.52196,121.83318,1.65,27.8,-14.56,77.0,0.0,-10.5,C0U760
南澳,24.44935,121.81022,0.51,26.8,-4.56,84.0,0.0,-7.93,C0U770
五結,24.68637,121.79794,-0.06,26.8,-8.44,80.0,0.0,-7.83,C0U780
頭城,24.85323,121.8308,0.4,27.0,-6.67,83.0,0.0,-14.0,C0U860
大礁溪,24.791042,121.675047,1.28,24.8,-7.0,86.0,0.0,-5.44,C0U870
三星,24.66812,121.65302,0.99,26.7,-15.56,77.0,0.0,-8.11,C0U890
內城,24.71813,121.68766,1.4,27.2,-12.11,79.0,0.0,-8.0,C0U900
冬山,24.63373,121.7937,0.77,26.9,-5.11,80.0,0.0,-5.67,C0U910
羅東,24.68184,121.74934,1.33,27.5,-6.89,80.0,0.0,-6.06,C0U940
鶯子嶺,24.89754,121.79244,1.72,22.1,-16.44,82.0,1.0,-8.33,C0U950
翠峰湖,24.510856,121.608044,0.66,17.6,-1.56,92.0,0.5,-6.67,C0U960
大福,24.80064,121.81389,0.31,26.1,-3.17,82.0,0.0,-9.56,C0U970
坪林石牌,24.86478,121.77396,1.32,24.1,-8.22,88.0,0.0,-5.22,C0U980
員山,24.74435,121.72247,0.89,27.2,-5.78,81.0,0.0,-7.94,C0U990
土場,24.576533,121.495333,0.97,25.6,-12.89,80.0,0.0,-3.0,C0UA00
鴛鴦湖,24.590269,121.412228,1.03,18.7,-3.5,92.0,0.0,-6.0,C0UA10
白嶺,24.527819,121.519031,1.99,21.5,-12.78,85.0,0.0,-6.0,C0UA30
西德山,24.560647,121.752608,2.18,22.4,-6.67,91.0,0.0,-6.78,C0UA40
西帽山,24.555361,121.802628,2.46,24.2,-15.67,82.0,0.0,-8.94,C0UA50
樟樹山,24.41393,121.78325,1.42,25.0,-11.33,80.0,0.0,-3.33,C0UA60
桃源谷,24.962606,121.888875,1.86,24.4,-9.67,89.0,0.0,-13.22,C0UA70
復興,23.222403,120.806089,0.86,24.7,2.38,84.0,3.0,-37.88,C0V210
溪埔,22.738578,120.446797,-0.52,28.3,6.06,85.0,13.0,8.93,C0V350
內門,22.975481,120.466769,0.88,28.6,-0.56,82.0,17.0,7.43,C0V360
古亭坑,22.893178,120.401947,0.86,27.9,0.67,83.0,16.0,4.26,C0V370
阿公店,22.804194,120.355528,-0.73,27.8,1.39,84.0,14.5,11.64,C0V400
鳳森,22.545064,120.392592,-0.89,28.1,1.18,83.0,1.0,-1.81,C0V450
新興,22.627422,120.298803,-0.16,28.7,-2.28,78.0,6.0,1.91,C0V490
阿蓮,22.883208,120.327508,-0.32,28.8,0.94,81.0,6.0,-2.83,C0V530
梓官,22.760558,120.267211,-0.74,28.5,-2.06,79.0,10.5,8.14,C0V610
永安,22.82315,120.236856,-0.75,28.3,-3.67,80.0,3.5,-2.0,C0V620
茄萣,22.906642,120.182608,-0.13,29.0,-0.94,78.0,1.5,-2.98,C0V630
湖內,22.887139,120.2445,-1.18,27.9,-0.5,80.0,7.5,2.55,C0V640
彌陀,22.783806,120.246361,-0.43,28.7,-1.62,83.0,8.5,6.88,C0V650
岡山,22.797078,120.294958,-0.51,29.1,-0.89,78.0,10.5,7.95,C0V660
仁武,22.701083,120.347722,-0.52,29.2,0.72,80.0,23.0,21.26,C0V680
鼓山,22.623325,120.275575,-0.96,28.2,-1.11,81.0,3.5,0.74,C0V690
三民,22.645017,120.311233,-0.91,28.9,3.39,77.0,8.5,5.95,C0V700
苓雅,22.622742,120.330669,-0.15,29.4,8.11,81.0,7.0,3.45,C0V710
林園,22.507747,120.394511,-0.34,29.5,5.29,81.0,0.5,-1.81,C0V720
大寮,22.605614,120.395717,-1.21,28.4,8.44,85.0,9.0,4.29,C0V730
旗山,22.888614,120.483597,0.7,29.3,-0.67,78.0,22.5,11.64,C0V740
路竹,22.854997,120.259439,-0.11,29.2,-1.33,78.0,3.5,-5.79,C0V750
橋頭,22.757806,120.30575,-0.23,29.3,-4.57,75.0,21.0,18.38,C0V760
大社,22.730306,120.346639,-0.53,29.1,3.5,80.0,22.0,20.5,C0V770
六龜,22.997889,120.633583,0.12,27.6,4.11,83.0,19.5,-6.24,C0V800
左營,22.67491,120.28491,-0.95,28.1,-2.58,80.0,19.0,17.8,C0V810
小林,23.148408,120.63325,-0.02,26.3,6.83,87.0,7.5,6.67,C0V820
花嶼,23.40007,119.32276,0.77,26.9,-0.42,89.0,0.0,-2.12,C0W130
金沙,24.488292,118.408778,0.37,25.9,-5.08,83.0,0.0,-4.08,C0W140
金寧,24.457703,118.328989,-0.76,25.5,-6.92,83.0,0.0,-4.54,C0W150
東河,23.296598,120.385608,-0.23,28.5,-7.47,73.0,1.0,-6.53,C0X050
下營,23.22695,120.256261,0.08,28.8,-6.87,75.0,0.0,-2.73,C0X060
佳里,23.173039,120.145086,0.49,28.5,-1.73,81.0,2.5,-3.88,C0X080
臺南市北區,23.010394,120.194228,-0.8,28.9,1.38,77.0,13.5,10.77,C0X100
臺南市南區,22.961189,120.188378,-0.45,29.0,-2.05,79.0,12.0,8.5,C0X110
麻豆,23.183289,120.248611,0.01,29.3,0.05,81.0,2.5,-0.83,C0X120
官田,23.193217,120.315422,-0.21,29.0,3.86,82.0,10.0,6.44,C0X130
西港,23.125608,120.203108,-1.21,28.3,-0.71,78.0,6.5,4.4,C0X140
安定,23.102614,120.227839,-0.27,29.0,1.33,82.0,5.0,2.08,C0X150
仁德,22.968258,120.257689,-0.33,28.9,3.29,82.0,3.0,-0.6,C0X160
關廟,22.963017,120.327797,-0.74,28.7,6.78,82.0,10.5,5.74,C0X170
山上,23.0757,120.363253,-0.3,28.5,2.19,81.0,3.5,-1.21,C0X180
安平,22.993161,120.152181,-0.5,28.8,-11.48,71.0,4.0,1.54,C0X190
左鎮,23.056758,120.408522,0.33,28.5,0.76,83.0,3.0,-3.73,C0X200
白河,23.347466,120.414427,0.21,28.7,-3.2,76.0,0.0,-9.03,C0X210
學甲,23.230367,120.182187,0.01,28.5,-1.87,78.0,1.0,-0.86,C0X220
鹽水,23.272621,120.247641,-0.25,28.3,-1.8,79.0,0.0,-3.67,C0X230
關子嶺,23.331169,120.508025,0.46,26.7,0.0,84.0,3.5,-13.77,C0X240
新營,23.310689,120.316681,-0.11,28.9,-2.2,76.0,0.5,-4.31,C0X250
後壁,23.366358,120.362326,0.31,28.8,-4.8,76.0,0.0,-3.56,C0X260
將軍,23.214999,120.13577,-0.17,28.4,-4.4,77.0,2.5,0.0,C0X280
北門,23.267772,120.125481,-0.15,28.5,-8.6,77.0,2.5,0.23,C0X290
鹿寮,23.386047,120.477331,0.63,28.5,-6.87,76.0,0.0,-12.23,C0X300
柳營,23.253328,120.375253,-0.37,28.7,1.0,77.0,2.0,2.0,C0X320
明里,23.208717,121.262342,0.94,26.8,-2.67,88.0,0.0,-7.58,C0Z020
佳心,23.34567,121.21316,1.64,23.2,6.67,96.0,0.0,-4.89,C0Z050
玉里,23.3215,121.339656,2.04,27.9,-0.11,91.0,0.0,-7.03,C0Z061
舞鶴,23.46811,121.37407,2.26,26.8,4.78,99.0,0.0,-5.02,C0Z070
富源,23.587642,121.378225,0.89,26.5,-6.0,86.0,0.0,-7.35,C0Z080
東華,23.89525,121.549833,0.76,27.7,-3.22,85.0,0.0,-3.33,C0Z100
吉安光華,23.930925,121.595153,0.62,27.1,-6.56,83.0,0.0,-2.5,C0Z150
鳳林,23.746114,121.453411,0.84,26.9,-8.22,79.0,0.0,-9.17,C0Z160
卓溪,23.3443,121.3029,0.14,27.3,-6.78,77.0,0.0,-3.83,C0Z170
新城,24.040486,121.604878,0.71,27.3,10.56,97.0,0.0,-1.33,C0Z180
富世,24.14743,121.6297,1.1,27.6,-14.44,79.0,0.0,-0.39,C0Z190
萬榮,23.709219,121.420106,1.18,26.9,-10.67,81.0,0.0,-6.5,C0Z200
瑞穗,23.5239,121.39021,1.46,27.5,-5.33,83.0,0.0,-4.61,C0Z210
和平林道,24.343922,121.656317,0.99,24.5,-13.89,83.0,0.0,-2.94,C0Z220
和平,24.30717,121.77007,0.38,26.9,-11.89,76.0,0.0,-3.72,C0Z230
瑞穗林道,23.49284,121.30688,1.13,22.3,-2.22,95.0,0.0,-5.28,C0Z250
蕃薯寮,23.73835,121.540108,0.72,25.2,-8.22,88.0,0.5,-6.78,C0Z270
德武,23.47426,121.41071,1.2,27.2,-5.78,83.0,0.0,-0.72,C0Z280
赤柯山,23.36893,121.38293,1.11,23.2,-5.56,89.0,0.0,-2.28,C0Z290
東里,23.26853,121.30547,0.91,27.5,-8.33,81.0,0.0,-4.89,C0Z300
清水斷崖,24.218294,121.689142,0.57,27.0,-11.67,81.0,0.0,-3.22,C0Z310
清水林道,23.27125,121.188272,0.72,24.8,-2.56,84.0,0.0,-5.78,C0Z320
安通山,23.290728,121.348528,0.54,25.4,-1.44,88.0,0.0,0.0,C0Z330
口湖工作站,23.589978,120.180394,-0.25,28.0,-1.0,75.0,0.0,-1.3,12J990
東港工作站,22.479997,120.466058,-1.02,28.4,3.5,72.0,3.0,3.0,12Q970
萬大發電廠,23.978875,121.139639,1.22,22.9,-11.67,81.0,0.0,-7.05,42HA10
桃改樹林分場,24.944503,121.386972,-0.77,27.6,-7.33,72.0,0.0,-1.17,72AI40
桃園農改場,24.950944,121.030583,1.56,27.4,-1.56,82.0,0.0,-4.81,72C440
桃改五峰分場,24.612194,121.157167,1.24,22.2,0.39,90.0,0.0,-9.4,72D080
臺中農改場,24.003028,120.534389,1.28,28.4,-2.17,81.0,0.0,-8.29,72G600
中改埔里分場,23.903208,120.963364,0.52,24.7,-2.0,87.0,0.0,-22.83,72HA00
南改斗南分場,23.634556,120.477333,2.05,29.3,-8.05,76.0,0.0,-16.56,72K220
南改義竹分場,23.360694,120.279361,0.96,28.5,-9.16,76.0,0.0,-7.3,72M360
南改鹿草分場,23.416869,120.283061,0.27,28.7,-1.83,79.0,0.0,-12.5,72M700
臺南農改場,23.0605,120.342194,0.42,28.1,3.28,85.0,4.5,0.45,72N100
七股研究中心,23.081672,120.062894,-0.23,28.7,-4.5,77.0,9.5,5.83,72N240
高雄農改場,22.709333,120.525889,0.38,28.5,6.13,87.0,15.0,1.25,72Q010
東改班鳩分場,22.829528,121.077694,1.68,27.0,-2.82,82.0,0.0,-6.37,72S200
東改賓朗果園,22.813889,121.071278,1.58,26.3,-5.1,86.0,0.0,-6.84,72S590
花蓮農改場,23.975222,121.563889,1.59,27.3,-5.92,79.0,0.0,-5.45,72T250
花改蘭陽分場,24.686306,121.716583,1.44,27.1,-6.26,80.0,0.0,-5.88,72U480
高改旗南分場,22.857861,120.516667,-0.51,28.0,6.9,83.0,12.0,2.9,72V140
茶改北部分場,24.955778,121.631222,2.63,25.8,-9.78,77.0,0.0,-13.32,82A750
茶改場,24.908472,121.185333,1.76,27.1,-8.22,76.0,0.0,-8.43,82C160
茶改中部分場,23.875611,120.913583,0.28,23.2,-1.51,88.0,0.0,-19.69,82H320
茶改南部分場,23.762528,120.7405,0.23,25.6,-1.89,85.0,0.0,-17.25,82H840
茶改東部分場,22.907694,121.130139,1.13,27.5,-4.5,80.0,0.0,-6.46,82S580
農工中心,24.985917,121.239833,2.28,27.8,-3.38,73.0,0.0,-5.95,A2C560
水試臺西試驗場,23.717231,120.190522,0.41,28.4,0.81,84.0,0.0,-5.0,A2K360
臺大雲林校區,23.730628,120.423903,0.07,28.5,-2.67,78.0,0.0,0.0,A2K630
臺南蘭花園區,23.340258,120.379661,-0.13,28.4,1.0,81.0,3.0,3.0,A2N290
畜試北區分所,24.527806,120.770972,8.23,34.9,-22.22,60.0,0.0,-1.39,B2E890
畜產試驗所,23.058972,120.336406,0.6,28.1,-0.73,83.0,3.0,-6.3,B2N890
畜試南區分所,21.945583,120.802167,-0.83,27.0,2.42,84.0,4.5,-2.77,B2Q810
畜試東區分所,24.669039,121.832561,-0.23,26.7,-1.33,87.0,0.0,-13.83,B2U990
蓮華池,23.918333,120.885278,-0.06,24.5,2.74,86.0,0.0,-11.84,E2H360
林試畢祿溪站,24.226944,121.308522,-0.2,16.2,8.67,86.0,0.0,0.0,E2HA20
四湖植物園,23.676986,120.163433,0.05,28.3,7.17,92.0,0.0,-6.25,E2K600
林試六龜中心,22.991703,120.645722,-0.83,26.8,10.67,87.0,16.0,16.0,E2P980
林試太麻里2,22.598,120.99775,0.57,29.3,-4.67,73.0,0.0,0.0,E2S960
林試太麻里1,22.598922,120.980044,0.77,29.0,-2.67,76.0,0.0,0.0,E2S980
農試所(霧峰),24.031261,120.688133,2.91,30.1,-1.17,82.0,0.0,-10.15,G2F820
農試嘉義分所,23.485028,120.473806,1.57,28.8,-3.39,77.0,0.0,-9.04,G2L020
農試溪口農場,23.58565,120.408111,0.68,28.6,-2.58,78.0,0.0,-0.88,G2M350
農試鳳山分所,22.646611,120.356083,-0.26,28.2,4.27,81.0,9.5,-0.23,G2P820
苗栗農改場,24.495722,120.829111,1.09,27.7,-1.52,78.0,0.0,-9.1,K2E360
苗改生物防治研究中心,24.422861,120.871833,0.33,26.6,-1.78,79.0,0.0,-2.0,K2E710
種苗改良場,24.225972,120.800917,1.43,26.2,2.83,85.0,0.0,-14.45,K2F750
臺大和社,23.590856,120.888864,1.73,24.3,-0.67,88.0,0.0,-3.08,U2HA30
臺大內茅埔,23.689722,120.851117,1.22,25.5,-4.25,83.0,0.0,-1.62,U2HA40
臺大竹山,23.756972,120.681556,-0.34,27.5,3.44,81.0,5.0,1.89,U2HA50
