站名,緯度,經度,平均溫距平,本年度平均溫,平均溼度距平,本年度日均相對溼度,本年度日均降水量,日均降水量距平,站號
淡水,25.164889,121.448906,2.86,31.8,-14.29,62.0,0.0,-5.83,466900
鞍部,25.182586,121.529731,1.32,24.7,-5.95,80.0,0.0,-9.59,466910
臺北,25.037658,121.514853,2.1,32.1,-11.41,60.0,0.0,-10.12,466920
竹子湖,25.162078,121.544547,1.79,26.8,-8.27,75.0,0.0,-9.03,466930
基隆,25.133314,121.740475,2.12,31.6,-7.56,65.0,0.0,-4.94,466940
花蓮,23.975128,121.613275,1.29,30.0,-2.78,75.0,0.0,-8.33,466990
新屋,25.006725,121.047492,0.56,30.0,2.17,81.0,0.0,-1.07,467050
宜蘭,24.763975,121.756528,0.8,29.8,1.13,79.0,0.0,-3.85,467080
金門,24.407306,118.289281,1.9,30.5,-7.86,78.0,0.0,-0.67,467110
田中,23.873803,120.581286,0.77,30.1,-4.33,78.0,0.0,-3.0,467270
澎湖,23.565503,119.563094,0.7,29.7,0.98,84.0,0.0,-5.9,467350
臺南,22.99328,120.20492,1.21,31.0,-4.4,71.0,0.0,-12.71,467410
永康,23.038386,120.2367,1.24,30.8,0.46,73.0,0.0,-13.31,467420
嘉義,23.495925,120.432906,-0.39,28.8,6.08,82.0,6.5,-9.95,467480
臺中,24.145736,120.684075,1.36,30.4,1.17,75.0,0.0,-14.75,467490
阿里山,23.508208,120.813242,-0.09,14.9,5.62,94.0,0.0,-26.76,467530
大武,22.35572,120.90374,0.33,29.3,4.14,81.0,2.5,-7.55,467540
玉山,23.48718,120.95943,0.19,8.6,-3.78,66.0,0.0,-18.68,467550
新竹,24.827853,121.014219,0.88,30.3,3.55,77.0,0.0,-3.44,467571
恆春,22.003897,120.746339,0.6,29.8,-1.7,78.0,0.09,-9.1,467590
成功,23.097486,121.373428,0.65,29.0,-0.84,79.0,0.0,-8.42,467610
日月潭,23.881325,120.90805,1.42,24.5,7.32,91.0,0.0,-16.24,467650
臺東,22.752211,121.154586,0.85,30.2,0.3,76.0,1.0,-5.97,467660
馬祖,26.169467,119.923158,0.44,28.0,10.08,94.0,0.0,-4.27,467990
山佳,24.974944,121.402008,2.63,31.9,-8.03,68.0,0.0,-10.21,C0A520
坪林,24.938183,121.70975,2.88,29.3,-7.56,81.0,0.0,-10.65,C0A530
泰平,24.971197,121.823711,1.68,27.1,-2.69,88.0,0.0,-8.51,C0A550
桶後,24.848222,121.597992,1.9,27.7,-11.53,78.0,0.0,-10.42,C0A570
石碇,24.993969,121.662917,2.31,29.2,-18.85,69.0,0.0,-8.38,C0A640
大坪,25.165914,121.632969,2.17,28.6,-10.79,74.0,0.0,-7.8,C0A860
五指山,25.132153,121.608692,3.23,27.7,-8.89,82.0,0.0,-8.42,C0A870
雙溪,25.036003,121.864242,2.76,30.9,-5.39,78.0,0.0,-5.71,C0A890
三和,25.233153,121.595236,1.64,29.3,-4.53,77.0,0.0,-6.26,C0A931
金山,25.223628,121.643967,1.79,30.5,-13.75,66.0,0.0,-6.66,C0A940
鼻頭角,25.129036,121.923372,1.1,29.5,3.58,88.0,0.0,-0.99,C0A950
三貂角,25.007606,122.002058,1.34,29.3,3.11,88.0,0.0,-1.78,C0A970
社子,25.109508,121.469681,3.21,33.2,-15.21,60.0,0.0,-7.12,C0A980
天母,25.117494,121.537169,2.33,32.0,-16.22,57.0,0.0,-7.68,C0A9C0
內湖,25.079422,121.57545,2.69,32.8,-12.92,60.0,0.0,-11.77,C0A9F0
大屯山,25.175675,121.522408,2.31,24.4,-0.88,94.0,0.0,-4.62,C0AC40
三峽,24.939025,121.369728,2.93,32.3,-5.48,71.0,0.0,-9.76,C0AC60
信義,25.037822,121.564597,2.18,32.0,-11.93,62.0,0.0,-11.83,C0AC70
文山,25.00235,121.575728,1.71,30.8,-15.7,65.0,0.0,-10.09,C0AC80
新莊,25.051478,121.446756,2.07,32.5,-13.52,56.0,0.0,-8.18,C0ACA0
八里,25.150211,121.403947,2.73,32.5,-3.3,70.0,0.0,-4.91,C0AD10
蘆洲,25.086594,121.472331,1.87,32.6,-6.82,63.0,0.0,-6.83,C0AD30
土城,24.973208,121.445169,1.29,30.3,-6.09,72.0,0.0,-13.74,C0AD40
鶯歌,24.951533,121.346294,3.35,32.7,-10.94,67.0,0.0,-11.38,C0AD50
汐止,25.066881,121.658778,1.96,31.4,-19.04,59.0,0.0,-12.26,C0AH00
永和,25.01125,121.508111,2.45,32.1,-5.5,65.0,0.0,-18.17,C0AH10
五分山,25.07125,121.780794,2.65,26.5,-3.2,90.0,0.0,-12.33,C0AH30
平等,25.129142,121.577086,1.22,28.2,-12.83,69.0,0.0,-17.96,C0AH40
林口,25.072181,121.38084,2.78,30.7,-10.42,73.0,0.0,-14.75,C0AH50
松山,25.04871,121.55042,2.38,32.1,-5.0,62.0,0.0,-22.06,C0AH70
深坑,25.002703,121.628328,2.77,30.8,-13.89,69.0,0.0,-19.94,C0AH80
福山植物園,24.760717,121.58135,0.52,24.8,-0.33,90.0,0.0,-9.17,C0AH90
五股,25.07445,121.42728,3.66,31.9,-10.44,70.0,0.0,-20.39,C0AI00
屈尺,24.92184,121.54475,3.58,31.7,-13.44,70.0,0.0,-20.83,C0AI10
白沙灣,25.283128,121.519058,2.7,30.8,-11.33,70.0,0.0,-9.33,C0AI20
三重,25.057328,121.500629,3.43,32.7,-20.0,64.0,0.0,-25.0,C0AI30
石牌,25.115597,121.513139,2.67,32.4,-15.0,60.0,0.0,-29.67,C0AI40
七堵,25.094819,121.71713,2.91,32.0,-12.44,67.0,0.0,-16.22,C0B010
基隆嶼,25.19141,121.78391,1.63,29.4,-3.0,90.0,0.0,-11.17,C0B020
復興,24.820208,121.352281,1.86,27.2,-5.49,79.0,0.0,-10.54,C0C460
桃園,24.992425,121.323172,1.97,31.7,-5.0,63.0,0.0,-9.36,C0C480
八德,24.928708,121.283289,1.52,30.4,-7.04,68.0,0.0,-10.6,C0C490
觀音,25.027072,121.153317,1.93,30.6,2.87,79.0,0.0,-1.68,C0C590
蘆竹,25.084275,121.265767,1.62,31.1,-5.67,70.0,0.0,-3.27,C0C620
大溪,24.882853,121.265547,1.63,29.3,-0.64,74.0,0.0,-9.65,C0C630
平鎮,24.897503,121.214636,1.45,29.3,1.28,77.0,0.0,-8.72,C0C650
楊梅,24.912375,121.143047,0.57,29.5,5.48,77.0,0.0,-11.05,C0C660
龍潭,24.870056,121.221389,1.35,29.2,-0.1,75.0,0.0,-23.88,C0C670
中壢,24.977661,121.256375,1.44,30.5,-5.22,67.0,0.0,-19.33,C0C700
大溪永福,24.892936,121.324975,2.12,29.5,-7.17,78.0,0.0,-39.58,C0C710
梅花,24.678347,121.208558,1.16,26.2,-1.36,85.0,0.0,-15.54,C0D360
峨眉,24.6905,121.017189,0.93,28.8,3.37,88.0,0.0,-6.73,C0D430
打鐵坑,24.849664,121.150789,0.71,27.4,-0.33,83.0,0.0,-6.94,C0D480
橫山,24.71116,121.11693,1.0,27.8,13.97,98.0,0.0,-7.5,C0D540
雪霸,24.526972,121.11605,0.52,19.3,1.64,83.0,0.0,-3.14,C0D550
竹東,24.767147,121.057881,2.3,30.4,1.15,73.0,0.0,-2.94,C0D560
寶山,24.735006,121.025192,1.13,28.2,3.18,86.0,0.0,-4.44,C0D580
新豐,24.87068,120.97721,0.85,29.0,9.36,88.0,0.0,-1.04,C0D590
湖口,24.904794,121.043628,0.83,30.0,1.43,76.0,0.0,-1.45,C0D650
新竹市東區,24.798681,120.986942,0.7,29.7,2.17,75.0,0.0,-7.19,C0D660
竹南,24.708978,120.888897,0.79,29.8,11.56,85.0,0.0,-3.52,C0E420
南庄,24.601775,121.000214,0.66,27.2,4.62,87.0,0.0,-10.37,C0E430
明德,24.583486,120.885411,0.91,29.5,4.5,82.0,0.0,-4.75,C0E550
通霄,24.471892,120.704622,0.65,29.5,3.0,83.0,0.0,-2.46,C0E590
馬都安,24.451272,120.930192,1.03,24.8,2.83,88.0,0.0,-13.37,C0E610
頭份,24.688247,120.912206,0.59,30.3,8.23,77.0,0.0,-2.72,C0E730
造橋,24.637056,120.864778,0.72,29.9,3.0,81.0,0.0,-2.87,C0E740
苗栗,24.564569,120.824575,0.07,29.8,1.74,72.0,0.0,-4.28,C0E750
銅鑼,24.489681,120.790853,1.18,29.8,0.67,78.0,0.0,-6.13,C0E780
西湖,24.562947,120.7485,0.91,29.3,1.3,85.0,0.0,-1.54,C0E810
苑裡,24.439714,120.653053,0.82,30.2,2.14,78.0,0.0,-3.43,C0E830
大河,24.618069,120.948578,-0.83,27.0,1.67,82.0,0.0,-9.37,C0E850
高鐵苗栗,24.60725,120.826094,0.13,29.6,16.56,87.0,0.0,-0.67,C0E870
石岡,24.276061,120.777644,2.31,28.8,-2.5,82.0,0.0,-16.17,C0F0B0
中坑,24.248517,120.903319,0.81,23.0,-2.17,91.0,24.0,-5.46,C0F0C0
審馬陣,24.381675,121.4203,2.5,14.0,-34.0,55.0,0.0,-9.06,C0F0D0
東勢,24.246428,120.833047,2.31,29.2,-3.48,76.0,0.0,-14.63,C0F850
大坑,24.173142,120.722289,2.39,31.0,1.37,76.0,0.0,-10.81,C0F970
神岡,24.272481,120.658314,1.18,29.4,-2.57,78.0,0.0,-5.87,C0F9I0
大安,24.345061,120.588025,0.63,29.8,2.63,82.0,0.0,-5.76,C0F9K0
后里,24.310436,120.729725,1.47,29.9,2.33,80.0,0.0,-5.94,C0F9L0
豐原,24.254322,120.720692,3.35,31.7,-1.59,74.0,0.0,-6.5,C0F9M0
大里,24.092464,120.701378,2.53,32.0,2.07,75.0,0.0,-10.43,C0F9N0
潭子,24.213106,120.703933,1.95,31.2,2.63,77.0,0.0,-6.85,C0F9O0
清水,24.312297,120.562242,0.77,30.5,1.74,80.0,0.0,-5.41,C0F9P0
外埔,24.347817,120.705686,0.9,29.5,1.3,81.0,0.0,-4.26,C0F9Q0
龍井,24.184536,120.528972,1.08,30.6,-5.04,77.0,0.0,-6.61,C0F9R0
烏日,24.107058,120.624103,1.66,30.9,-2.44,72.0,0.0,-9.41,C0F9S0
西屯,24.179494,120.641275,1.13,30.5,0.07,74.0,0.0,-7.52,C0F9T0
南屯,24.137006,120.637969,1.16,30.7,0.04,74.0,0.0,-10.3,C0F9U0
新社,24.200172,120.815806,1.7,27.6,0.41,85.0,0.5,-15.44,C0F9V0
大雅(中科園區),24.21528,120.62445,1.97,29.6,-2.67,79.0,0.0,-8.5,C0F9X0
桃山,24.432739,121.303808,1.77,12.4,-26.33,61.0,0.0,-10.83,C0F9Y0
雪山東峰,24.388792,121.268675,2.4,14.0,-24.13,61.0,0.0,-7.28,C0F9Z0
芬園,24.015678,120.6213,1.05,29.3,3.75,85.0,0.0,-12.74,C0G620
員林,23.946503,120.585597,3.24,32.5,-4.69,75.0,0.0,-13.4,C0G650
溪湖,23.94835,120.479122,1.71,30.7,-3.93,79.0,0.0,-15.2,C0G660
溪州,23.851589,120.499093,1.85,29.9,-7.75,75.0,0.0,-25.19,C0G720
二林,23.903325,120.376081,1.32,29.8,0.4,88.0,0.0,-20.88,C0G730
大城,23.852487,120.320935,1.36,29.6,-0.69,82.0,0.0,-19.78,C0G740
福興,24.041289,120.437669,1.19,31.1,-5.85,76.0,0.0,-17.8,C0G770
秀水,24.03405,120.503869,1.54,31.0,-0.37,80.0,0.0,-15.96,C0G780
埔鹽,24.000394,120.431683,1.77,30.9,-5.19,78.0,0.0,-18.33,C0G800
埔心,23.947633,120.525456,2.36,32.0,1.05,76.0,0.0,-14.43,C0G810
田尾,23.901669,120.509389,1.77,30.9,0.85,83.0,0.0,-14.87,C0G820
埤頭,23.866003,120.452806,0.91,30.2,3.08,88.0,0.0,-13.74,C0G830
社頭,23.897647,120.5862,1.48,31.2,7.78,80.0,0.0,-17.69,C0G860
二水,23.810742,120.6173,2.19,31.0,-2.26,77.0,0.0,-15.61,C0G880
伸港,24.148933,120.484403,0.83,30.3,0.3,80.0,0.0,-7.56,C0G890
線西,24.143358,120.443536,0.67,30.5,-1.67,79.0,0.0,-4.0,C0G900
埔里,23.972169,120.952425,3.15,28.7,-14.53,72.0,0.0,-13.3,C0H890
草屯,23.973672,120.68085,1.91,30.4,-4.48,73.0,0.0,-12.33,C0H960
昆陽,24.121322,121.273642,1.56,13.5,-28.2,61.0,0.0,-10.41,C0H990
神木村,23.532742,120.843667,1.27,21.0,-5.4,89.0,0.0,-23.15,C0H9A0
合歡山,24.143442,121.272547,1.68,12.3,-8.62,69.0,0.0,-7.86,C0H9C0
廬山,24.033311,121.181808,1.21,21.6,-15.8,73.0,0.0,-13.55,C0I010
信義,23.689694,120.851036,2.35,27.1,-9.93,79.0,0.0,-12.93,C0I080
竹山,23.761225,120.688156,1.82,29.4,-5.24,78.0,0.0,-22.42,C0I110
水里,23.812553,120.849792,2.65,28.9,-12.27,72.0,0.0,-18.33,C0I360
魚池,23.895703,120.94135,2.75,26.8,-10.6,78.0,0.0,-20.7,C0I370
集集,23.828206,120.801467,2.74,29.4,-13.33,73.0,0.0,-28.3,C0I380
仁愛,24.022122,121.132206,1.61,23.1,-14.53,75.0,0.0,-13.1,C0I390
名間,23.837053,120.701447,1.94,29.0,-3.07,79.0,0.0,-18.17,C0I410
國姓,24.037803,120.855072,3.25,29.3,-12.67,75.0,0.0,-23.3,C0I420
南投,23.911469,120.687331,2.32,30.4,-3.67,76.0,0.0,-30.1,C0I460
梅峰,24.085272,121.173572,1.83,18.0,-16.33,76.0,0.0,-17.1,C0I480
萬大林道,23.928228,121.091411,1.75,21.0,-16.2,76.0,0.0,-13.47,C0I490
小奇萊,24.131764,121.295717,3.03,14.1,-33.89,60.0,0.0,-17.72,C0I530
崙背,23.75555,120.318925,1.27,29.4,-7.73,78.0,0.0,-23.97,C0K250
四湖,23.630414,120.227125,1.35,30.2,-9.13,77.0,0.0,-7.81,C0K280
宜梧,23.536281,120.169329,0.84,30.0,-2.44,80.0,0.0,-7.29,C0K291
虎尾,23.719183,120.442036,1.23,30.5,-2.56,78.0,0.0,-13.98,C0K330
土庫,23.679029,120.395574,1.43,29.7,-7.06,75.0,0.0,-19.97,C0K390
斗六,23.720583,120.541127,1.84,29.8,-8.25,75.0,1.0,-23.44,C0K400
北港,23.573957,120.292802,1.71,30.1,-10.19,73.0,0.0,-13.62,C0K410
西螺,23.800407,120.467394,2.24,30.5,-9.69,74.0,0.0,-23.88,C0K420
褒忠,23.690938,120.303634,1.42,29.7,-3.81,79.0,0.0,-14.5,C0K430
大埤,23.646074,120.431537,1.75,30.0,-7.62,74.0,0.5,-21.16,C0K450
斗南,23.678734,120.478359,1.79,30.0,-3.75,75.0,0.0,-23.62,C0K460
林內,23.748675,120.609642,1.71,29.1,-4.93,79.0,0.0,-25.07,C0K470
莿桐,23.761192,120.502372,1.87,29.8,-5.33,76.0,0.5,-29.0,C0K480
元長,23.64981,120.315024,1.89,30.4,-6.44,74.0,0.0,-17.47,C0K500
水林,23.572924,120.24597,1.63,30.3,-5.56,75.0,0.0,-15.66,C0K510
臺西,23.701547,120.197559,1.19,29.6,-1.0,82.0,0.0,-15.03,C0K530
蔦松,23.514319,120.229736,1.55,30.0,-7.27,77.0,0.0,-17.5,C0K550
棋山,23.68645,120.603417,1.53,29.0,0.87,84.0,15.5,-12.87,C0K560
高鐵雲林,23.737456,120.417944,1.89,29.8,-11.0,78.0,0.0,-36.5,C0K580
東後寮,23.369908,120.248065,1.36,29.5,-5.88,79.0,0.0,-20.97,C0M520
奮起湖,23.493903,120.699253,0.28,20.6,1.27,96.0,2.0,-26.87,C0M530
中埔,23.42538,120.5229,0.34,28.3,-3.94,74.0,19.0,-5.34,C0M640
朴子,23.43463,120.23902,0.93,29.3,-5.25,78.0,0.0,-21.47,C0M650
溪口,23.604131,120.403569,1.34,29.4,-6.81,77.0,1.0,-21.0,C0M660
大林,23.600616,120.45841,1.29,29.6,-5.19,75.0,2.5,-23.38,C0M670
太保,23.455062,120.331455,1.47,29.9,-12.69,71.0,0.0,-29.25,C0M680
水上,23.419734,120.388909,1.11,29.1,-5.94,77.0,0.0,-30.81,C0M690
竹崎,23.526178,120.555508,0.52,27.8,-1.38,83.0,15.0,-12.72,C0M700
東石,23.458927,120.15385,1.2,30.1,-6.69,77.0,0.0,-14.78,C0M710
番路,23.464657,120.554156,0.46,27.7,-0.5,78.0,19.5,-2.75,C0M720
嘉義市東區,23.457673,120.460531,0.66,29.1,-1.71,78.0,5.5,-19.03,C0M730
六腳,23.492871,120.290625,1.43,29.8,-7.0,75.0,0.0,-21.25,C0M740
布袋,23.380878,120.167789,1.49,30.3,-7.25,76.0,0.0,-18.28,C0M750
民雄,23.551754,120.428457,0.89,29.4,-4.81,77.0,5.5,-13.75,C0M760
嘉義梅山,23.585398,120.555587,0.98,28.7,-0.25,81.0,3.5,-25.38,C0M770
鹿草,23.41134,120.30835,2.06,30.5,-7.62,74.0,0.0,-35.34,C0M780
新港,23.553269,120.345728,1.54,30.0,-8.94,72.0,0.0,-15.38,C0M790
茶山,23.299075,120.664767,1.74,26.4,-8.87,81.0,2.0,-28.9,C0M800
里佳,23.389125,120.716647,1.54,21.7,-7.8,84.0,0.5,-28.47,C0M810
達邦,23.453994,120.749517,1.77,23.6,-7.47,81.0,0.0,-21.87,C0M820
表湖,23.24186,120.64166,1.56,24.7,-10.0,84.0,29.5,-26.61,C0M850
新美,23.338017,120.683169,2.0,26.2,-6.0,81.0,0.0,-12.67,C0M860
北寮,23.079561,120.495008,1.03,28.8,1.62,85.0,0.0,-29.02,C0O830
王爺宮,23.222064,120.40085,3.39,31.1,-10.29,75.0,0.0,-23.45,C0O840
大內,23.11885,120.36083,2.31,31.2,-4.19,79.0,0.0,-21.79,C0O860
善化,23.112883,120.297219,1.94,30.9,1.48,85.0,0.0,-13.13,C0O900
崎頂,22.959547,120.369317,3.01,30.8,-7.08,78.0,0.0,-25.69,C0O960
虎頭埤,23.021375,120.347878,1.13,29.3,-5.57,79.0,0.0,-23.71,C0O970
新市,23.061614,120.298197,2.15,31.0,-5.52,78.0,0.0,-20.81,C0O980
媽廟,22.99175,120.293525,2.25,31.1,-8.14,75.0,0.0,-19.98,C0O990
尾寮山,22.833111,120.683889,1.23,23.8,-2.81,90.0,0.0,-32.85,C0R100
阿禮,22.742908,120.743678,2.5,25.1,-16.06,74.0,0.0,-16.38,C0R130
瑪家,22.682903,120.686639,0.53,24.8,7.86,96.0,0.0,-36.17,C0R140
三地門,22.709889,120.639944,1.58,30.4,-8.71,71.0,0.0,-22.16,C0R150
鹽埔,22.739558,120.530778,1.98,30.4,-3.76,82.0,0.0,-29.02,C0R160
赤山,22.592333,120.614306,1.51,30.2,-2.14,81.0,0.0,-30.83,C0R190
潮州,22.534361,120.54,1.26,30.5,-5.86,74.0,6.0,-10.78,C0R220
來義,22.527306,120.625111,0.53,28.7,2.86,86.0,0.0,-29.55,C0R240
春日,22.370361,120.628306,-0.36,28.0,1.0,85.0,0.0,-25.6,C0R260
琉球嶼,22.332244,120.362236,2.28,31.1,-9.4,76.0,0.0,-7.32,C0R270
車城,22.0744,120.716247,0.37,29.0,-6.0,82.0,4.0,-6.83,C0R320
牡丹,22.130036,120.792639,0.33,27.0,-2.0,91.0,19.0,12.0,C0R341
貓鼻頭,21.921774,120.7358,0.65,29.6,-3.33,81.0,9.0,0.67,C0R350
大漢山,22.405264,120.753181,-0.47,17.8,1.33,100.0,8.0,-5.33,C0R440
高樹,22.826389,120.600806,1.54,30.2,-5.76,73.0,0.0,-27.24,C0R470
長治,22.693128,120.542622,2.2,31.1,-9.76,71.0,0.0,-28.05,C0R480
九如,22.7405,120.490503,1.98,30.9,-4.43,77.0,0.0,-29.76,C0R490
崁頂,22.514781,120.506914,1.01,30.1,-5.67,77.0,0.0,-26.5,C0R520
佳冬,22.419456,120.552375,0.77,29.8,-5.81,76.0,0.0,-24.52,C0R540
新埤,22.467947,120.582894,1.03,29.7,-11.43,73.0,0.0,-25.1,C0R550
新園,22.5434,120.461558,2.24,31.3,-13.67,69.0,0.0,-30.05,C0R560
麟洛,22.65078,120.52719,2.85,31.9,-5.81,76.0,8.0,-19.93,C0R570
南州,22.48591,120.50274,1.16,29.9,1.28,80.0,0.0,-22.71,C0R580
里港,22.77919,120.49459,1.82,30.4,-2.86,80.0,0.0,-27.36,C0R590
舊泰武,22.588194,120.664944,0.74,25.3,-0.24,86.0,0.0,-38.48,C0R600
墾雷,21.900836,120.855269,-0.21,28.7,9.2,94.0,13.0,-0.67,C0R620
東港,22.46247,120.44074,1.6,30.3,-9.67,79.0,0.0,-17.22,C0R640
竹田,22.58486,120.54344,2.18,30.5,-14.83,75.0,0.0,-39.5,C0R650
枋寮,22.367722,120.590647,1.43,29.7,-2.67,82.0,0.0,-17.67,C0R660
楓港,22.190131,120.692156,0.87,29.4,-12.67,73.0,2.5,-17.83,C0R670
佳樂水,21.993578,120.861633,0.17,29.2,-1.33,84.0,5.5,1.83,C0R680
墾丁,21.966756,120.810269,0.2,27.5,-2.0,89.0,2.5,-1.17,C0R690
枋山,22.246844,120.661086,2.3,30.2,-14.33,73.0,0.0,-18.67,C0R700
龍磐,21.931672,120.838942,-0.7,28.3,3.0,89.0,2.5,0.67,C0R710
旭海,22.205403,120.887614,-0.4,27.3,2.67,89.0,3.5,2.17,C0R720
大坪頂,22.024633,120.69355,0.43,28.5,-4.67,85.0,0.0,-8.17,C0R730
四林格山,22.076989,120.802439,-0.3,24.6,-0.67,97.0,27.0,10.5,C0R750
南仁湖,22.084681,120.863353,-0.43,25.9,7.33,100.0,42.0,31.5,C0R760
保力,22.071122,120.764111,1.2,28.2,-5.67,87.0,14.5,-13.0,C0R770
滿州,22.024403,120.839892,0.33,28.4,-3.67,84.0,26.5,23.33,C0R780
九棚,22.14195,120.889281,-0.93,27.8,4.67,88.0,44.0,33.83,C0R790
丹路,22.204481,120.750989,0.9,28.5,-10.33,79.0,4.0,-10.83,C0R800
內獅,22.305064,120.642986,0.73,29.3,-3.0,80.0,0.0,-10.67,C0R810
白鷺,22.454275,120.666219,1.37,26.0,-7.67,84.0,0.5,-15.83,C0R820
高士,22.121825,120.836781,-0.67,25.3,2.0,95.0,41.0,21.33,C0R830
牡丹池山,22.168389,120.841225,-0.1,25.0,2.33,99.0,13.5,7.33,C0R840
下馬,23.150427,121.070312,1.65,25.4,-10.5,76.0,0.0,-6.5,C0S660
太麻里,22.60902,120.98533,1.09,26.5,2.5,88.0,5.5,0.7,C0S690
知本,22.684866,121.005642,0.32,26.0,4.0,91.0,0.5,-7.13,C0S700
鹿野,22.917711,121.122994,1.88,27.9,-6.83,80.0,0.0,-2.58,C0S710
綠島,22.6672,121.47533,0.83,29.0,-3.5,84.0,4.5,-0.76,C0S730
池上,23.119628,121.209469,1.16,28.5,-8.67,77.0,0.0,-7.27,C0S740
向陽,23.248397,120.986133,-0.07,15.9,-0.5,90.0,0.0,-14.04,C0S750
大溪山,22.478475,120.943325,0.21,26.2,6.17,88.0,10.5,1.71,C0S770
金崙,22.538122,120.966875,0.35,28.3,2.67,86.0,9.0,1.78,C0S790
東河,22.972672,121.303986,-0.03,29.1,0.33,84.0,0.0,-9.1,C0S810
長濱,23.286817,121.411975,1.18,28.9,-2.67,82.0,0.0,-11.02,C0S830
南田,22.279725,120.889208,0.26,28.9,-4.0,84.0,8.5,-4.59,C0S840
關山,23.0395,121.175017,1.96,29.3,-5.83,78.0,0.0,-2.87,C0S890
蘭嶼高中,22.04909,121.51214,0.03,29.3,0.83,83.0,4.5,-16.58,C0S900
蘭嶼燈塔,22.081197,121.503117,0.43,28.2,2.33,89.0,0.0,-20.17,C0S910
金峰嘉蘭,22.594789,120.960825,-1.32,27.6,4.0,78.0,4.0,-7.33,C0S920
延平,22.902581,121.084058,1.24,28.4,-4.4,78.0,0.0,-5.33,C0S930
石寧山,23.223772,121.406639,2.25,30.2,-5.75,79.0,0.0,-0.67,C0S940
七塊厝,22.954453,121.229922,1.2,27.9,-9.0,74.0,0.0,-10.25,C0S950
香蘭,22.587569,120.993375,0.23,29.4,0.67,76.0,9.5,9.5,C0S960
加津林,22.416211,120.926942,0.32,29.0,5.75,83.0,6.0,-14.83,C0S970
勝林山,22.430439,120.8938,-1.33,22.9,9.0,95.0,9.0,-10.67,C0S980
山豬窟,22.318619,120.857372,-0.9,25.7,7.0,91.0,1.5,-24.17,C0S990
歷坵,22.520969,120.89185,-1.0,25.6,10.5,91.0,3.0,-12.33,C0SA00
檳榔四格山,22.810031,121.109308,1.68,27.2,-4.2,86.0,0.0,-9.83,C0SA10
金崙山,22.567419,120.959667,-0.98,23.2,8.75,94.0,12.0,-1.75,C0SA20
都歷,23.020333,121.323642,1.15,29.7,-3.75,76.0,0.0,-8.42,C0SA30
瑞和,22.974361,121.156697,1.33,28.8,-8.25,75.0,0.0,-6.58,C0SA40
知本（水試所）,22.702394,121.082761,0.37,29.5,3.0,83.0,4.0,4.0,C0SA60
土坂,22.453108,120.887572,-0.28,27.9,8.0,86.0,13.0,13.0,C0SA80
達仁林場,22.264347,120.823972,-0.63,25.3,10.0,96.0,6.5,1.17,C0SA90
大禹嶺,24.186117,121.316086,0.38,14.5,-8.63,73.0,0.0,-10.75,C0T790
天祥,24.179597,121.495639,1.33,26.2,-6.78,75.0,0.0,-7.75,C0T820
鯉魚潭,23.935639,121.508944,0.36,27.3,-2.25,85.0,0.0,-6.4,C0T870
西林,23.8119,121.441458,0.92,28.8,-2.42,76.0,0.0,-1.91,C0T900
光復,23.660694,121.424964,0.77,28.8,-4.0,80.0,0.0,-5.51,C0T960
月眉山,23.809928,121.539828,1.15,26.4,-1.42,89.0,0.0,-6.62,C0T9A0
水源,23.991861,121.537169,0.63,25.6,0.33,89.0,5.0,-2.55,C0T9B0
和中,24.26676,121.74103,-0.38,28.1,-8.44,82.0,0.0,-9.39,C0T9D0
大坑,23.880628,121.581981,1.11,27.2,4.75,90.0,0.0,-8.56,C0T9E0
水璉,23.797131,121.542514,0.68,28.2,0.92,85.0,0.0,-7.74,C0T9F0
鳳林山,23.735269,121.420131,0.14,26.2,-4.42,86.0,0.0,-8.64,C0T9G0
加路蘭山,23.682947,121.5274,1.93,26.8,8.17,95.0,0.0,-6.89,C0T9H0
豐濱,23.583897,121.514806,1.55,28.6,-3.0,81.0,0.0,-7.0,C0T9I0
靜浦,23.455167,121.495028,0.9,28.8,6.17,92.0,0.0,-4.99,C0T9M0
富里,23.171639,121.249378,1.62,28.5,-20.25,64.0,0.0,-10.0,C0T9N0
雙連埤,24.753033,121.641303,-0.51,24.9,-1.67,90.0,0.0,-4.76,C0U520
礁溪,24.817539,121.765608,1.87,30.5,-8.44,76.0,0.0,-4.48,C0U600
玉蘭,24.675286,121.587061,0.98,27.4,-6.22,77.0,0.0,-5.76,C0U650
太平山,24.505486,121.525656,1.06,19.1,-15.56,80.0,0.0,-15.81,C0U710
南山,24.43742,121.38167,0.43,22.9,-8.0,79.0,0.0,-2.67,C0U720
龜山島,24.841667,121.953133,-0.2,25.9,2.67,94.0,0.0,-1.68,C0U750
東澳,24.52196,121.83318,1.69,30.5,-12.22,73.0,0.0,-7.92,C0U760
南澳,24.44935,121.81022,0.29,29.0,-2.56,84.0,0.0,-2.07,C0U770
五結,24.68637,121.79794,0.08,29.7,-4.89,75.0,0.0,-0.56,C0U780
頭城,24.85323,121.8308,2.28,31.2,-7.89,79.0,0.0,-2.46,C0U860
大礁溪,24.791042,121.675047,0.16,26.0,6.67,91.0,0.0,-6.33,C0U870
三星,24.66812,121.65302,1.17,29.4,-12.89,73.0,0.0,-2.61,C0U890
內城,24.71813,121.68766,1.88,30.1,-8.22,75.0,0.0,-1.72,C0U900
冬山,24.63373,121.7937,1.38,30.4,-6.22,69.0,0.0,-2.17,C0U910
羅東,24.68184,121.74934,1.62,30.5,-4.78,73.0,0.0,-1.44,C0U940
翠峰湖,24.510856,121.608044,0.7,18.7,-3.0,88.0,0.0,-15.0,C0U960
大福,24.80064,121.81389,1.28,30.0,-1.67,78.0,0.0,-3.06,C0U970
坪林石牌,24.86478,121.77396,0.23,25.0,6.44,98.0,0.0,-12.0,C0U980
員山,24.74435,121.72247,1.2,29.9,-2.22,78.0,0.0,-4.44,C0U990
土場,24.576533,121.495333,1.36,27.9,-14.33,75.0,0.0,-9.89,C0UA00
鴛鴦湖,24.590269,121.412228,0.56,19.4,2.5,93.0,0.0,-16.33,C0UA10
白嶺,24.527819,121.519031,0.02,21.2,0.0,92.0,0.0,-6.94,C0UA30
西德山,24.560647,121.752608,0.81,23.2,-7.44,85.0,0.0,-6.44,C0UA40
西帽山,24.555361,121.802628,0.31,24.2,-5.78,85.0,0.0,-4.17,C0UA50
樟樹山,24.41393,121.78325,0.09,25.5,3.0,88.0,0.0,-4.83,C0UA60
桃源谷,24.962606,121.888875,-0.28,24.9,7.78,100.0,0.0,-5.67,C0UA70
復興,23.222403,120.806089,1.73,26.1,-0.75,81.0,0.0,-14.71,C0V210
溪埔,22.738578,120.446797,1.9,30.5,-1.0,80.0,0.0,-27.83,C0V350
內門,22.975481,120.466769,2.33,30.0,0.29,86.0,0.0,-28.33,C0V360
古亭坑,22.893178,120.401947,1.43,29.6,-3.95,82.0,0.0,-17.81,C0V370
阿公店,22.804194,120.355528,1.09,29.7,-2.62,79.0,0.0,-21.38,C0V400
鳳山,22.646653,120.356122,0.58,29.8,4.05,84.0,0.0,-21.79,C0V440
鳳森,22.545064,120.392592,0.96,29.7,-5.43,79.0,0.0,-20.07,C0V450
新興,22.627422,120.298803,1.05,30.8,-6.24,75.0,0.0,-10.67,C0V490
梓官,22.760558,120.267211,0.77,30.2,-0.4,79.0,0.0,-15.07,C0V610
永安,22.82315,120.236856,0.96,30.2,-5.52,79.0,0.0,-18.07,C0V620
茄萣,22.906642,120.182608,1.08,30.6,2.14,80.0,0.0,-14.5,C0V630
湖內,22.887139,120.2445,0.66,29.9,-5.81,78.0,0.0,-13.67,C0V640
彌陀,22.783806,120.246361,1.28,30.4,-7.0,78.0,0.0,-15.62,C0V650
岡山,22.797078,120.294958,1.87,31.5,-4.43,74.0,0.0,-19.45,C0V660
仁武,22.701083,120.347722,1.82,31.3,-0.81,76.0,0.0,-23.81,C0V680
鼓山,22.623325,120.275575,0.41,30.1,0.57,80.0,0.0,-12.79,C0V690
三民,22.645017,120.311233,0.95,30.8,1.1,75.0,0.0,-15.69,C0V700
苓雅,22.622742,120.330669,1.77,31.3,3.1,78.0,0.0,-18.76,C0V710
林園,22.507747,120.394511,1.63,31.5,-2.05,76.0,0.0,-14.98,C0V720
大寮,22.605614,120.395717,1.24,30.6,-1.43,78.0,0.0,-23.1,C0V730
旗山,22.888614,120.483597,2.37,30.9,-5.81,75.0,0.0,-30.24,C0V740
路竹,22.854997,120.259439,1.98,31.4,-6.86,74.0,0.0,-16.5,C0V750
橋頭,22.757806,120.30575,1.3,31.0,-5.76,73.0,0.0,-17.95,C0V760
大社,22.730306,120.346639,1.81,31.2,-1.83,77.0,0.0,-22.86,C0V770
萬山,22.905944,120.688056,2.2,28.0,-8.0,78.0,0.0,-29.0,C0V790
六龜,22.997889,120.633583,1.92,29.1,-3.81,78.0,0.0,-29.5,C0V800
左營,22.67491,120.28491,0.97,30.0,-1.53,80.0,0.0,-19.5,C0V810
小林,23.148408,120.63325,1.62,27.2,-7.0,81.0,0.0,-22.83,C0V820
東莒,25.9652,119.98069,0.74,28.5,2.3,91.0,0.0,-3.15,C0W110
西嶼,23.5626,119.468436,1.39,28.4,-3.87,89.0,0.0,-8.7,C0W120
花嶼,23.40007,119.32276,1.62,28.8,-3.67,86.0,0.0,-4.07,C0W130
金沙,24.488292,118.408778,2.06,30.5,-11.33,75.0,0.0,-1.0,C0W140
金寧,24.457703,118.328989,1.62,30.7,-15.58,73.0,0.0,-2.0,C0W150
東河,23.296598,120.385608,2.03,30.1,-11.06,73.0,0.0,-23.28,C0X050
下營,23.22695,120.256261,1.96,30.2,-8.5,76.0,0.0,-22.47,C0X060
佳里,23.173039,120.145086,2.2,31.5,-3.0,82.0,0.0,-10.53,C0X080
臺南市北區,23.010394,120.194228,1.06,31.1,-0.12,75.0,0.0,-15.23,C0X100
臺南市南區,22.961189,120.188378,0.91,30.6,-4.79,77.0,0.0,-13.27,C0X110
麻豆,23.183289,120.248611,2.07,31.4,-2.71,77.0,0.0,-15.44,C0X120
官田,23.193217,120.315422,1.45,30.6,-0.62,80.0,0.0,-16.65,C0X130
西港,23.125608,120.203108,1.57,31.1,-6.92,72.0,0.0,-14.31,C0X140
安定,23.102614,120.227839,1.71,31.1,-0.43,79.0,0.0,-15.4,C0X150
仁德,22.968258,120.257689,2.06,31.4,-5.12,75.0,0.0,-19.85,C0X160
關廟,22.963017,120.327797,1.1,30.5,2.95,80.0,0.0,-22.45,C0X170
山上,23.0757,120.363253,1.77,30.2,-5.62,77.0,0.0,-21.46,C0X180
安平,22.993161,120.152181,1.35,31.1,-14.21,66.0,0.0,-13.21,C0X190
左鎮,23.056758,120.408522,2.45,30.4,-7.04,78.0,0.0,-25.62,C0X200
白河,23.347466,120.414427,0.99,29.2,0.5,82.0,1.0,-18.84,C0X210
學甲,23.230367,120.182187,1.94,30.4,-2.81,78.0,0.0,-16.72,C0X220
鹽水,23.272621,120.247641,1.56,29.8,-5.06,79.0,0.0,-17.84,C0X230
關子嶺,23.331169,120.508025,0.69,26.8,2.2,87.0,3.0,-28.47,C0X240
新營,23.310689,120.316681,1.69,30.4,-6.81,74.0,0.0,-27.88,C0X250
後壁,23.366358,120.362326,1.53,29.8,-8.0,75.0,0.5,-26.22,C0X260
將軍,23.214999,120.13577,1.47,30.1,-4.81,77.0,0.0,-19.88,C0X280
北門,23.267772,120.125481,1.55,30.3,-3.87,79.0,0.0,-15.6,C0X290
鹿寮,23.386047,120.477331,0.41,27.9,-3.07,83.0,8.0,-9.9,C0X300
柳營,23.253328,120.375253,1.73,29.8,-1.33,79.0,0.5,-6.83,C0X320
明里,23.208717,121.262342,0.87,28.7,-9.0,77.0,0.0,-4.0,C0Z020
佳心,23.34567,121.21316,0.56,24.3,-1.33,84.0,0.0,-7.74,C0Z050
玉里,23.3215,121.339656,-0.17,28.2,-16.56,70.0,0.0,-1.76,C0Z061
舞鶴,23.46811,121.37407,0.54,27.7,-7.73,79.0,0.0,-0.6,C0Z070
富源,23.587642,121.378225,0.74,28.0,-7.44,81.0,0.0,-2.81,C0Z080
東華,23.89525,121.549833,0.81,29.3,0.58,84.0,0.0,-3.1,C0Z100
吉安光華,23.930925,121.595153,1.13,28.8,0.33,86.0,0.0,-3.88,C0Z150
鳳林,23.746114,121.453411,0.96,28.4,-6.17,75.0,0.0,-3.5,C0Z160
卓溪,23.3443,121.3029,1.03,28.7,-7.67,73.0,0.0,-2.44,C0Z170
新城,24.040486,121.604878,1.39,29.2,-6.22,77.0,0.0,-4.94,C0Z180
富世,24.14743,121.6297,1.4,29.4,-11.33,77.0,0.0,-7.22,C0Z190
萬榮,23.709219,121.420106,1.29,28.4,-7.67,76.0,0.0,-7.71,C0Z200
瑞穗,23.5239,121.39021,1.68,28.7,-2.78,81.0,0.0,-2.67,C0Z210
和平林道,24.343922,121.656317,1.0,26.1,-9.78,81.0,0.0,-6.33,C0Z220
和平,24.30717,121.77007,0.66,29.0,-6.0,75.0,0.0,-9.06,C0Z230
瑞穗林道,23.49284,121.30688,0.89,23.0,0.0,92.0,0.0,-4.33,C0Z250
蕃薯寮,23.73835,121.540108,1.04,27.0,-3.83,85.0,0.0,-2.79,C0Z270
德武,23.47426,121.41071,1.36,28.1,-4.56,81.0,0.0,-2.72,C0Z280
赤柯山,23.36893,121.38293,1.23,24.1,-7.33,82.0,0.0,-6.28,C0Z290
東里,23.26853,121.30547,1.67,28.8,-11.44,75.0,0.0,-4.28,C0Z300
清水斷崖,24.218294,121.689142,1.71,29.2,-12.22,78.0,0.0,-16.06,C0Z310
清水林道,23.27125,121.188272,1.68,25.9,-14.0,72.0,0.0,-12.5,C0Z320
安通山,23.290728,121.348528,1.43,27.2,-4.0,79.0,0.0,-3.17,C0Z330
口湖工作站,23.589978,120.180394,1.52,29.7,-2.5,75.0,0.0,-8.32,12J990
東港工作站,22.479997,120.466058,2.1,30.3,-10.83,66.0,0.0,-22.67,12Q970
恆春工作站,22.079678,120.714425,1.27,29.5,-6.0,75.0,3.5,-17.53,12Q980
萬大發電廠,23.978875,121.139639,0.43,23.4,-14.5,76.0,0.0,-5.55,42HA10
桃改樹林分場,24.944503,121.386972,2.47,30.5,-13.67,68.0,0.0,-21.67,72AI40
桃園農改場,24.950944,121.030583,1.05,29.7,4.68,83.0,0.0,-2.53,72C440
桃改五峰分場,24.612194,121.157167,1.53,23.9,0.16,87.0,0.0,-13.29,72D080
臺中農改場,24.003028,120.534389,1.08,30.0,6.94,87.0,0.0,-13.88,72G600
中改埔里分場,23.903208,120.963364,1.85,26.2,-7.33,84.0,0.0,-8.0,72HA00
南改斗南分場,23.634556,120.477333,0.61,29.3,0.38,81.0,0.0,-14.6,72K220
南改義竹分場,23.360694,120.279361,0.23,29.3,-8.57,76.0,0.0,-14.91,72M360
南改鹿草分場,23.416869,120.283061,1.67,29.7,-8.0,76.0,0.0,-15.08,72M700
臺南農改場,23.0605,120.342194,0.78,29.7,0.98,82.0,0.5,-10.91,72N100
七股研究中心,23.081672,120.062894,2.13,30.7,-6.67,78.0,0.0,-31.42,72N240
高雄農改場,22.709333,120.525889,1.02,30.3,-5.2,73.0,0.0,-17.69,72Q010
東改班鳩分場,22.829528,121.077694,0.87,28.0,-2.23,78.0,0.0,-7.43,72S200
東改賓朗果園,22.813889,121.071278,0.34,27.1,-5.49,83.0,0.0,-7.46,72S590
花蓮農改場,23.975222,121.563889,0.77,29.0,-2.1,77.0,0.0,-6.02,72T250
花改蘭陽分場,24.686306,121.716583,1.44,30.0,-8.33,73.0,0.0,-3.1,72U480
高改旗南分場,22.857861,120.516667,0.33,29.9,2.25,77.0,0.0,-15.66,72V140
茶改北部分場,24.955778,121.631222,1.82,27.9,-7.3,75.0,0.0,-12.36,82A750
茶改場,24.908472,121.185333,1.05,29.1,-3.92,75.0,0.0,-8.07,82C160
茶改南部分場,23.762528,120.7405,1.96,27.4,-5.65,82.0,0.0,-28.42,82H840
茶改東部分場,22.907694,121.130139,0.64,28.6,-2.06,78.0,0.0,-7.6,82S580
農工中心,24.985917,121.239833,1.55,30.6,-2.76,68.0,0.0,-5.03,A2C560
水試臺西試驗場,23.717231,120.190522,0.8,30.0,0.17,87.0,0.0,-17.55,A2K360
臺大雲林校區,23.730628,120.423903,1.47,29.5,-4.67,80.0,0.0,-8.5,A2K630
臺南蘭花園區,23.340258,120.379661,1.7,29.2,-5.33,82.0,0.0,-9.67,A2N290
畜試北區分所,24.527806,120.770972,0.72,28.7,6.44,87.0,0.0,-2.06,B2E890
畜產試驗所,23.058972,120.336406,0.45,29.2,-0.67,82.0,0.0,-13.88,B2N890
畜試南區分所,21.945583,120.802167,-0.21,28.7,-3.5,80.0,5.5,-5.57,B2Q810
畜試東區分所,24.669039,121.832561,1.87,29.8,-2.33,82.0,0.0,-2.83,B2U990
蓮華池,23.918333,120.885278,-0.31,26.1,7.28,84.0,0.0,-13.42,E2H360
林試畢祿溪站,24.226944,121.308522,0.47,17.1,-14.0,71.0,0.0,-5.67,E2HA20
四湖植物園,23.676986,120.163433,2.03,30.0,5.83,94.0,0.0,-25.58,E2K600
林試六龜中心,22.991703,120.645722,1.3,28.1,-1.0,82.0,0.0,0.0,E2P980
林試太麻里2,22.598,120.99775,-0.47,28.8,7.0,82.0,5.5,5.5,E2S960
林試太麻里1,22.598922,120.980044,-0.67,28.5,7.67,81.0,5.0,5.0,E2S980
農試所(霧峰),24.031261,120.688133,1.28,30.0,-0.92,79.0,0.0,-13.91,G2F820
農試嘉義分所,23.485028,120.473806,-0.81,27.8,7.52,83.0,15.0,10.58,G2L020
農試溪口農場,23.58565,120.408111,0.42,29.6,-2.67,79.0,1.5,-7.78,G2M350
農試鳳山分所,22.646611,120.356083,0.14,30.0,6.37,79.0,0.0,-7.45,G2P820
苗改生物防治研究中心,24.422861,120.871833,1.74,27.6,-3.56,82.0,0.0,-10.83,K2E710
種苗改良場,24.225972,120.800917,1.41,27.7,-1.75,79.0,0.0,-20.52,K2F750
臺大和社,23.590856,120.888864,2.25,25.8,-7.0,82.0,0.0,-3.92,U2HA30
臺大內茅埔,23.689722,120.851117,1.8,27.1,-8.83,79.0,0.0,-5.25,U2HA40
臺大竹山,23.756972,120.681556,2.33,29.4,-9.22,76.0,0.0,-29.39,U2HA50
