站名,緯度,經度,平均溫距平,本年度平均溫,平均溼度距平,本年度日均相對溼度,本年度日均降水量,日均降水量距平,站號
淡水,25.164889,121.448906,0.12,24.59,-1.28,76.93,10.04,2.83,466900
鞍部,25.182586,121.529731,-0.59,18.74,3.1,89.71,11.15,0.85,466910
臺北,25.037658,121.514853,0.04,25.38,-2.22,71.86,14.43,7.41,466920
竹子湖,25.162078,121.544547,-0.26,20.64,1.16,84.79,11.32,3.04,466930
基隆,25.133314,121.740475,0.14,24.61,-0.1,75.71,14.13,4.47,466940
花蓮,23.975128,121.613275,-0.56,24.44,1.08,80.21,8.06,3.11,466990
新屋,25.006725,121.047492,-0.08,24.66,-1.49,80.64,11.81,7.71,467050
宜蘭,24.763975,121.756528,-0.75,23.64,2.66,83.71,8.83,1.99,467080
金門,24.407306,118.289281,0.67,23.24,3.33,84.86,4.61,0.74,467110
田中,23.873803,120.581286,-2.15,26.14,2.57,78.64,6.94,6.9,467270
澎湖,23.565503,119.563094,0.0,25.64,-0.07,81.57,1.66,-0.2,467350
臺南,22.99328,120.20492,-0.04,27.49,-0.93,72.21,2.55,0.34,467410
永康,23.038386,120.2367,0.28,27.45,2.25,73.57,3.38,1.07,467420
嘉義,23.495925,120.432906,0.03,26.32,2.04,79.71,3.54,0.67,467480
臺中,24.145736,120.684075,-0.21,26.16,2.57,75.93,9.34,3.67,467490
阿里山,23.508208,120.813242,-0.43,12.59,2.78,90.43,9.18,-0.11,467530
大武,22.35572,120.90374,0.12,26.79,-1.15,73.71,0.41,-2.0,467540
玉山,23.48718,120.95943,-0.11,5.46,2.92,82.29,9.61,1.63,467550
新竹,24.827853,121.014219,0.3,25.29,-0.33,76.21,11.75,4.71,467571
恆春,22.003897,120.746339,0.39,27.71,-1.09,72.36,1.66,-0.11,467590
成功,23.097486,121.373428,-0.22,25.01,1.23,81.64,4.28,-0.14,467610
日月潭,23.881325,120.90805,-0.26,20.76,7.01,89.79,12.83,4.0,467650
臺東,22.752211,121.154586,-0.27,26.04,1.16,77.43,5.98,2.61,467660
馬祖,26.169467,119.923158,0.94,21.3,3.69,89.64,5.06,0.73,467990
山佳,24.974944,121.402008,0.25,25.25,-4.3,75.29,15.14,9.48,C0A520
坪林,24.938183,121.70975,0.63,22.8,-3.69,87.36,14.89,6.54,C0A530
泰平,24.971197,121.823711,-0.29,20.71,-1.23,93.29,15.96,5.79,C0A550
桶後,24.848222,121.597992,-0.16,21.58,-4.76,87.57,11.86,3.1,C0A570
石碇,24.993969,121.662917,0.14,22.67,-6.11,83.0,16.39,6.74,C0A640
大坪,25.165914,121.632969,0.57,22.55,-2.83,86.29,17.29,5.54,C0A860
五指山,25.132153,121.608692,0.88,20.86,-3.76,89.64,14.86,6.69,C0A870
雙溪,25.036003,121.864242,0.32,23.54,-3.59,86.0,19.46,10.66,C0A890
三和,25.233153,121.595236,-0.26,22.4,-5.12,85.71,16.64,7.2,C0A931
金山,25.223628,121.643967,0.06,23.66,-5.85,79.21,16.11,6.07,C0A940
鼻頭角,25.129036,121.923372,0.9,24.59,-5.89,81.86,10.57,6.15,C0A950
三貂角,25.007606,122.002058,0.44,23.89,0.88,84.21,10.5,3.19,C0A970
社子,25.109508,121.469681,0.55,25.71,-1.33,77.14,12.04,5.64,C0A980
天母,25.117494,121.537169,-0.03,25.11,-5.59,69.5,10.93,4.83,C0A9C0
內湖,25.079422,121.57545,0.56,25.82,-3.3,73.43,13.0,6.71,C0A9F0
大屯山,25.175675,121.522408,1.13,19.03,2.14,95.29,12.11,4.74,C0AC40
三峽,24.939025,121.369728,1.2,26.16,-3.4,77.14,14.82,7.77,C0AC60
文山,25.00235,121.575728,-0.4,24.06,-5.14,77.57,16.07,7.59,C0AC80
新莊,25.051478,121.446756,-0.24,25.27,-3.31,71.57,14.5,7.79,C0ACA0
八里,25.150211,121.403947,1.14,26.12,1.5,80.71,10.96,3.8,C0AD10
蘆洲,25.086594,121.472331,0.51,26.17,-3.4,72.79,12.29,6.04,C0AD30
土城,24.973208,121.445169,-0.06,24.56,-2.54,78.5,15.71,8.67,C0AD40
鶯歌,24.951533,121.346294,1.12,25.92,-5.37,77.93,14.61,8.37,C0AD50
汐止,25.066881,121.658778,-0.2,24.39,-6.95,76.64,15.54,7.04,C0AH00
永和,25.01125,121.508111,0.59,26.01,-2.39,73.86,15.75,9.91,C0AH10
五分山,25.07125,121.780794,0.44,20.42,-2.58,92.07,16.21,9.08,C0AH30
平等,25.129142,121.577086,-0.64,22.17,-6.7,80.07,11.79,7.7,C0AH40
林口,25.072181,121.38084,-1.48,22.2,-1.72,83.43,12.36,9.49,C0AH50
松山,25.04871,121.55042,-0.25,25.43,1.79,70.29,14.25,10.88,C0AH70
深坑,25.002703,121.628328,0.75,24.66,-2.31,80.38,15.64,11.05,C0AH80
福山植物園,24.760717,121.58135,-0.81,18.97,0.78,94.07,12.07,2.44,C0AH90
五股,25.07445,121.42728,-0.58,23.26,-7.6,79.5,13.54,9.95,C0AI00
屈尺,24.92184,121.54475,0.33,24.7,-1.55,81.14,15.75,9.76,C0AI10
白沙灣,25.283128,121.519058,0.64,24.2,1.82,81.86,8.89,4.28,C0AI20
三重,25.057328,121.500629,-1.54,25.74,-2.29,79.64,13.0,12.13,C0AI30
石牌,25.115597,121.513139,0.73,26.47,1.35,72.71,10.25,7.32,C0AI40
七堵,25.094819,121.71713,1.38,25.24,-7.68,80.29,15.11,7.47,C0B010
基隆嶼,25.19141,121.78391,0.56,23.84,-0.09,89.64,9.75,1.75,C0B020
復興,24.820208,121.352281,0.09,21.89,-4.01,80.57,13.61,4.63,C0C460
桃園,24.992425,121.323172,0.3,25.13,-1.09,71.71,14.46,8.35,C0C480
八德,24.928708,121.283289,-0.15,24.53,-6.67,72.79,15.5,8.55,C0C490
觀音,25.027072,121.153317,-0.01,23.86,4.8,84.86,14.61,8.16,C0C590
蘆竹,25.084275,121.265767,0.02,24.76,-2.86,77.93,10.36,5.36,C0C620
大溪,24.882853,121.265547,0.25,23.64,-0.2,77.29,15.46,9.67,C0C630
平鎮,24.897503,121.214636,0.49,23.77,-1.69,77.71,20.25,14.28,C0C650
楊梅,24.912375,121.143047,-0.25,24.29,-1.54,75.93,16.29,11.02,C0C660
龍潭,24.870056,121.221389,-0.12,23.54,-1.25,78.14,14.82,8.45,C0C670
龜山,25.02846,121.38656,-1.09,22.61,-3.87,75.14,14.14,10.38,C0C680
中壢,24.977661,121.256375,0.0,24.47,-3.04,72.71,12.46,9.14,C0C700
大溪永福,24.892936,121.324975,0.62,23.85,-3.95,81.21,14.71,8.13,C0C710
梅花,24.678347,121.208558,-0.34,21.41,1.86,88.93,13.96,5.02,C0D360
峨眉,24.6905,121.017189,-0.36,23.85,2.79,89.5,14.82,6.97,C0D430
打鐵坑,24.849664,121.150789,-0.12,22.59,-2.27,82.79,11.14,4.99,C0D480
橫山,24.71116,121.11693,-0.4,22.73,11.15,95.71,10.7,3.23,C0D540
雪霸,24.526972,121.11605,-0.47,15.34,-0.71,84.0,26.14,17.52,C0D550
竹東,24.767147,121.057881,1.09,24.96,-14.43,61.0,13.0,7.23,C0D560
寶山,24.735006,121.025192,0.09,23.33,1.6,86.43,14.89,8.38,C0D580
新豐,24.87068,120.97721,0.13,23.81,5.24,86.57,15.04,9.03,C0D590
湖口,24.904794,121.043628,-0.01,24.67,-6.36,75.36,15.21,11.0,C0D650
新竹市東區,24.798681,120.986942,-0.58,24.65,-0.71,76.0,12.0,7.22,C0D660
竹南,24.708978,120.888897,0.99,25.7,2.54,82.57,4.0,-2.6,C0E420
南庄,24.601775,121.000214,-0.42,22.83,3.68,88.5,19.46,11.01,C0E430
明德,24.583486,120.885411,0.2,24.96,-2.54,82.0,12.25,5.08,C0E550
通霄,24.471892,120.704622,-0.26,24.81,0.69,84.57,7.57,1.76,C0E590
馬都安,24.451272,120.930192,-0.28,21.09,6.89,86.36,15.07,8.56,C0E610
頭份,24.688247,120.912206,1.01,26.17,1.09,76.71,11.18,5.45,C0E730
造橋,24.637056,120.864778,-0.47,24.84,-1.58,82.14,11.29,4.4,C0E740
苗栗,24.564569,120.824575,-0.41,25.34,-3.81,73.36,10.5,3.47,C0E750
銅鑼,24.489681,120.790853,-0.42,24.66,-1.79,80.21,10.82,4.03,C0E780
西湖,24.562947,120.7485,-0.23,24.43,-0.5,86.79,0.0,-6.46,C0E810
獅潭,24.539133,120.920042,-0.65,23.68,-2.04,84.0,17.86,8.92,C0E820
苑裡,24.439714,120.653053,-0.51,25.13,-0.8,79.93,6.43,1.01,C0E830
大河,24.618069,120.948578,-2.36,22.32,0.58,84.86,14.64,8.1,C0E850
高鐵苗栗,24.60725,120.826094,-0.27,24.92,1.7,80.5,10.86,6.06,C0E870
石岡,24.276061,120.777644,0.32,25.02,4.86,86.64,8.43,3.56,C0F0B0
中坑,24.248517,120.903319,-1.45,19.5,-2.33,88.79,22.11,12.77,C0F0C0
審馬陣,24.381675,121.4203,-0.94,8.69,0.76,83.71,9.71,4.83,C0F0D0
東勢,24.246428,120.833047,0.82,25.38,-2.48,77.79,13.07,4.61,C0F850
大坑,24.173142,120.722289,0.45,26.78,0.72,77.07,9.0,2.43,C0F970
神岡,24.272481,120.658314,-0.47,24.77,-4.98,78.71,5.86,0.43,C0F9I0
大安,24.345061,120.588025,-0.58,25.03,-1.11,82.64,5.04,0.38,C0F9K0
后里,24.310436,120.729725,0.1,25.36,-3.4,79.29,6.75,0.61,C0F9L0
豐原,24.254322,120.720692,0.97,26.58,-3.16,75.64,6.96,0.42,C0F9M0
大里,24.092464,120.701378,-0.58,26.57,9.01,83.21,15.39,9.66,C0F9N0
潭子,24.213106,120.703933,1.79,28.35,4.27,80.5,6.36,-0.09,C0F9O0
清水,24.312297,120.562242,-0.47,25.48,-2.34,81.29,4.54,-0.23,C0F9P0
外埔,24.347817,120.705686,-0.17,24.96,-2.29,83.14,6.21,0.48,C0F9Q0
龍井,24.184536,120.528972,-0.26,25.9,-7.23,79.14,4.68,-0.39,C0F9R0
烏日,24.107058,120.624103,-0.37,26.26,-1.1,74.79,9.32,4.29,C0F9S0
西屯,24.179494,120.641275,-0.4,26.06,-2.54,74.21,4.75,-1.06,C0F9T0
南屯,24.137006,120.637969,-0.71,26.28,-0.09,74.71,7.96,2.86,C0F9U0
新社,24.200172,120.815806,-0.14,23.5,-2.84,80.86,15.21,6.28,C0F9V0
大雅(中科園區),24.21528,120.62445,-0.93,25.04,1.94,79.71,6.64,1.85,C0F9X0
桃山,24.432739,121.303808,-0.64,8.16,2.49,81.79,13.29,4.99,C0F9Y0
雪山東峰,24.388792,121.268675,-0.56,8.89,0.88,80.14,15.71,7.86,C0F9Z0
芬園,24.015678,120.6213,-1.08,24.79,6.71,87.93,15.68,11.05,C0G620
員林,23.946503,120.585597,1.7,28.09,-5.0,76.79,10.11,6.38,C0G650
溪湖,23.94835,120.479122,1.44,27.69,8.52,94.5,16.14,12.22,C0G660
溪州,23.851589,120.499093,-0.41,25.83,-3.26,77.07,5.18,2.46,C0G720
二林,23.903325,120.376081,-0.45,25.51,0.5,87.71,10.64,8.12,C0G730
大城,23.852487,120.320935,-0.34,25.61,3.05,83.8,6.89,4.21,C0G740
福興,24.041289,120.437669,-0.26,26.46,-3.78,78.21,5.25,1.44,C0G770
秀水,24.03405,120.503869,0.12,26.56,-0.44,81.79,7.68,4.14,C0G780
田尾,23.901669,120.509389,-0.04,26.42,2.22,85.86,7.21,2.79,C0G820
埤頭,23.866003,120.452806,-0.08,25.87,-0.41,88.64,5.04,1.31,C0G830
社頭,23.897647,120.5862,0.05,27.09,5.66,82.0,6.89,2.14,C0G860
伸港,24.148933,120.484403,-0.47,25.71,-3.51,79.36,3.89,-0.31,C0G890
線西,24.143358,120.443536,-2.04,25.8,0.28,80.21,3.43,3.43,C0G900
花壇,24.032076,120.549461,-0.4,27.64,11.61,85.21,8.54,8.54,C0G910
埔里,23.972169,120.952425,-0.54,24.15,1.93,82.5,9.93,3.1,C0H890
草屯,23.973672,120.68085,-0.54,25.89,0.27,77.29,11.96,7.31,C0H960
昆陽,24.121322,121.273642,-0.45,8.4,0.05,87.57,10.68,2.31,C0H990
神木村,23.532742,120.843667,-0.12,17.55,1.21,90.36,10.46,3.26,C0H9A0
合歡山,24.143442,121.272547,0.46,7.77,-1.55,88.36,18.43,3.78,C0H9C0
廬山,24.033311,121.181808,-0.36,17.73,0.72,84.14,16.93,7.46,C0I010
信義,23.689694,120.851036,-0.73,23.07,0.86,84.29,10.32,3.3,C0I080
竹山,23.761225,120.688156,0.11,25.59,-2.62,82.07,4.68,0.48,C0I110
水里,23.812553,120.849792,-0.28,24.8,-1.52,78.36,9.07,3.34,C0I360
魚池,23.895703,120.94135,-0.4,22.82,-2.85,81.64,13.25,5.95,C0I370
集集,23.828206,120.801467,-0.67,25.09,0.67,81.43,9.07,3.44,C0I380
仁愛,24.022122,121.132206,-0.41,19.64,-2.77,83.86,15.14,5.64,C0I390
名間,23.837053,120.701447,-0.91,25.06,2.54,80.29,5.39,2.56,C0I410
國姓,24.037803,120.855072,-0.86,24.56,0.18,81.93,17.04,11.79,C0I420
南投,23.911469,120.687331,-0.73,26.21,6.0,81.07,4.54,0.98,C0I460
梅峰,24.085272,121.173572,-0.54,13.79,1.2,89.93,15.39,5.34,C0I480
萬大林道,23.928228,121.091411,-0.38,17.53,-4.39,84.5,25.39,16.61,C0I490
小奇萊,24.131764,121.295717,-0.55,8.36,-0.82,88.07,15.82,-2.65,C0I530
崙背,23.75555,120.318925,-0.7,25.31,-0.33,83.64,4.46,2.64,C0K250
四湖,23.630414,120.227125,0.15,26.28,-2.37,79.64,2.71,0.79,C0K280
宜梧,23.536281,120.169329,0.01,26.21,-2.01,79.86,1.86,-1.24,C0K291
虎尾,23.719183,120.442036,0.03,26.44,3.99,82.07,3.39,0.34,C0K330
土庫,23.679029,120.395574,-0.29,26.06,-4.58,76.86,2.21,0.45,C0K390
斗六,23.720583,120.541127,-0.5,26.09,-2.95,76.29,3.07,0.89,C0K400
北港,23.573957,120.292802,-0.3,26.23,-4.47,76.43,2.39,1.12,C0K410
西螺,23.800407,120.467394,-0.52,26.05,-1.52,78.71,3.43,1.37,C0K420
褒忠,23.690938,120.303634,-0.25,25.81,-3.0,80.14,3.14,1.56,C0K430
二崙,23.772797,120.408944,-0.5,25.71,3.33,85.29,3.11,1.43,C0K440
大埤,23.646074,120.431537,-0.32,26.23,-2.68,77.86,2.54,1.02,C0K450
斗南,23.678734,120.478359,-0.31,26.18,0.68,77.86,2.57,0.68,C0K460
林內,23.748675,120.609642,-0.53,25.53,-2.32,79.86,4.75,1.89,C0K470
莿桐,23.761192,120.502372,-0.52,25.74,-3.4,79.0,4.21,1.74,C0K480
元長,23.64981,120.315024,-0.3,26.14,0.89,79.29,2.57,0.9,C0K500
水林,23.572924,120.24597,-0.12,26.41,-2.2,78.57,2.39,0.83,C0K510
臺西,23.701547,120.197559,-0.49,25.63,0.39,81.21,3.18,1.56,C0K530
蔦松,23.514319,120.229736,-0.38,26.31,-0.38,80.0,2.43,0.85,C0K550
棋山,23.68645,120.603417,-0.46,25.82,2.96,82.21,3.04,0.07,C0K560
高鐵雲林,23.737456,120.417944,-0.48,25.73,-2.29,81.64,2.64,-0.39,C0K580
東後寮,23.369908,120.248065,-0.29,26.1,-0.72,81.36,3.21,1.07,C0M520
奮起湖,23.493903,120.699253,0.22,18.76,1.33,91.93,0.17,-8.24,C0M530
中埔,23.42538,120.5229,-0.41,25.86,-2.66,75.57,1.93,-1.87,C0M640
朴子,23.43463,120.23902,-0.84,25.6,0.33,81.5,5.5,3.69,C0M650
溪口,23.604131,120.403569,-0.25,26.04,-4.31,77.86,2.89,1.49,C0M660
大林,23.600616,120.45841,-0.36,26.49,-1.23,75.5,3.86,1.63,C0M670
太保,23.455062,120.331455,-0.62,26.24,-2.81,77.57,8.36,6.57,C0M680
水上,23.419734,120.388909,-0.3,26.24,-0.61,79.07,4.54,2.1,C0M690
竹崎,23.526178,120.555508,-0.4,25.7,-1.75,79.71,5.07,2.54,C0M700
東石,23.458927,120.15385,-0.36,26.26,-4.84,76.93,2.21,0.66,C0M710
番路,23.464657,120.554156,-0.31,25.49,0.25,78.57,2.0,-2.63,C0M720
嘉義市東區,23.457673,120.460531,-0.32,27.18,2.05,75.57,3.71,0.92,C0M730
六腳,23.492871,120.290625,-0.34,26.16,0.21,78.21,6.64,5.14,C0M740
布袋,23.380878,120.167789,-0.17,26.54,-5.27,75.71,3.14,1.82,C0M750
民雄,23.551754,120.428457,-0.42,26.47,-2.04,76.21,3.93,2.16,C0M760
嘉義梅山,23.585398,120.555587,-0.41,25.78,-0.57,79.14,3.25,0.22,C0M770
鹿草,23.41134,120.30835,-0.11,26.64,-0.91,78.0,6.07,4.17,C0M780
新港,23.553269,120.345728,-0.41,26.41,-1.74,76.5,3.82,2.43,C0M790
茶山,23.299075,120.664767,-0.24,24.41,-0.4,80.79,8.89,5.11,C0M800
里佳,23.389125,120.716647,-0.19,19.06,-1.57,85.29,9.68,3.01,C0M810
達邦,23.453994,120.749517,-0.08,21.21,3.44,84.14,8.18,1.74,C0M820
表湖,23.24186,120.64166,-0.51,22.65,-3.03,82.86,5.11,-0.18,C0M850
新美,23.338017,120.683169,-1.22,23.92,7.68,81.21,10.68,8.71,C0M860
北寮,23.079561,120.495008,0.1,26.49,3.75,84.57,4.14,0.16,C0O830
王爺宮,23.222064,120.40085,2.07,28.19,-6.22,75.0,2.36,-0.56,C0O840
大內,23.11885,120.36083,0.88,28.07,1.04,82.07,1.96,-1.35,C0O860
善化,23.112883,120.297219,0.36,26.99,3.06,86.21,2.18,0.1,C0O900
崎頂,22.959547,120.369317,0.81,27.09,0.51,80.64,4.0,0.83,C0O960
虎頭埤,23.021375,120.347878,-0.12,26.41,-2.33,78.21,3.39,0.16,C0O970
新市,23.061614,120.298197,0.74,27.79,-5.27,77.93,3.39,0.24,C0O980
阿禮,22.742908,120.743678,-0.35,20.81,-5.18,82.14,15.29,9.11,C0R130
瑪家,22.682903,120.686639,-0.12,22.69,5.14,89.93,2.46,-3.92,C0R140
鹽埔,22.739558,120.530778,-0.07,27.05,-1.76,82.93,4.64,0.61,C0R160
赤山,22.592333,120.614306,0.64,27.84,0.32,81.57,2.18,-1.41,C0R190
潮州,22.534361,120.54,0.94,28.21,-6.7,73.0,1.32,-1.84,C0R220
來義,22.527306,120.625111,0.11,26.81,1.73,80.07,0.54,-3.62,C0R240
春日,22.370361,120.628306,-0.93,26.31,-0.27,76.71,1.14,-0.53,C0R260
琉球嶼,22.332244,120.362236,0.87,28.03,-10.01,73.0,0.89,-0.44,C0R270
車城,22.0744,120.716247,-0.83,27.49,-1.16,75.57,0.86,0.86,C0R320
牡丹,22.130036,120.792639,-1.15,25.38,6.78,85.64,0.54,0.5,C0R341
貓鼻頭,21.921774,120.7358,0.47,27.27,-5.41,75.86,1.18,-0.74,C0R350
大漢山,22.405264,120.753181,-0.87,16.63,3.03,94.43,1.36,-0.11,C0R440
高樹,22.826389,120.600806,0.05,27.46,-2.33,72.43,4.93,0.8,C0R470
長治,22.693128,120.542622,1.04,28.6,-6.99,72.64,4.89,0.83,C0R480
九如,22.7405,120.490503,0.73,28.19,-5.43,74.93,3.29,0.01,C0R490
崁頂,22.514781,120.506914,0.25,27.63,-5.28,76.43,0.0,-3.21,C0R520
佳冬,22.419456,120.552375,0.22,27.5,-2.31,77.21,0.43,-1.7,C0R540
新埤,22.467947,120.582894,0.32,27.51,-7.8,73.0,0.39,-2.01,C0R550
新園,22.5434,120.461558,1.23,28.66,-8.93,71.71,4.93,1.9,C0R560
麟洛,22.65078,120.52719,1.44,29.05,-1.2,76.29,3.54,0.03,C0R570
南州,22.48591,120.50274,0.17,27.34,0.77,80.86,0.75,-2.07,C0R580
里港,22.77919,120.49459,0.12,27.43,-1.13,77.29,3.21,0.15,C0R590
舊泰武,22.588194,120.664944,0.47,23.2,-3.98,82.29,1.07,-4.65,C0R600
墾雷,21.900836,120.855269,-0.05,26.79,3.94,85.64,0.46,-2.29,C0R620
東港,22.46247,120.44074,0.71,27.71,-10.96,74.14,1.07,-5.0,C0R640
竹田,22.58486,120.54344,0.58,27.91,-10.2,75.0,2.71,-3.69,C0R650
枋寮,22.367722,120.590647,-0.38,27.32,1.33,82.0,1.32,0.95,C0R660
楓港,22.190131,120.692156,-1.22,26.9,-4.76,71.64,0.43,0.4,C0R670
佳樂水,21.993578,120.861633,-1.07,27.01,-1.2,76.93,1.04,1.04,C0R680
墾丁,21.966756,120.810269,-0.56,25.53,-3.75,81.71,0.96,0.96,C0R690
枋山,22.246844,120.661086,-0.3,27.56,-4.16,72.57,0.21,0.18,C0R700
龍磐,21.931672,120.838942,-0.87,26.38,-2.32,81.14,0.5,0.3,C0R710
旭海,22.205403,120.887614,-1.2,25.21,-2.91,79.29,0.75,0.68,C0R720
大坪頂,22.024633,120.69355,-0.88,26.42,4.13,83.93,1.25,1.22,C0R730
四林格山,22.076989,120.802439,-0.72,23.04,-3.72,89.21,2.68,2.61,C0R750
南仁湖,22.084681,120.863353,-1.28,23.96,7.15,92.21,2.32,1.99,C0R760
保力,22.071122,120.764111,-0.57,26.24,-1.16,79.57,1.54,1.54,C0R770
滿州,22.024403,120.839892,-1.03,26.37,-0.76,77.64,1.25,1.25,C0R780
九棚,22.14195,120.889281,-1.16,26.39,0.0,77.0,1.07,0.97,C0R790
丹路,22.204481,120.750989,-0.67,26.62,-2.07,74.93,0.61,0.61,C0R800
內獅,22.305064,120.642986,-0.28,27.56,14.39,91.79,0.25,0.25,C0R810
白鷺,22.454275,120.666219,-0.29,24.77,-0.83,78.57,0.43,0.13,C0R820
高士,22.121825,120.836781,-1.27,23.89,1.75,85.29,1.39,1.36,C0R830
牡丹池山,22.168389,120.841225,-1.4,22.83,2.1,89.5,0.75,0.62,C0R840
下馬,23.150427,121.070312,-1.91,21.39,9.58,89.25,3.25,2.42,C0S660
太麻里,22.60902,120.98533,0.19,22.58,2.14,89.14,1.0,-1.93,C0S690
知本,22.684866,121.005642,0.19,22.69,2.6,91.0,3.57,-0.35,C0S700
鹿野,22.917711,121.122994,0.15,23.03,3.17,88.5,0.75,-1.68,C0S710
綠島,22.6672,121.47533,0.52,25.74,-6.67,82.0,2.21,-2.24,C0S730
池上,23.119628,121.209469,-0.19,23.39,2.14,88.07,2.5,0.58,C0S740
向陽,23.248397,120.986133,0.56,14.19,11.66,91.12,11.5,5.38,C0S750
大溪山,22.478475,120.943325,-0.09,23.09,0.83,88.43,0.86,-2.51,C0S770
金崙,22.538122,120.966875,0.21,25.39,2.17,80.57,0.82,-2.0,C0S790
東河,22.972672,121.303986,-0.68,25.34,-0.77,84.43,0.89,-2.61,C0S810
長濱,23.286817,121.411975,-0.12,24.0,-4.14,83.93,6.25,1.86,C0S830
南田,22.279725,120.889208,0.61,27.03,-8.51,72.36,0.43,-2.44,C0S840
關山,23.0395,121.175017,-0.97,24.16,2.34,86.07,2.21,1.3,C0S890
蘭嶼高中,22.04909,121.51214,0.46,27.05,4.13,83.93,4.0,-0.62,C0S900
蘭嶼燈塔,22.081197,121.503117,0.46,25.46,3.57,90.5,1.39,-2.31,C0S910
金峰嘉蘭,22.594789,120.960825,-1.66,25.37,2.94,82.14,0.71,0.51,C0S920
延平,22.902581,121.084058,-1.84,23.96,5.18,84.71,0.68,0.21,C0S930
石寧山,23.223772,121.406639,-1.49,24.63,-2.07,85.93,5.64,1.42,C0S940
七塊厝,22.954453,121.229922,-0.76,23.86,-6.38,81.75,2.44,1.87,C0S950
香蘭,22.587569,120.993375,-1.15,26.28,5.24,82.57,0.64,0.34,C0S960
加津林,22.416211,120.926942,-1.06,26.32,-0.34,76.93,0.25,-0.46,C0S970
勝林山,22.430439,120.8938,-2.23,20.54,2.8,90.93,1.11,0.63,C0S980
山豬窟,22.318619,120.857372,-1.35,24.18,-0.77,81.43,0.39,-0.24,C0S990
歷坵,22.520969,120.89185,-1.44,23.07,1.23,88.43,1.29,0.94,C0SA00
檳榔四格山,22.810031,121.109308,-1.96,23.01,4.63,90.43,0.89,-1.73,C0SA10
金崙山,22.567419,120.959667,-1.2,20.94,-1.6,90.07,2.18,1.98,C0SA20
都歷,23.020333,121.323642,-1.0,25.12,-5.25,78.62,0.93,-3.98,C0SA30
瑞和,22.974361,121.156697,-1.96,24.01,1.0,83.2,1.93,1.66,C0SA40
知本（水試所）,22.702394,121.082761,-1.54,25.74,1.87,82.07,1.93,0.06,C0SA60
土坂,22.453108,120.887572,-1.1,25.59,4.79,81.86,0.36,0.32,C0SA80
達仁林場,22.264347,120.823972,-1.15,23.49,1.59,84.79,0.61,0.44,C0SA90
大禹嶺,24.186117,121.316086,-0.81,10.69,0.75,83.43,12.0,5.8,C0T790
天祥,24.179597,121.495639,-0.34,21.11,2.24,85.29,4.29,1.07,C0T820
鯉魚潭,23.935639,121.508944,-0.88,22.17,0.95,91.21,8.46,3.52,C0T870
西林,23.8119,121.441458,0.02,23.47,4.42,86.64,5.25,-0.37,C0T900
光復,23.660694,121.424964,-0.02,23.86,-2.49,86.71,9.96,5.15,C0T960
月眉山,23.809928,121.539828,0.02,21.63,-3.88,91.29,2.0,-3.03,C0T9A0
水源,23.991861,121.537169,-0.01,21.12,-4.41,88.57,9.79,3.27,C0T9B0
和中,24.26676,121.74103,-0.77,23.63,9.92,99.43,20.46,12.95,C0T9D0
大坑,23.880628,121.581981,-0.08,21.87,-0.09,90.93,9.93,3.6,C0T9E0
水璉,23.797131,121.542514,-0.49,23.11,-0.48,88.14,10.25,4.72,C0T9F0
鳳林山,23.735269,121.420131,-0.91,21.06,-3.86,91.14,8.64,2.7,C0T9G0
加路蘭山,23.682947,121.5274,0.23,20.99,3.17,98.21,12.29,5.1,C0T9H0
豐濱,23.583897,121.514806,0.14,23.46,-5.54,85.5,20.18,13.64,C0T9I0
靜浦,23.455167,121.495028,-0.16,24.17,-0.84,88.43,13.25,7.85,C0T9M0
富里,23.171639,121.249378,-1.55,23.95,14.31,98.38,5.19,-2.28,C0T9N0
雙連埤,24.753033,121.641303,-0.88,19.79,-4.31,91.36,11.89,1.82,C0U520
礁溪,24.817539,121.765608,-0.4,23.69,-5.52,82.21,9.18,0.79,C0U600
玉蘭,24.675286,121.587061,-0.26,21.45,-5.02,82.71,12.36,4.08,C0U650
太平山,24.505486,121.525656,-0.31,14.75,-1.0,92.0,11.21,5.52,C0U710
南山,24.43742,121.38167,-0.66,17.79,-8.6,88.29,8.25,3.24,C0U720
龜山島,24.841667,121.953133,-0.85,21.24,-7.26,86.5,6.5,3.24,C0U750
東澳,24.52196,121.83318,-1.05,23.29,-2.97,86.14,15.5,7.35,C0U760
南澳,24.44935,121.81022,-1.1,23.51,-0.87,85.0,7.0,0.7,C0U770
五結,24.68637,121.79794,-1.26,23.19,-1.33,84.71,11.75,4.83,C0U780
頭城,24.85323,121.8308,-0.67,23.69,-0.22,87.07,9.29,4.05,C0U860
大礁溪,24.791042,121.675047,-0.28,21.19,-0.05,89.29,10.96,4.02,C0U870
三星,24.66812,121.65302,-0.7,22.84,-8.2,82.0,8.96,2.86,C0U890
內城,24.71813,121.68766,-0.23,23.46,-4.64,84.36,8.68,2.92,C0U900
冬山,24.63373,121.7937,-0.65,23.56,-0.77,81.5,11.64,5.78,C0U910
羅東,24.68184,121.74934,-0.39,23.59,-1.13,84.93,12.0,6.17,C0U940
鶯子嶺,24.89754,121.79244,-0.11,17.91,-10.83,86.93,14.64,6.51,C0U950
翠峰湖,24.510856,121.608044,-0.46,13.79,1.06,94.93,11.25,4.92,C0U960
大福,24.80064,121.81389,-0.9,23.22,-0.15,83.43,8.46,2.35,C0U970
坪林石牌,24.86478,121.77396,-0.15,20.29,1.71,92.14,12.5,5.24,C0U980
員山,24.74435,121.72247,-0.62,23.49,0.61,85.5,8.79,2.99,C0U990
土場,24.576533,121.495333,-0.95,21.46,-1.99,86.5,8.75,2.55,C0UA00
鴛鴦湖,24.590269,121.412228,-0.25,15.01,0.86,95.57,12.43,4.57,C0UA10
白嶺,24.527819,121.519031,-0.37,16.81,-3.81,92.5,11.54,4.3,C0UA30
西德山,24.560647,121.752608,-0.01,18.03,-5.76,90.57,17.11,7.98,C0UA40
西帽山,24.555361,121.802628,-0.04,19.49,-10.2,84.71,26.39,15.25,C0UA50
樟樹山,24.41393,121.78325,-0.49,20.76,-1.95,87.14,9.14,5.05,C0UA60
桃源谷,24.962606,121.888875,0.0,20.59,-2.55,92.79,15.54,9.35,C0UA70
復興,23.222403,120.806089,0.21,22.98,1.03,80.79,8.14,0.71,C0V210
溪埔,22.738578,120.446797,0.19,27.34,1.58,78.29,3.54,0.86,C0V350
內門,22.975481,120.466769,0.9,27.18,-0.82,78.93,2.79,-0.58,C0V360
古亭坑,22.893178,120.401947,0.24,26.77,-3.01,79.5,4.04,1.8,C0V370
阿公店,22.804194,120.355528,-0.09,26.74,-4.41,76.79,4.11,1.85,C0V400
鳳山,22.646653,120.356122,-0.09,27.62,5.08,78.71,3.07,-0.26,C0V440
鳳森,22.545064,120.392592,0.36,27.44,-5.76,74.93,7.21,4.06,C0V450
新興,22.627422,120.298803,0.45,28.01,-5.35,71.93,2.71,0.01,C0V490
梓官,22.760558,120.267211,-0.05,27.31,-3.08,75.5,4.32,1.59,C0V610
永安,22.82315,120.236856,-0.17,26.9,-5.21,76.71,6.79,4.0,C0V620
茄萣,22.906642,120.182608,0.13,27.26,1.1,78.5,5.71,2.94,C0V630
湖內,22.887139,120.2445,-0.47,26.69,-3.27,75.71,9.29,6.52,C0V640
彌陀,22.783806,120.246361,0.44,27.59,-2.9,78.0,5.43,2.78,C0V650
岡山,22.797078,120.294958,0.48,28.22,-4.22,72.36,6.14,3.65,C0V660
仁武,22.701083,120.347722,0.47,28.31,-3.4,73.36,2.61,-0.14,C0V680
鼓山,22.623325,120.275575,-0.16,27.31,-5.62,74.71,3.71,0.62,C0V690
三民,22.645017,120.311233,-0.05,28.0,-0.07,72.29,3.18,0.28,C0V700
苓雅,22.622742,120.330669,0.7,28.51,3.47,75.36,0.04,-2.72,C0V710
林園,22.507747,120.394511,0.64,28.81,-0.96,73.64,5.36,2.6,C0V720
大寮,22.605614,120.395717,0.02,27.88,0.27,75.36,3.61,0.77,C0V730
旗山,22.888614,120.483597,1.1,28.23,-2.44,73.29,2.68,-1.33,C0V740
路竹,22.854997,120.259439,0.62,28.07,-3.49,73.14,7.11,4.19,C0V750
橋頭,22.757806,120.30575,0.43,28.26,-5.93,71.64,4.21,1.7,C0V760
萬山,22.905944,120.688056,0.66,25.56,-1.14,76.57,9.18,4.01,C0V790
六龜,22.997889,120.633583,0.34,26.49,1.44,77.64,3.75,-1.75,C0V800
左營,22.67491,120.28491,-0.31,27.1,-3.4,75.43,2.57,-0.02,C0V810
小林,23.148408,120.63325,0.04,24.92,1.29,81.36,6.86,1.12,C0V820
花嶼,23.40007,119.32276,0.39,25.01,-1.97,84.14,1.11,0.02,C0W130
金寧,24.457703,118.328989,-0.11,24.26,-5.14,75.86,0.68,-5.35,C0W150
東河,23.296598,120.385608,-0.45,26.54,-3.93,75.79,2.07,0.06,C0X050
下營,23.22695,120.256261,-0.24,26.61,-2.4,77.0,2.64,1.39,C0X060
佳里,23.173039,120.145086,-0.02,26.84,0.97,80.57,3.43,1.37,C0X080
臺南市北區,23.010394,120.194228,0.22,27.62,23.37,99.0,3.04,-0.08,C0X100
臺南市南區,22.961189,120.188378,0.27,27.69,-2.09,76.64,2.71,-0.31,C0X110
麻豆,23.183289,120.248611,0.67,27.74,0.03,79.64,2.43,0.25,C0X120
官田,23.193217,120.315422,0.32,27.39,2.96,81.79,2.14,-0.29,C0X130
西港,23.125608,120.203108,-0.15,27.02,-4.34,77.07,1.86,-0.64,C0X140
安定,23.102614,120.227839,0.37,27.28,-0.66,80.57,2.71,-0.27,C0X150
仁德,22.968258,120.257689,0.53,27.82,0.23,78.07,3.39,0.18,C0X160
關廟,22.963017,120.327797,-2.22,25.35,3.8,78.62,3.04,-1.32,C0X170
山上,23.0757,120.363253,0.27,26.99,-0.4,80.36,4.5,1.27,C0X180
安平,22.993161,120.152181,0.01,27.19,-10.29,71.07,3.46,0.25,C0X190
左鎮,23.056758,120.408522,1.06,27.19,-2.52,80.43,3.71,0.71,C0X200
白河,23.347466,120.414427,-0.42,26.36,-0.16,77.93,4.57,2.4,C0X210
學甲,23.230367,120.182187,-0.03,26.66,-0.06,77.57,1.61,-0.11,C0X220
鹽水,23.272621,120.247641,-0.34,26.29,0.31,79.21,1.46,0.09,C0X230
關子嶺,23.331169,120.508025,-0.39,24.16,2.85,86.57,4.32,-0.02,C0X240
新營,23.310689,120.316681,-0.28,26.87,-0.59,75.79,1.89,0.54,C0X250
後壁,23.366358,120.362326,-0.23,26.46,-2.23,77.43,2.32,0.74,C0X260
將軍,23.214999,120.13577,-0.33,26.34,-1.41,77.86,2.25,0.64,C0X280
北門,23.267772,120.125481,-0.28,26.43,-2.49,78.29,1.96,0.5,C0X290
鹿寮,23.386047,120.477331,-0.36,25.79,-1.77,80.21,2.25,-0.44,C0X300
柳營,23.253328,120.375253,-1.29,26.72,2.35,77.21,1.46,-0.1,C0X320
明里,23.208717,121.262342,-0.29,23.34,0.17,90.57,4.11,0.23,C0Z020
佳心,23.34567,121.21316,-0.33,19.93,7.35,95.29,5.43,2.45,C0Z050
玉里,23.3215,121.339656,0.18,24.12,5.7,91.86,4.68,1.04,C0Z061
舞鶴,23.46811,121.37407,-0.07,23.04,9.2,99.36,5.18,1.96,C0Z070
富源,23.587642,121.378225,-0.03,23.14,-1.22,89.36,7.04,0.77,C0Z080
東華,23.89525,121.549833,-0.39,23.99,0.12,89.79,4.89,-0.12,C0Z100
吉安光華,23.930925,121.595153,-0.3,23.98,-9.67,78.0,7.5,3.17,C0Z150
鳳林,23.746114,121.453411,-0.5,23.46,-2.76,82.57,7.68,3.12,C0Z160
卓溪,23.3443,121.3029,-0.91,23.85,-1.07,80.21,4.18,1.59,C0Z170
新城,24.040486,121.604878,-0.41,24.0,13.45,96.71,8.79,3.94,C0Z180
富世,24.14743,121.6297,-0.2,24.15,-5.47,82.36,9.21,5.53,C0Z190
萬榮,23.709219,121.420106,-0.24,23.39,-3.86,84.14,7.21,2.73,C0Z200
瑞穗,23.5239,121.39021,-0.13,23.79,1.97,88.14,9.18,4.79,C0Z210
和平林道,24.343922,121.656317,-0.91,20.41,-4.79,88.21,4.46,0.85,C0Z220
和平,24.30717,121.77007,-1.27,23.26,-4.27,78.36,13.25,9.69,C0Z230
瑞穗林道,23.49284,121.30688,-0.38,18.42,1.79,97.57,9.0,1.72,C0Z250
蕃薯寮,23.73835,121.540108,-0.12,22.24,-5.55,87.43,15.86,11.39,C0Z270
德武,23.47426,121.41071,-0.47,23.25,0.44,88.57,5.21,2.23,C0Z280
赤柯山,23.36893,121.38293,-0.14,19.58,-1.68,90.79,7.79,4.26,C0Z290
東里,23.26853,121.30547,-0.32,23.88,-2.67,85.64,4.25,1.01,C0Z300
清水斷崖,24.218294,121.689142,-0.73,23.48,-5.62,83.36,13.29,9.09,C0Z310
清水林道,23.27125,121.188272,-0.18,21.08,0.28,88.21,0.0,-3.88,C0Z320
安通山,23.290728,121.348528,-0.58,21.93,3.01,90.43,4.75,1.56,C0Z330
口湖工作站,23.589978,120.180394,0.66,26.02,-1.44,74.38,2.19,2.09,12J990
東港工作站,22.479997,120.466058,0.6,27.78,-6.11,65.46,1.12,-1.37,12Q970
恆春工作站,22.079678,120.714425,1.78,27.47,-0.06,70.54,0.92,-1.4,12Q980
萬大發電廠,23.978875,121.139639,-0.16,20.45,-4.65,81.85,22.0,15.96,42HA10
桃改樹林分場,24.944503,121.386972,-1.81,24.61,-2.47,74.0,16.77,13.87,72AI40
桃園農改場,24.950944,121.030583,0.4,24.72,-2.66,80.69,16.35,10.43,72C440
桃改五峰分場,24.612194,121.157167,0.28,19.8,1.54,89.31,15.77,7.67,72D080
臺中農改場,24.003028,120.534389,-0.2,25.56,5.13,86.46,13.27,9.5,72G600
中改埔里分場,23.903208,120.963364,-0.31,22.31,0.29,88.69,13.92,3.22,72HA00
南改斗南分場,23.634556,120.477333,0.43,26.41,0.28,81.23,1.12,-2.71,72K220
南改義竹分場,23.360694,120.279361,-0.06,26.15,-4.2,79.08,3.27,0.78,72M360
南改鹿草分場,23.416869,120.283061,0.53,26.13,-0.19,82.85,8.77,6.7,72M700
臺南農改場,23.0605,120.342194,0.01,26.58,2.73,82.15,1.23,-0.91,72N100
七股研究中心,23.081672,120.062894,0.68,26.89,-2.5,79.46,3.69,0.85,72N240
高雄農改場,22.709333,120.525889,0.28,27.89,0.72,76.54,5.15,2.7,72Q010
東改班鳩分場,22.829528,121.077694,-0.1,23.82,0.09,83.54,1.21,-1.56,72S200
東改賓朗果園,22.813889,121.071278,0.03,23.57,-1.78,87.75,2.23,-0.32,72S590
花蓮農改場,23.975222,121.563889,-0.26,23.93,-0.66,82.23,9.27,5.09,72T250
花改蘭陽分場,24.686306,121.716583,-0.61,23.31,-0.48,84.62,11.38,5.78,72U480
高改旗南分場,22.857861,120.516667,-1.33,26.81,7.23,78.54,1.0,-1.3,72V140
茶改北部分場,24.955778,121.631222,0.0,21.89,-0.93,82.85,20.27,11.55,82A750
茶改場,24.908472,121.185333,0.06,23.72,-4.34,78.46,17.27,11.19,82C160
茶改中部分場,23.875611,120.913583,-1.08,20.91,3.26,88.85,14.58,5.87,82H320
茶改南部分場,23.762528,120.7405,-0.8,23.47,0.35,86.0,16.0,12.91,82H840
茶改東部分場,22.907694,121.130139,-0.58,24.32,-0.78,82.38,0.73,-1.74,82S580
農工中心,24.985917,121.239833,0.45,24.59,0.35,74.46,16.15,9.45,A2C560
水試臺西試驗場,23.717231,120.190522,-0.7,26.15,3.3,84.69,4.19,0.29,A2K360
臺大雲林校區,23.730628,120.423903,-1.91,25.67,6.93,82.46,3.35,3.35,A2K630
臺南蘭花園區,23.340258,120.379661,-1.18,26.35,5.95,82.15,3.62,3.45,A2N290
畜產試驗所,23.058972,120.336406,-0.21,26.4,2.75,81.85,3.08,0.77,B2N890
畜試南區分所,21.945583,120.802167,0.02,27.02,-4.95,72.38,1.04,-1.35,B2Q810
畜試東區分所,24.669039,121.832561,-1.73,23.34,3.32,89.92,12.42,11.82,B2U990
蓮華池,23.918333,120.885278,-1.36,22.21,5.66,87.08,12.31,4.84,E2H360
林試畢祿溪站,24.226944,121.308522,-2.02,13.18,13.14,89.08,13.62,12.32,E2HA20
四湖植物園,23.676986,120.163433,0.38,25.87,8.78,92.85,4.5,3.2,E2K600
林試六龜中心,22.991703,120.645722,-1.2,25.59,8.02,81.15,3.92,1.39,E2P980
林試太麻里2,22.598,120.99775,-1.52,25.94,0.29,77.15,1.0,0.8,E2S960
林試太麻里1,22.598922,120.980044,-1.3,25.5,2.22,80.15,1.31,1.01,E2S980
農試所(霧峰),24.031261,120.688133,0.1,26.03,5.95,87.23,19.08,14.75,G2F820
農試嘉義分所,23.485028,120.473806,0.02,25.78,1.71,81.15,3.15,0.0,G2L020
農試溪口農場,23.58565,120.408111,1.5,26.23,-3.45,80.46,3.0,0.58,G2M350
農試鳳山分所,22.646611,120.356083,-0.23,27.66,1.32,73.15,2.77,0.94,G2P820
苗栗農改場,24.495722,120.829111,-0.18,24.43,1.49,82.38,14.5,9.37,K2E360
苗改生物防治研究中心,24.422861,120.871833,-0.72,23.24,0.59,83.85,13.58,6.45,K2E710
種苗改良場,24.225972,120.800917,-0.09,23.55,8.1,87.69,13.0,5.15,K2F750
溪頭,23.670306,120.798194,2.1,20.56,-2.79,88.0,2.62,-5.6,U2H480
臺大和社,23.590856,120.888864,-0.1,21.74,4.11,88.54,7.65,0.74,U2HA30
臺大內茅埔,23.689722,120.851117,-0.48,23.1,1.35,84.85,11.15,2.25,U2HA40
臺大竹山,23.756972,120.681556,-0.22,25.52,-0.07,79.31,4.92,-0.23,U2HA50
