站名,緯度,經度,平均溫距平,本年度平均溫,平均溼度距平,本年度日均相對溼度,本年度日均降水量,日均降水量距平,站號
淡水,25.164889,121.448906,2.75,31.85,-15.4,59.75,0.0,-4.19,466900
鞍部,25.182586,121.529731,0.49,23.98,-0.63,85.25,0.02,-8.72,466910
臺北,25.037658,121.514853,1.77,31.92,-9.87,60.75,0.0,-8.05,466920
竹子湖,25.162078,121.544547,1.09,26.23,-5.75,77.0,0.0,-7.28,466930
基隆,25.133314,121.740475,1.38,31.03,-3.63,68.33,0.03,-4.18,466940
花蓮,23.975128,121.613275,1.2,29.95,-4.41,73.0,0.25,-6.37,466990
新屋,25.006725,121.047492,1.02,30.62,-6.5,71.25,0.0,-0.56,467050
宜蘭,24.763975,121.756528,0.65,29.73,2.5,79.67,0.03,-3.61,467080
金門,24.407306,118.289281,2.37,30.93,-14.56,71.0,0.0,-0.67,467110
田中,23.873803,120.581286,0.63,30.37,-3.5,76.0,0.0,-1.5,467270
澎湖,23.565503,119.563094,0.79,29.8,1.67,84.67,0.0,-3.84,467350
臺南,22.99328,120.20492,0.2,30.04,-1.88,73.2,3.0,-5.54,467410
永康,23.038386,120.2367,0.24,29.82,2.73,75.2,1.5,-6.89,467420
嘉義,23.495925,120.432906,-0.32,29.02,5.82,81.25,19.75,7.37,467480
臺中,24.145736,120.684075,1.5,30.67,-1.12,72.67,0.0,-10.81,467490
阿里山,23.508208,120.813242,-0.03,14.98,4.05,93.25,7.12,-15.77,467530
大武,22.35572,120.90374,0.11,29.2,1.26,77.25,1.38,-8.69,467540
玉山,23.48718,120.95943,0.69,9.0,-2.98,70.0,0.02,-15.19,467550
新竹,24.827853,121.014219,1.33,30.97,-3.31,69.67,0.0,-3.44,467571
恆春,22.003897,120.746339,0.14,29.25,-1.31,78.5,8.92,-1.47,467590
成功,23.097486,121.373428,0.47,28.85,-1.33,78.5,0.4,-6.64,467610
日月潭,23.881325,120.90805,1.24,24.37,6.9,90.67,0.0,-17.04,467650
臺東,22.752211,121.154586,0.46,29.82,-0.05,75.5,1.12,-5.36,467660
馬祖,26.169467,119.923158,0.17,27.67,8.91,93.25,0.07,-2.68,467990
山佳,24.974944,121.402008,2.44,31.92,-9.51,65.0,0.0,-8.41,C0A520
坪林,24.938183,121.70975,2.57,29.08,-7.51,80.25,0.0,-8.86,C0A530
泰平,24.971197,121.823711,1.41,26.88,-2.53,88.0,0.0,-7.08,C0A550
桶後,24.848222,121.597992,2.04,27.95,-12.83,75.75,0.0,-8.96,C0A570
石碇,24.993969,121.662917,1.94,28.98,-16.22,70.25,0.0,-5.49,C0A640
大坪,25.165914,121.632969,1.01,27.75,-3.17,80.25,0.0,-5.98,C0A860
五指山,25.132153,121.608692,2.28,26.83,-4.35,85.5,0.0,-6.15,C0A870
雙溪,25.036003,121.864242,2.26,30.5,-3.43,79.0,0.0,-4.79,C0A890
三和,25.233153,121.595236,0.42,28.35,2.64,85.25,0.0,-5.05,C0A931
金山,25.223628,121.643967,1.3,30.22,-7.35,70.5,0.0,-4.81,C0A940
鼻頭角,25.129036,121.923372,0.95,29.42,2.98,86.5,0.0,-1.39,C0A950
三貂角,25.007606,122.002058,1.69,29.78,2.81,84.25,0.0,-1.69,C0A970
社子,25.109508,121.469681,2.44,32.65,-11.51,61.75,0.0,-5.03,C0A980
天母,25.117494,121.537169,1.74,31.62,-11.85,59.25,0.0,-6.46,C0A9C0
內湖,25.079422,121.57545,2.03,32.33,-7.36,63.25,0.0,-8.37,C0A9F0
大屯山,25.175675,121.522408,1.79,23.98,2.02,96.25,0.0,-4.23,C0AC40
三峽,24.939025,121.369728,3.19,32.75,-8.53,66.5,0.0,-7.35,C0AC60
信義,25.037822,121.564597,1.53,31.6,-8.25,64.0,0.0,-7.7,C0AC70
文山,25.00235,121.575728,1.62,30.9,-16.04,63.25,0.0,-7.14,C0AC80
新莊,25.051478,121.446756,1.57,32.28,-11.87,55.75,0.0,-4.77,C0ACA0
八里,25.150211,121.403947,2.66,32.67,-3.55,68.0,0.0,-2.65,C0AD10
蘆洲,25.086594,121.472331,1.25,32.17,-3.1,65.25,0.0,-4.29,C0AD30
土城,24.973208,121.445169,1.28,30.52,-7.75,68.75,0.0,-7.73,C0AD40
鶯歌,24.951533,121.346294,2.24,31.88,-9.97,66.0,0.0,-7.11,C0AD50
汐止,25.066881,121.658778,1.47,31.17,-14.06,62.0,0.0,-6.79,C0AH00
永和,25.01125,121.508111,2.0,32.08,-2.86,65.0,0.0,-9.2,C0AH10
五分山,25.07125,121.780794,1.83,25.83,-0.05,92.25,0.12,-6.84,C0AH30
平等,25.129142,121.577086,0.58,27.88,-6.12,72.5,0.0,-9.12,C0AH40
林口,25.072181,121.38084,2.22,30.58,-7.96,71.25,0.0,-7.54,C0AH50
松山,25.04871,121.55042,1.62,31.75,-0.33,63.75,0.0,-11.03,C0AH70
深坑,25.002703,121.628328,2.54,30.52,-11.86,70.25,0.0,-12.19,C0AH80
福山植物園,24.760717,121.58135,0.4,24.48,0.39,90.5,0.0,-6.36,C0AH90
五股,25.07445,121.42728,3.11,31.7,-6.11,70.0,0.0,-10.19,C0AI00
屈尺,24.92184,121.54475,3.59,31.9,-14.22,68.0,0.0,-10.89,C0AI10
白沙灣,25.283128,121.519058,1.5,30.05,-0.5,76.0,0.0,-4.71,C0AI20
三重,25.057328,121.500629,2.64,32.72,-15.33,64.0,0.0,-12.5,C0AI30
石牌,25.115597,121.513139,1.72,32.12,-7.0,62.25,0.0,-14.83,C0AI40
七堵,25.094819,121.71713,2.04,31.42,-6.5,70.0,0.0,-9.56,C0B010
基隆嶼,25.19141,121.78391,0.45,28.8,5.67,93.75,0.0,-5.58,C0B020
復興,24.820208,121.352281,2.23,27.7,-13.01,70.25,0.0,-8.12,C0C460
桃園,24.992425,121.323172,1.87,31.87,-7.88,58.75,0.0,-5.12,C0C480
八德,24.928708,121.283289,1.67,30.85,-10.74,62.0,0.0,-5.52,C0C490
觀音,25.027072,121.153317,1.78,30.63,-6.79,68.75,0.0,-1.22,C0C590
蘆竹,25.084275,121.265767,2.61,32.2,-12.25,62.75,0.0,-1.72,C0C620
大溪,24.882853,121.265547,1.6,29.5,-5.87,67.25,0.0,-6.01,C0C630
平鎮,24.897503,121.214636,1.61,29.68,-4.99,69.5,0.0,-5.33,C0C650
楊梅,24.912375,121.143047,1.02,30.15,-3.88,66.0,0.0,-5.69,C0C660
龍潭,24.870056,121.221389,1.24,29.32,-5.04,68.25,0.0,-12.69,C0C670
龜山,25.02846,121.38656,1.62,29.83,-18.42,55.25,0.0,-10.5,C0C680
中壢,24.977661,121.256375,1.27,30.67,-6.69,61.75,0.0,-9.67,C0C700
大溪永福,24.892936,121.324975,2.29,29.9,-10.75,71.0,0.0,-19.79,C0C710
梅花,24.678347,121.208558,1.0,26.22,-2.65,83.0,0.38,-14.32,C0D360
峨眉,24.6905,121.017189,0.69,28.75,4.54,88.0,1.25,-3.38,C0D430
打鐵坑,24.849664,121.150789,1.02,27.95,-7.37,75.0,0.0,-4.43,C0D480
橫山,24.71116,121.11693,1.15,28.1,4.46,87.75,0.0,-7.47,C0D540
雪霸,24.526972,121.11605,0.04,18.88,8.98,89.75,2.38,-0.8,C0D550
竹東,24.767147,121.057881,2.41,30.72,-1.91,69.0,0.0,-2.19,C0D560
寶山,24.735006,121.025192,0.95,28.28,2.62,84.25,0.12,-3.23,C0D580
新豐,24.87068,120.97721,1.37,29.7,-2.35,75.75,0.0,-0.92,C0D590
湖口,24.904794,121.043628,1.17,30.55,-6.96,66.75,0.0,-0.75,C0D650
新竹市東區,24.798681,120.986942,0.94,30.12,-2.22,69.25,0.0,-3.86,C0D660
竹南,24.708978,120.888897,1.08,30.28,6.71,80.0,0.25,-3.09,C0E420
南庄,24.601775,121.000214,0.62,27.42,5.69,86.5,16.0,6.64,C0E430
明德,24.583486,120.885411,0.99,29.75,4.1,80.5,4.5,1.43,C0E550
通霄,24.471892,120.704622,0.93,29.82,0.97,80.75,0.0,-2.38,C0E590
馬都安,24.451272,120.930192,0.68,24.58,3.45,88.5,4.75,-6.4,C0E610
頭份,24.688247,120.912206,0.84,30.68,5.03,73.5,2.25,0.28,C0E730
造橋,24.637056,120.864778,0.7,30.07,2.62,79.75,0.5,-1.24,C0E740
苗栗,24.564569,120.824575,0.25,30.05,0.69,70.75,1.25,-1.66,C0E750
銅鑼,24.489681,120.790853,1.04,29.72,-1.35,76.0,0.5,-3.89,C0E780
西湖,24.562947,120.7485,1.03,29.52,0.32,83.75,0.25,-1.36,C0E810
獅潭,24.539133,120.920042,0.73,28.53,0.71,82.33,8.0,4.22,C0E820
苑裡,24.439714,120.653053,0.82,30.22,0.29,76.5,0.0,-3.73,C0E830
大河,24.618069,120.948578,-1.19,27.1,2.6,79.5,7.25,1.05,C0E850
高鐵苗栗,24.60725,120.826094,0.11,29.85,17.39,85.0,0.62,-0.4,C0E870
石岡,24.276061,120.777644,1.6,28.5,-0.5,81.25,16.38,0.46,C0F0B0
中坑,24.248517,120.903319,0.86,23.15,0.21,92.25,11.88,-8.12,C0F0C0
審馬陣,24.381675,121.4203,3.24,14.2,-34.83,55.5,0.0,-4.97,C0F0D0
東勢,24.246428,120.833047,1.98,28.9,-2.59,76.5,9.0,-3.79,C0F850
大坑,24.173142,120.722289,1.95,30.68,2.35,76.5,13.0,3.85,C0F970
神岡,24.272481,120.658314,1.02,29.3,-3.13,77.0,8.5,3.83,C0F9I0
大安,24.345061,120.588025,0.59,29.83,1.05,80.25,7.5,3.08,C0F9K0
后里,24.310436,120.729725,1.31,29.75,0.19,78.0,12.62,6.81,C0F9L0
豐原,24.254322,120.720692,3.07,31.48,-3.28,72.0,10.12,3.42,C0F9M0
大里,24.092464,120.701378,2.15,31.72,2.75,75.25,1.25,-6.62,C0F9N0
潭子,24.213106,120.703933,1.44,30.78,2.55,76.25,12.0,5.23,C0F9O0
清水,24.312297,120.562242,1.04,30.77,-0.43,78.0,0.0,-4.49,C0F9P0
外埔,24.347817,120.705686,0.68,29.38,0.7,80.0,1.38,-3.08,C0F9Q0
龍井,24.184536,120.528972,0.85,30.45,-5.26,76.5,8.0,3.21,C0F9R0
烏日,24.107058,120.624103,1.34,30.65,-2.58,71.75,2.38,-4.17,C0F9S0
西屯,24.179494,120.641275,0.9,30.28,-0.69,73.0,12.38,6.31,C0F9T0
南屯,24.137006,120.637969,0.9,30.52,-0.92,72.75,3.25,-4.46,C0F9U0
新社,24.200172,120.815806,1.15,27.1,1.05,85.75,16.25,4.07,C0F9V0
大雅(中科園區),24.21528,120.62445,1.51,29.42,-1.25,78.25,8.12,1.31,C0F9X0
桃山,24.432739,121.303808,2.04,12.68,-23.65,61.75,0.0,-7.62,C0F9Y0
雪山東峰,24.388792,121.268675,2.37,13.88,-23.62,59.75,0.0,-5.58,C0F9Z0
芬園,24.015678,120.6213,0.72,29.08,3.95,85.5,0.25,-10.19,C0G620
員林,23.946503,120.585597,3.02,32.5,-4.29,74.75,0.62,-8.61,C0G650
溪湖,23.94835,120.479122,1.59,30.6,-4.47,78.25,4.0,-6.24,C0G660
溪州,23.851589,120.499093,1.52,29.78,-7.32,74.5,12.88,-3.64,C0G720
二林,23.903325,120.376081,1.24,29.72,-1.02,86.25,4.88,-9.75,C0G730
大城,23.852487,120.320935,1.1,29.48,-0.66,81.75,3.12,-13.42,C0G740
福興,24.041289,120.437669,0.92,30.92,-6.46,75.0,1.38,-8.74,C0G770
秀水,24.03405,120.503869,1.23,30.82,-0.89,79.0,0.25,-9.08,C0G780
埔鹽,24.000394,120.431683,1.59,30.78,-6.1,76.75,11.38,0.7,C0G800
埔心,23.947633,120.525456,2.21,31.85,-0.17,75.5,2.0,-8.94,C0G810
田尾,23.901669,120.509389,1.54,30.7,-0.24,82.5,3.62,-7.63,C0G820
埤頭,23.866003,120.452806,0.94,30.25,0.19,85.75,9.25,-0.18,C0G830
社頭,23.897647,120.5862,1.24,31.0,8.14,80.25,5.25,-8.13,C0G860
二水,23.810742,120.6173,2.04,30.88,-1.39,78.0,12.62,0.24,C0G880
伸港,24.148933,120.484403,0.48,30.0,0.15,80.0,0.0,-5.22,C0G890
線西,24.143358,120.443536,0.14,30.22,0.25,79.25,1.5,-1.92,C0G900
埔里,23.972169,120.952425,2.76,28.45,-11.15,74.75,1.38,-7.88,C0H890
草屯,23.973672,120.68085,1.36,30.02,-1.96,74.75,1.25,-8.48,C0H960
昆陽,24.121322,121.273642,1.65,13.52,-20.27,68.0,0.0,-8.32,C0H990
神木村,23.532742,120.843667,1.23,20.98,-3.7,89.5,4.0,-15.56,C0H9A0
合歡山,24.143442,121.272547,1.43,11.98,-0.76,77.5,0.0,-6.39,C0H9C0
廬山,24.033311,121.181808,1.17,21.63,-9.98,77.25,0.0,-10.88,C0I010
信義,23.689694,120.851036,2.32,27.02,-9.13,79.5,2.25,-8.13,C0I080
竹山,23.761225,120.688156,1.25,29.0,-4.3,79.75,15.62,-2.83,C0I110
水里,23.812553,120.849792,2.1,28.5,-8.1,75.0,0.25,-11.62,C0I360
魚池,23.895703,120.94135,2.41,26.65,-9.18,78.25,1.88,-10.98,C0I370
集集,23.828206,120.801467,1.95,28.78,-7.75,77.75,5.75,-14.0,C0I380
仁愛,24.022122,121.132206,1.59,23.1,-9.9,78.0,2.75,-4.93,C0I390
名間,23.837053,120.701447,1.28,28.52,1.2,82.0,1.12,-12.66,C0I410
國姓,24.037803,120.855072,2.76,28.98,-9.72,77.25,0.25,-15.23,C0I420
南投,23.911469,120.687331,1.7,30.0,0.95,79.25,0.12,-17.62,C0I460
梅峰,24.085272,121.173572,2.01,18.05,-12.78,78.75,0.0,-13.02,C0I480
萬大林道,23.928228,121.091411,1.76,21.08,-10.6,81.0,3.38,-5.71,C0I490
小奇萊,24.131764,121.295717,3.13,13.68,-23.72,71.0,0.0,-13.22,C0I530
崙背,23.75555,120.318925,1.14,29.4,-6.33,78.5,10.75,-3.82,C0K250
四湖,23.630414,120.227125,1.11,30.08,-7.23,77.5,0.25,-5.05,C0K280
宜梧,23.536281,120.169329,0.76,29.95,-2.49,79.75,1.12,-4.15,C0K291
虎尾,23.719183,120.442036,0.77,30.2,0.25,79.75,13.5,4.26,C0K330
土庫,23.679029,120.395574,1.17,29.68,-5.43,75.75,4.12,-7.24,C0K390
斗六,23.720583,120.541127,1.36,29.62,-6.28,75.25,14.25,-2.21,C0K400
北港,23.573957,120.292802,1.13,29.67,-5.76,76.5,4.5,-3.87,C0K410
西螺,23.800407,120.467394,1.7,30.17,-7.85,75.0,22.88,8.49,C0K420
褒忠,23.690938,120.303634,1.17,29.57,-2.82,79.5,2.25,-7.57,C0K430
二崙,23.772797,120.408944,1.26,29.73,-4.17,78.0,17.88,2.39,C0K440
大埤,23.646074,120.431537,1.27,29.78,-5.06,75.5,9.0,-4.22,C0K450
斗南,23.678734,120.478359,1.15,29.62,-0.21,77.5,12.62,-1.04,C0K460
林內,23.748675,120.609642,1.18,28.72,-2.5,80.5,20.12,-0.23,C0K470
莿桐,23.761192,120.502372,1.39,29.6,-3.55,76.25,22.38,3.61,C0K480
元長,23.64981,120.315024,1.35,30.02,-3.29,76.5,0.5,-11.76,C0K500
水林,23.572924,120.24597,1.4,30.15,-2.9,77.25,2.38,-7.79,C0K510
臺西,23.701547,120.197559,0.95,29.42,-1.0,81.5,1.88,-8.46,C0K530
蔦松,23.514319,120.229736,1.41,30.0,-4.88,78.25,1.0,-10.37,C0K550
棋山,23.68645,120.603417,1.21,28.8,2.67,85.0,22.75,-0.66,C0K560
高鐵雲林,23.737456,120.417944,1.24,29.58,-7.22,79.0,13.38,-5.96,C0K580
東後寮,23.369908,120.248065,1.04,29.28,-1.57,82.75,4.25,-8.35,C0M520
奮起湖,23.493903,120.699253,0.09,20.52,3.95,97.25,16.0,-5.09,C0M530
中埔,23.42538,120.5229,0.19,28.22,-0.19,77.25,20.0,1.13,C0M640
朴子,23.43463,120.23902,0.45,28.92,-0.96,81.75,5.88,-6.58,C0M650
溪口,23.604131,120.403569,1.08,29.4,-5.28,77.25,3.12,-9.14,C0M660
大林,23.600616,120.45841,1.01,29.6,-1.54,77.25,11.12,-4.01,C0M670
太保,23.455062,120.331455,0.81,29.48,-5.71,76.5,6.25,-9.78,C0M680
水上,23.419734,120.388909,0.76,29.0,-1.87,79.75,9.88,-7.76,C0M690
竹崎,23.526178,120.555508,0.42,27.82,1.04,84.0,53.25,31.6,C0M700
東石,23.458927,120.15385,1.18,30.05,-6.15,77.0,3.12,-7.21,C0M710
番路,23.464657,120.554156,0.44,27.78,2.75,80.75,44.12,24.38,C0M720
嘉義市東區,23.457673,120.460531,0.45,29.05,1.89,80.75,18.25,0.35,C0M730
六腳,23.492871,120.290625,1.02,29.58,-3.22,77.75,1.88,-10.38,C0M740
布袋,23.380878,120.167789,1.36,30.18,-6.26,76.5,4.25,-6.59,C0M750
民雄,23.551754,120.428457,0.37,29.17,-0.24,80.0,20.38,7.3,C0M760
嘉義梅山,23.585398,120.555587,0.59,28.5,2.22,81.75,38.5,16.43,C0M770
鹿草,23.41134,120.30835,1.13,29.78,-0.81,79.75,2.5,-17.31,C0M780
新港,23.553269,120.345728,0.77,29.48,-3.51,76.25,5.75,-4.32,C0M790
茶山,23.299075,120.664767,1.79,26.55,-6.45,83.25,9.38,-11.56,C0M800
里佳,23.389125,120.716647,1.06,21.38,-1.17,89.0,5.25,-16.27,C0M810
達邦,23.453994,120.749517,1.63,23.58,-2.67,85.0,0.75,-14.45,C0M820
表湖,23.24186,120.64166,1.08,24.45,-5.36,87.25,24.38,-8.65,C0M850
新美,23.338017,120.683169,1.38,26.05,0.25,85.75,9.12,-1.71,C0M860
北寮,23.079561,120.495008,0.81,28.52,4.46,88.25,7.62,-14.12,C0O830
王爺宮,23.222064,120.40085,2.66,30.45,-7.64,77.5,13.62,-2.96,C0O840
大內,23.11885,120.36083,1.69,30.6,-0.12,83.0,10.75,-4.3,C0O860
善化,23.112883,120.297219,1.09,30.15,5.55,89.0,4.88,-3.47,C0O900
崎頂,22.959547,120.369317,2.48,30.28,-5.35,80.0,1.75,-16.14,C0O960
虎頭埤,23.021375,120.347878,0.59,28.78,-4.25,80.75,5.88,-11.18,C0O970
新市,23.061614,120.298197,1.61,30.42,-4.56,79.25,4.88,-10.36,C0O980
媽廟,22.99175,120.293525,1.31,30.12,-3.57,79.5,2.25,-14.2,C0O990
尾寮山,22.833111,120.683889,0.9,23.38,0.95,93.5,0.12,-22.54,C0R100
阿禮,22.742908,120.743678,1.12,23.92,-10.11,78.0,0.0,-10.89,C0R130
瑪家,22.682903,120.686639,0.09,24.42,9.19,97.0,0.0,-22.77,C0R140
三地門,22.709889,120.639944,1.07,29.78,-6.96,73.75,0.0,-15.37,C0R150
鹽埔,22.739558,120.530778,1.11,29.5,-1.0,86.0,3.12,-16.76,C0R160
赤山,22.592333,120.614306,0.6,29.22,4.08,88.25,0.25,-20.92,C0R190
潮州,22.534361,120.54,0.54,29.72,-2.13,77.75,3.88,-7.74,C0R220
來義,22.527306,120.625111,-0.26,27.85,7.55,91.0,2.0,-20.19,C0R240
春日,22.370361,120.628306,-0.57,27.8,0.42,83.75,0.0,-17.48,C0R260
琉球嶼,22.332244,120.362236,1.78,30.58,-9.49,76.0,0.0,-5.88,C0R270
車城,22.0744,120.716247,-0.32,28.65,-4.75,80.75,9.75,0.08,C0R320
牡丹,22.130036,120.792639,-0.16,26.62,-1.58,89.25,10.62,6.12,C0R341
貓鼻頭,21.921774,120.7358,0.05,28.85,-1.08,81.75,15.75,5.76,C0R350
大漢山,22.405264,120.753181,-0.97,17.48,2.17,99.0,5.0,-1.75,C0R440
高樹,22.826389,120.600806,0.68,29.35,-2.3,76.75,11.5,-6.61,C0R470
長治,22.693128,120.542622,1.41,30.2,-5.0,77.0,3.0,-16.06,C0R480
九如,22.7405,120.490503,1.24,30.1,-2.48,80.0,5.0,-16.17,C0R490
崁頂,22.514781,120.506914,0.42,29.57,-3.18,79.5,4.0,-16.32,C0R520
佳冬,22.419456,120.552375,0.6,29.72,-5.21,76.0,0.12,-16.07,C0R540
新埤,22.467947,120.582894,0.47,29.22,-8.39,75.75,0.75,-18.12,C0R550
新園,22.5434,120.461558,1.54,30.62,-8.98,73.0,9.62,-12.15,C0R560
麟洛,22.65078,120.52719,1.79,30.8,-1.04,81.25,6.12,-15.14,C0R570
南州,22.48591,120.50274,0.72,29.52,1.94,80.75,0.25,-16.42,C0R580
里港,22.77919,120.49459,1.04,29.6,0.13,83.75,8.62,-10.33,C0R590
舊泰武,22.588194,120.664944,0.07,24.7,2.12,88.0,1.5,-25.08,C0R600
墾雷,21.900836,120.855269,-0.6,28.2,8.67,93.5,16.38,0.59,C0R620
東港,22.46247,120.44074,1.1,30.08,-8.83,77.25,0.12,-10.93,C0R640
竹田,22.58486,120.54344,1.11,29.75,-7.58,80.25,3.0,-21.83,C0R650
枋寮,22.367722,120.590647,1.0,29.75,-2.58,79.25,0.0,-9.17,C0R660
楓港,22.190131,120.692156,0.27,29.25,-12.75,70.25,1.25,-9.25,C0R670
佳樂水,21.993578,120.861633,-0.42,28.85,1.0,84.0,20.62,18.46,C0R680
墾丁,21.966756,120.810269,-0.44,26.98,0.83,90.0,17.62,14.79,C0R690
枋山,22.246844,120.661086,1.49,29.78,-13.08,71.75,0.12,-10.54,C0R700
龍磐,21.931672,120.838942,-1.47,27.75,5.83,89.5,13.62,11.46,C0R710
旭海,22.205403,120.887614,-1.06,27.02,3.75,86.75,7.62,6.88,C0R720
大坪頂,22.024633,120.69355,-0.7,27.65,-0.67,86.5,3.88,-0.54,C0R730
四林格山,22.076989,120.802439,-0.69,24.33,-1.75,95.75,14.75,5.08,C0R750
南仁湖,22.084681,120.863353,-1.02,25.7,9.0,98.5,17.75,12.42,C0R760
保力,22.071122,120.764111,0.63,27.85,-4.92,85.75,13.38,-1.71,C0R770
滿州,22.024403,120.839892,-0.27,28.02,-2.0,83.5,17.88,15.88,C0R780
九棚,22.14195,120.889281,-1.41,27.58,5.08,85.75,23.5,18.42,C0R790
丹路,22.204481,120.750989,0.37,28.3,-10.33,76.5,6.75,-0.92,C0R800
內獅,22.305064,120.642986,0.52,29.4,-3.83,77.0,0.0,-7.25,C0R810
白鷺,22.454275,120.666219,0.98,25.8,-9.58,82.25,0.12,-8.04,C0R820
高士,22.121825,120.836781,-1.31,25.08,3.17,93.0,23.5,13.0,C0R830
牡丹池山,22.168389,120.841225,-0.69,24.67,4.08,97.25,13.5,9.92,C0R840
下馬,23.150427,121.070312,0.77,25.0,-6.0,77.0,0.0,-4.5,C0S660
太麻里,22.60902,120.98533,0.63,26.15,4.83,84.5,1.5,-4.65,C0S690
知本,22.684866,121.005642,0.18,25.95,5.75,87.5,0.25,-8.54,C0S700
鹿野,22.917711,121.122994,1.42,27.52,-4.5,79.25,0.38,-4.33,C0S710
綠島,22.6672,121.47533,0.5,28.6,-0.33,84.0,10.12,4.03,C0S730
池上,23.119628,121.209469,0.81,28.22,-6.08,75.75,0.0,-6.85,C0S740
向陽,23.248397,120.986133,-0.28,15.7,4.92,90.25,3.38,-11.66,C0S750
大溪山,22.478475,120.943325,-0.08,25.92,7.75,84.25,3.5,-6.6,C0S770
金崙,22.538122,120.966875,0.18,28.18,4.42,81.75,2.75,-3.28,C0S790
東河,22.972672,121.303986,-0.13,29.02,-0.25,82.0,0.5,-5.08,C0S810
長濱,23.286817,121.411975,0.43,28.28,-2.0,79.5,0.0,-6.17,C0S830
南田,22.279725,120.889208,0.15,28.85,-1.17,81.25,11.25,0.61,C0S840
關山,23.0395,121.175017,1.11,28.78,-3.42,78.25,0.0,-3.52,C0S890
蘭嶼高中,22.04909,121.51214,-0.55,28.98,3.17,83.75,4.75,-6.79,C0S900
蘭嶼燈塔,22.081197,121.503117,-0.1,27.75,3.67,88.75,4.0,-7.38,C0S910
金峰嘉蘭,22.594789,120.960825,-1.96,27.48,4.5,75.5,1.12,-4.54,C0S920
延平,22.902581,121.084058,0.41,28.02,-3.43,75.75,0.12,-4.54,C0S930
石寧山,23.223772,121.406639,1.15,29.78,-1.65,78.75,0.0,-0.38,C0S940
七塊厝,22.954453,121.229922,0.49,27.15,-11.4,73.0,0.12,-12.83,C0S950
香蘭,22.587569,120.993375,-0.12,29.32,-2.08,72.75,2.5,2.5,C0S960
加津林,22.416211,120.926942,-0.4,29.0,7.1,79.0,2.38,-8.17,C0S970
勝林山,22.430439,120.8938,-2.26,22.33,12.3,95.0,4.0,-5.96,C0S980
山豬窟,22.318619,120.857372,-1.33,25.7,6.9,86.5,7.0,-6.38,C0S990
歷坵,22.520969,120.89185,-1.77,25.48,12.5,88.0,1.5,-6.21,C0SA00
檳榔四格山,22.810031,121.109308,0.37,26.72,0.0,85.0,0.0,-4.92,C0SA10
金崙山,22.567419,120.959667,-2.14,22.88,12.75,91.25,3.25,-3.62,C0SA20
都歷,23.020333,121.323642,0.37,29.1,-3.25,74.25,0.38,-3.88,C0SA30
瑞和,22.974361,121.156697,0.37,28.4,-5.4,75.5,0.0,-4.21,C0SA40
知本（水試所）,22.702394,121.082761,-0.08,29.4,-0.08,78.75,1.12,1.12,C0SA60
土坂,22.453108,120.887572,-1.21,27.92,12.92,83.5,4.5,4.5,C0SA80
達仁林場,22.264347,120.823972,-1.1,25.15,9.92,92.75,12.25,9.58,C0SA90
大禹嶺,24.186117,121.316086,0.23,14.3,-2.84,80.25,0.0,-8.09,C0T790
天祥,24.179597,121.495639,1.52,26.38,-9.64,72.75,0.0,-8.09,C0T820
鯉魚潭,23.935639,121.508944,0.37,27.32,-2.54,83.5,0.0,-4.81,C0T870
西林,23.8119,121.441458,0.9,28.88,-0.25,75.5,0.0,-1.2,C0T900
光復,23.660694,121.424964,0.89,28.9,-4.83,78.25,0.0,-5.67,C0T960
月眉山,23.809928,121.539828,1.05,26.45,-0.46,87.5,0.12,-5.54,C0T9A0
水源,23.991861,121.537169,0.44,25.52,0.5,86.25,2.75,-4.22,C0T9B0
和中,24.26676,121.74103,-0.21,28.25,-8.89,80.5,0.38,-5.65,C0T9D0
大坑,23.880628,121.581981,0.83,27.0,4.92,88.25,0.0,-4.59,C0T9E0
水璉,23.797131,121.542514,0.45,28.08,1.92,83.75,0.0,-4.19,C0T9F0
鳳林山,23.735269,121.420131,-0.31,25.95,-1.5,86.75,0.0,-4.89,C0T9G0
加路蘭山,23.682947,121.5274,1.17,26.28,9.88,94.25,0.38,-3.56,C0T9H0
豐濱,23.583897,121.514806,1.32,28.45,-1.71,81.0,0.38,-3.49,C0T9I0
靜浦,23.455167,121.495028,0.95,28.82,2.92,87.75,3.0,-1.8,C0T9M0
富里,23.171639,121.249378,0.54,28.08,-12.0,70.0,0.0,-8.08,C0T9N0
雙連埤,24.753033,121.641303,-0.56,24.82,-0.36,90.75,1.0,-1.88,C0U520
礁溪,24.817539,121.765608,1.42,30.12,-5.78,76.5,0.25,-4.42,C0U600
玉蘭,24.675286,121.587061,0.35,26.87,-0.67,78.5,0.0,-5.94,C0U650
太平山,24.505486,121.525656,0.35,18.45,-7.19,86.25,0.12,-14.98,C0U710
南山,24.43742,121.38167,-0.59,22.38,1.83,83.0,0.0,-1.58,C0U720
龜山島,24.841667,121.953133,-0.43,25.85,4.81,92.75,0.0,-1.0,C0U750
東澳,24.52196,121.83318,0.9,29.82,-8.67,76.5,1.62,-3.21,C0U760
南澳,24.44935,121.81022,0.15,28.95,-3.64,81.25,0.38,-1.0,C0U770
五結,24.68637,121.79794,-0.37,29.35,-0.72,76.5,0.12,-0.28,C0U780
頭城,24.85323,121.8308,2.09,31.02,-7.83,78.5,0.0,-1.4,C0U860
大礁溪,24.791042,121.675047,-0.21,25.9,10.31,91.25,0.38,-3.74,C0U870
三星,24.66812,121.65302,0.41,28.72,-9.11,74.5,0.0,-1.36,C0U890
內城,24.71813,121.68766,1.16,29.52,-2.81,77.75,0.38,-0.54,C0U900
冬山,24.63373,121.7937,0.88,29.98,-3.11,70.5,0.12,-1.04,C0U910
羅東,24.68184,121.74934,1.06,30.02,-0.33,75.0,0.5,-0.22,C0U940
鶯子嶺,24.89754,121.79244,-0.72,21.95,10.0,100.0,1.5,-9.75,C0U950
翠峰湖,24.510856,121.608044,0.62,18.5,-3.44,87.0,0.25,-9.0,C0U960
大福,24.80064,121.81389,0.99,29.78,0.5,78.0,0.12,-1.62,C0U970
坪林石牌,24.86478,121.77396,0.13,24.98,6.58,96.75,0.25,-10.31,C0U980
員山,24.74435,121.72247,0.7,29.52,1.44,79.5,0.75,-1.58,C0U990
土場,24.576533,121.495333,1.0,27.55,-12.42,75.75,0.0,-5.28,C0UA00
鴛鴦湖,24.590269,121.412228,0.18,19.08,5.67,94.0,0.12,-12.9,C0UA10
白嶺,24.527819,121.519031,-0.78,20.68,4.22,93.5,0.25,-3.64,C0UA30
西德山,24.560647,121.752608,0.82,23.4,-5.72,83.5,0.12,-3.26,C0UA40
西帽山,24.555361,121.802628,-0.21,24.08,-2.97,84.75,1.25,-1.78,C0UA50
樟樹山,24.41393,121.78325,0.04,25.75,3.28,85.0,0.38,-2.6,C0UA60
桃源谷,24.962606,121.888875,-0.31,25.17,7.86,98.25,0.12,-3.38,C0UA70
復興,23.222403,120.806089,1.42,25.78,0.35,82.0,1.0,-8.5,C0V210
溪埔,22.738578,120.446797,0.71,29.22,4.88,86.5,9.62,-9.51,C0V350
內門,22.975481,120.466769,1.81,29.45,1.86,88.5,7.0,-15.08,C0V360
古亭坑,22.893178,120.401947,0.72,28.92,-2.94,83.75,2.0,-10.3,C0V370
阿公店,22.804194,120.355528,0.53,29.05,-0.56,81.75,1.62,-13.99,C0V400
鳳山,22.646653,120.356122,0.22,29.38,3.44,83.75,0.12,-17.48,C0V440
鳳森,22.545064,120.392592,0.45,29.12,-3.77,80.75,8.88,-5.57,C0V450
新興,22.627422,120.298803,0.86,30.65,-7.58,72.75,0.0,-8.52,C0V490
梓官,22.760558,120.267211,0.57,30.0,-1.19,77.5,0.62,-11.68,C0V610
永安,22.82315,120.236856,0.8,30.02,-6.67,77.0,0.0,-15.31,C0V620
茄萣,22.906642,120.182608,1.34,30.8,-0.89,76.75,0.0,-12.33,C0V630
湖內,22.887139,120.2445,0.51,29.68,-6.67,77.0,0.12,-12.88,C0V640
彌陀,22.783806,120.246361,0.89,30.05,-6.74,77.5,0.0,-13.05,C0V650
岡山,22.797078,120.294958,1.27,30.88,-3.0,75.5,0.62,-16.33,C0V660
仁武,22.701083,120.347722,1.12,30.6,-0.68,76.25,1.75,-15.5,C0V680
鼓山,22.623325,120.275575,0.51,30.15,-1.54,76.75,0.0,-10.43,C0V690
三民,22.645017,120.311233,0.68,30.6,0.36,73.5,0.0,-13.19,C0V700
苓雅,22.622742,120.330669,1.35,30.95,2.01,77.25,0.75,-13.44,C0V710
林園,22.507747,120.394511,1.25,31.12,-1.45,76.0,0.38,-9.86,C0V720
大寮,22.605614,120.395717,0.56,29.95,2.56,81.75,1.75,-16.33,C0V730
旗山,22.888614,120.483597,1.76,30.25,-3.14,78.0,13.12,-7.55,C0V740
路竹,22.854997,120.259439,1.5,30.92,-5.65,74.25,0.12,-15.2,C0V750
橋頭,22.757806,120.30575,1.05,30.67,-5.54,73.25,1.25,-13.01,C0V760
大社,22.730306,120.346639,1.36,30.8,-2.02,76.75,1.0,-17.07,C0V770
萬山,22.905944,120.688056,1.62,27.5,-3.55,82.0,0.12,-18.12,C0V790
六龜,22.997889,120.633583,1.2,28.52,0.0,81.0,2.12,-20.11,C0V800
左營,22.67491,120.28491,0.68,29.88,-3.32,76.75,1.5,-11.7,C0V810
小林,23.148408,120.63325,1.24,26.92,-0.83,85.25,1.0,-12.79,C0V820
東莒,25.9652,119.98069,0.49,28.17,0.55,89.5,0.0,-3.66,C0W110
西嶼,23.5626,119.468436,1.3,28.4,-2.62,89.75,0.0,-6.65,C0W120
花嶼,23.40007,119.32276,1.25,28.6,-1.08,88.0,0.0,-2.85,C0W130
金沙,24.488292,118.408778,2.13,30.42,-16.58,70.5,0.12,-1.38,C0W140
金寧,24.457703,118.328989,1.35,30.35,-18.83,70.0,3.38,1.4,C0W150
東河,23.296598,120.385608,0.81,29.15,-5.9,76.75,13.12,-3.99,C0X050
下營,23.22695,120.256261,1.35,29.67,-5.72,78.25,6.88,-7.73,C0X060
臺南市北區,23.010394,120.194228,0.75,30.72,1.35,76.0,0.5,-11.34,C0X100
臺南市南區,22.961189,120.188378,0.67,30.35,-4.12,77.25,0.0,-10.3,C0X110
麻豆,23.183289,120.248611,1.49,30.83,-0.5,79.25,2.25,-9.71,C0X120
官田,23.193217,120.315422,0.73,29.95,5.08,85.25,15.5,2.39,C0X130
西港,23.125608,120.203108,0.98,30.48,-5.21,73.75,0.5,-10.62,C0X140
安定,23.102614,120.227839,1.36,30.7,-0.46,79.75,2.12,-8.96,C0X150
仁德,22.968258,120.257689,1.17,30.5,-1.44,78.25,1.0,-13.98,C0X160
關廟,22.963017,120.327797,0.83,30.15,2.43,79.5,0.5,-16.54,C0X170
山上,23.0757,120.363253,0.97,29.4,-1.94,80.5,8.5,-7.92,C0X180
安平,22.993161,120.152181,1.05,30.75,-13.56,66.5,0.0,-9.83,C0X190
左鎮,23.056758,120.408522,1.79,29.72,-3.88,81.25,8.75,-12.52,C0X200
白河,23.347466,120.414427,0.51,28.85,1.88,82.5,23.88,10.65,C0X210
學甲,23.230367,120.182187,1.47,29.95,-1.65,79.0,2.12,-9.95,C0X220
鹽水,23.272621,120.247641,0.98,29.28,-1.38,82.5,6.5,-7.12,C0X230
關子嶺,23.331169,120.508025,0.43,26.52,4.36,88.75,24.88,0.04,C0X240
新營,23.310689,120.316681,1.0,29.83,-1.72,78.25,8.5,-10.5,C0X250
後壁,23.366358,120.362326,0.92,29.38,-4.16,77.75,9.0,-7.06,C0X260
將軍,23.214999,120.13577,1.24,29.9,-4.24,77.5,0.5,-13.13,C0X280
北門,23.267772,120.125481,1.27,30.08,-3.33,79.0,0.5,-9.93,C0X290
鹿寮,23.386047,120.477331,0.32,27.88,-0.15,85.25,9.0,-6.72,C0X300
柳營,23.253328,120.375253,0.35,29.15,4.25,81.75,11.25,7.17,C0X320
明里,23.208717,121.262342,0.11,28.12,-7.06,76.5,0.0,-2.41,C0Z020
佳心,23.34567,121.21316,0.38,24.12,1.75,84.75,0.0,-6.84,C0Z050
玉里,23.3215,121.339656,-0.11,28.2,-14.47,70.75,0.0,-1.52,C0Z061
舞鶴,23.46811,121.37407,0.45,27.62,-8.0,77.75,0.0,-2.44,C0Z070
富源,23.587642,121.378225,0.68,28.05,-8.03,78.75,0.0,-2.0,C0Z080
東華,23.89525,121.549833,0.62,29.18,0.42,82.5,0.0,-1.61,C0Z100
吉安光華,23.930925,121.595153,1.15,28.98,-1.79,82.25,0.0,-1.94,C0Z150
鳳林,23.746114,121.453411,0.88,28.52,-5.54,73.75,0.0,-1.77,C0Z160
卓溪,23.3443,121.3029,0.42,28.55,-7.19,71.25,0.0,-1.53,C0Z170
新城,24.040486,121.604878,1.2,29.2,-6.36,74.75,0.0,-2.64,C0Z180
富世,24.14743,121.6297,0.72,29.0,-8.5,77.0,5.38,0.35,C0Z190
萬榮,23.709219,121.420106,1.17,28.48,-7.67,74.25,0.0,-3.92,C0Z200
瑞穗,23.5239,121.39021,1.34,28.8,-3.25,78.75,0.0,-1.33,C0Z210
和平林道,24.343922,121.656317,0.59,25.88,-9.94,78.5,0.0,-3.31,C0Z220
和平,24.30717,121.77007,0.28,28.78,-6.56,72.0,0.0,-5.58,C0Z230
瑞穗林道,23.49284,121.30688,-0.08,22.45,1.72,92.0,0.0,-2.22,C0Z250
蕃薯寮,23.73835,121.540108,0.93,27.1,-3.54,83.25,0.12,-1.27,C0Z270
德武,23.47426,121.41071,1.05,28.22,-4.69,78.75,0.0,-1.47,C0Z280
赤柯山,23.36893,121.38293,0.41,23.8,-6.17,81.0,0.12,-3.18,C0Z290
東里,23.26853,121.30547,0.71,28.45,-8.89,75.5,0.12,-3.6,C0Z300
清水斷崖,24.218294,121.689142,0.99,28.72,-10.99,78.25,0.75,-11.5,C0Z310
清水林道,23.27125,121.188272,0.56,25.33,-9.44,74.5,0.0,-7.47,C0Z320
安通山,23.290728,121.348528,0.22,26.5,-0.47,81.25,0.0,-1.94,C0Z330
口湖工作站,23.589978,120.180394,1.17,29.52,-1.58,74.5,0.38,-5.46,12J990
東港工作站,22.479997,120.466058,1.25,29.82,-7.83,66.5,0.0,-13.34,12Q970
恆春工作站,22.079678,120.714425,0.41,29.05,-4.5,74.5,8.62,-4.69,12Q980
萬大發電廠,23.978875,121.139639,1.15,23.98,-14.45,76.0,0.0,-4.98,42HA10
桃改樹林分場,24.944503,121.386972,2.02,30.8,-14.92,62.75,0.0,-10.83,72AI40
桃園農改場,24.950944,121.030583,1.68,30.5,-6.16,71.75,0.0,-2.32,72C440
桃改五峰分場,24.612194,121.157167,0.97,23.58,3.26,89.0,0.88,-12.19,72D080
臺中農改場,24.003028,120.534389,0.8,29.92,6.13,85.75,1.25,-7.77,72G600
中改埔里分場,23.903208,120.963364,1.74,26.0,-5.25,85.0,4.25,-0.5,72HA00
南改斗南分場,23.634556,120.477333,0.35,29.22,2.52,82.75,8.88,-2.67,72K220
南改義竹分場,23.360694,120.279361,-0.1,29.1,-3.97,79.5,5.88,-2.95,72M360
南改鹿草分場,23.416869,120.283061,1.07,29.55,-1.08,80.0,2.5,-7.04,72M700
臺南農改場,23.0605,120.342194,0.01,29.1,4.28,84.75,8.88,0.64,72N100
七股研究中心,23.081672,120.062894,1.68,30.45,-5.33,78.25,1.38,-21.67,72N240
高雄農改場,22.709333,120.525889,0.06,29.28,1.37,80.25,5.0,-6.64,72Q010
東改班鳩分場,22.829528,121.077694,0.21,27.48,-1.26,78.25,1.25,-6.31,72S200
東改賓朗果園,22.813889,121.071278,-0.32,26.58,-4.11,83.75,0.38,-7.31,72S590
花蓮農改場,23.975222,121.563889,0.76,29.0,-3.87,75.0,0.0,-5.64,72T250
花改蘭陽分場,24.686306,121.716583,0.89,29.52,-6.11,74.5,0.25,-3.38,72U480
高改旗南分場,22.857861,120.516667,-0.63,29.02,7.48,82.25,8.75,-0.81,72V140
茶改北部分場,24.955778,121.631222,1.4,27.67,-6.82,75.0,0.0,-10.06,82A750
茶改場,24.908472,121.185333,1.41,29.68,-12.57,65.5,0.0,-5.91,82C160
茶改中部分場,23.875611,120.913583,-0.51,23.6,2.82,90.0,4.0,-12.49,82H320
茶改南部分場,23.762528,120.7405,1.29,27.12,-4.72,83.75,6.62,-17.0,82H840
茶改東部分場,22.907694,121.130139,0.12,28.12,-2.23,77.75,0.12,-7.71,82S580
農工中心,24.985917,121.239833,1.75,31.05,-8.39,61.5,0.0,-5.16,A2C560
水試臺西試驗場,23.717231,120.190522,0.46,29.9,-0.33,86.0,2.75,-7.69,A2K360
臺大雲林校區,23.730628,120.423903,0.77,29.52,-0.92,79.25,13.0,8.75,A2K630
臺南蘭花園區,23.340258,120.379661,0.72,28.92,0.83,84.5,14.62,9.79,A2N290
畜試北區分所,24.527806,120.770972,0.51,28.85,8.69,86.25,1.0,-1.06,B2E890
畜產試驗所,23.058972,120.336406,-0.03,28.75,1.82,84.25,7.75,-1.71,B2N890
畜試南區分所,21.945583,120.802167,-0.69,28.15,-2.94,80.75,17.12,7.1,B2Q810
畜試東區分所,24.669039,121.832561,1.21,29.62,1.67,83.0,0.75,-0.83,B2U990
蓮華池,23.918333,120.885278,-0.07,26.02,4.56,83.5,3.12,-15.25,E2H360
林試畢祿溪站,24.226944,121.308522,0.4,17.2,-8.92,73.75,0.0,-3.0,E2HA20
四湖植物園,23.676986,120.163433,1.75,30.02,7.58,93.75,0.75,-13.92,E2K600
林試六龜中心,22.991703,120.645722,0.43,27.48,3.67,86.0,1.62,1.62,E2P980
林試太麻里2,22.598,120.99775,-0.76,28.83,3.25,77.75,1.38,1.38,E2S960
林試太麻里1,22.598922,120.980044,-0.99,28.28,4.83,78.5,1.25,1.25,E2S980
農試所(霧峰),24.031261,120.688133,0.97,29.85,-1.26,78.25,0.88,-9.86,G2F820
農試嘉義分所,23.485028,120.473806,-0.96,27.6,9.82,85.5,22.62,17.04,G2L020
農試溪口農場,23.58565,120.408111,0.21,29.55,-0.72,80.0,5.0,-0.11,G2M350
農試鳳山分所,22.646611,120.356083,-0.11,29.55,4.86,78.75,0.12,-5.75,G2P820
苗栗農改場,24.495722,120.829111,0.11,28.93,3.24,80.33,2.67,-1.94,K2E360
苗改生物防治研究中心,24.422861,120.871833,1.16,27.58,0.03,81.25,7.62,0.6,K2E710
種苗改良場,24.225972,120.800917,0.83,27.25,-0.65,79.75,16.25,-0.08,K2F750
溪頭,23.670306,120.798194,1.2,21.9,3.39,93.5,9.75,-4.26,U2H480
臺大和社,23.590856,120.888864,2.47,25.87,-6.83,81.5,0.62,-3.83,U2HA30
臺大內茅埔,23.689722,120.851117,1.9,27.0,-7.92,79.5,2.12,-2.71,U2HA40
臺大竹山,23.756972,120.681556,1.76,29.0,-6.58,77.75,15.75,-1.25,U2HA50
