站名,緯度,經度,平均溫距平,本年度平均溫,平均溼度距平,本年度日均相對溼度,本年度日均降水量,日均降水量距平,站號
淡水,25.164889,121.448906,0.81,27.3,4.01,85.07,4.59,-9.14,466900
鞍部,25.182586,121.529731,0.8,22.18,6.09,95.21,5.87,-11.78,466910
臺北,25.037658,121.514853,0.85,28.19,3.96,80.64,6.68,-7.71,466920
竹子湖,25.162078,121.544547,0.95,23.85,4.4,90.64,5.71,-9.79,466930
基隆,25.133314,121.740475,0.91,27.41,2.95,82.08,6.02,-8.58,466940
花蓮,23.975128,121.613275,0.53,27.33,4.68,86.0,18.51,11.57,466990
新屋,25.006725,121.047492,0.06,27.43,1.8,86.14,2.3,-11.42,467050
宜蘭,24.763975,121.756528,0.81,27.26,4.5,87.0,6.62,-3.78,467080
金門,24.407306,118.289281,0.95,26.57,1.7,87.69,0.74,-5.15,467110
田中,23.873803,120.581286,-0.36,28.41,1.7,84.5,7.26,4.76,467270
澎湖,23.565503,119.563094,0.57,27.85,3.02,88.46,8.43,1.89,467350
臺南,22.99328,120.20492,0.39,28.82,3.66,81.36,22.15,5.13,467410
永康,23.038386,120.2367,0.63,28.76,6.54,81.86,24.83,8.13,467420
嘉義,23.495925,120.432906,0.31,28.15,6.64,85.0,23.63,9.14,467480
臺中,24.145736,120.684075,1.0,28.55,3.4,80.31,8.47,-7.79,467490
阿里山,23.508208,120.813242,0.88,14.96,3.98,95.29,27.01,-6.97,467530
大武,22.35572,120.90374,0.59,28.38,3.75,81.77,22.08,6.85,467540
玉山,23.48718,120.95943,2.1,9.11,6.18,90.14,18.01,-5.02,467550
新竹,24.827853,121.014219,0.78,28.02,4.92,82.5,3.17,-9.59,467571
恆春,22.003897,120.746339,0.45,28.66,3.92,83.64,18.61,5.44,467590
成功,23.097486,121.373428,0.44,27.21,5.97,88.5,22.81,16.02,467610
日月潭,23.881325,120.90805,0.94,22.85,9.28,94.92,25.55,4.88,467650
臺東,22.752211,121.154586,0.37,28.11,6.24,84.77,15.91,7.55,467660
馬祖,26.169467,119.923158,1.36,25.1,3.38,91.21,6.88,-0.01,467990
山佳,24.974944,121.402008,1.42,28.39,1.31,83.0,3.75,-8.76,C0A520
坪林,24.938183,121.70975,2.7,26.81,-2.57,90.14,7.86,-6.32,C0A530
泰平,24.971197,121.823711,1.26,24.44,0.65,95.71,10.61,-5.06,C0A550
桶後,24.848222,121.597992,2.28,25.94,-5.11,87.78,14.64,0.67,C0A570
石碇,24.993969,121.662917,1.11,25.91,-3.56,88.29,4.36,-12.5,C0A640
大坪,25.165914,121.632969,2.61,26.72,-2.3,87.08,9.25,-7.97,C0A860
五指山,25.132153,121.608692,2.56,24.61,-1.68,92.43,6.29,-7.83,C0A870
雙溪,25.036003,121.864242,2.32,27.69,-2.47,87.21,7.5,-6.31,C0A890
三和,25.233153,121.595236,0.36,25.8,-1.62,91.36,10.82,-10.5,C0A931
金山,25.223628,121.643967,0.8,26.64,-0.36,86.57,8.36,-6.47,C0A940
鼻頭角,25.129036,121.923372,1.33,27.27,-1.54,88.71,5.04,-4.45,C0A950
三貂角,25.007606,122.002058,1.05,26.66,3.47,90.29,9.04,-0.13,C0A970
社子,25.109508,121.469681,1.61,28.86,2.12,82.21,3.82,-8.41,C0A980
天母,25.117494,121.537169,0.94,28.16,-2.31,75.5,3.68,-8.85,C0A9C0
內湖,25.079422,121.57545,1.54,28.82,2.09,81.71,6.07,-7.29,C0A9F0
大屯山,25.175675,121.522408,2.43,22.75,3.35,98.57,6.14,-9.72,C0AC40
三峽,24.939025,121.369728,1.47,28.87,1.93,84.14,6.14,-7.7,C0AC60
信義,25.037822,121.564597,1.15,28.48,0.39,82.21,7.07,-7.41,C0AC70
文山,25.00235,121.575728,0.39,27.2,-2.15,83.43,7.25,-7.81,C0AC80
新莊,25.051478,121.446756,-0.13,27.96,4.37,80.29,3.96,-8.93,C0ACA0
八里,25.150211,121.403947,1.43,28.84,10.73,90.71,4.54,-6.58,C0AD10
蘆洲,25.086594,121.472331,0.79,29.03,2.45,79.57,3.89,-7.74,C0AD30
土城,24.973208,121.445169,0.23,27.26,1.83,85.0,13.68,-0.84,C0AD40
鶯歌,24.951533,121.346294,1.18,28.51,3.54,87.0,3.57,-8.65,C0AD50
汐止,25.066881,121.658778,0.37,27.61,-1.56,83.07,4.25,-9.68,C0AH00
永和,25.01125,121.508111,1.02,28.95,4.28,80.64,9.79,-4.25,C0AH10
五分山,25.07125,121.780794,2.3,24.39,-0.75,94.57,8.07,-9.24,C0AH30
平等,25.129142,121.577086,0.48,25.61,0.7,85.07,4.93,-11.95,C0AH40
林口,25.072181,121.38084,1.28,27.35,4.53,91.3,4.39,-8.61,C0AH50
松山,25.04871,121.55042,0.15,28.11,11.37,82.57,7.54,-0.27,C0AH70
深坑,25.002703,121.628328,1.09,27.44,0.28,85.43,4.36,-4.44,C0AH80
福山植物園,24.760717,121.58135,0.71,23.27,2.22,94.79,10.36,2.33,C0AH90
五股,25.07445,121.42728,0.88,27.75,-0.31,85.64,4.39,-4.92,C0AI00
屈尺,24.92184,121.54475,1.99,28.6,1.65,86.5,9.18,-2.06,C0AI10
白沙灣,25.283128,121.519058,0.26,26.98,8.43,88.21,4.64,-3.64,C0AI20
三重,25.057328,121.500629,-1.03,28.49,9.6,89.79,2.93,-1.26,C0AI30
石牌,25.115597,121.513139,0.58,29.34,8.34,80.21,3.61,-5.21,C0AI40
七堵,25.094819,121.71713,1.35,28.36,-0.77,85.36,5.46,-6.08,C0B010
基隆嶼,25.19141,121.78391,-0.15,26.46,7.04,96.86,1.96,-8.47,C0B020
復興,24.820208,121.352281,0.54,24.49,-6.73,80.07,7.68,-8.93,C0C460
桃園,24.992425,121.323172,0.41,27.84,5.47,80.57,5.07,-7.55,C0C480
八德,24.928708,121.283289,-0.07,27.23,0.79,80.86,5.25,-6.45,C0C490
觀音,25.027072,121.153317,0.31,26.69,8.52,91.21,6.79,-5.14,C0C590
蘆竹,25.084275,121.265767,0.35,27.66,2.0,84.36,3.21,-7.7,C0C620
大溪,24.882853,121.265547,0.41,26.26,5.27,84.5,6.14,-5.42,C0C630
平鎮,24.897503,121.214636,0.64,26.5,3.58,84.93,6.0,-5.22,C0C650
楊梅,24.912375,121.143047,-0.14,27.09,7.17,84.14,3.71,-7.95,C0C660
龍潭,24.870056,121.221389,0.05,26.32,4.79,84.0,6.64,-4.0,C0C670
龜山,25.02846,121.38656,-0.67,25.36,1.79,83.21,4.71,-9.9,C0C680
中壢,24.977661,121.256375,0.18,27.25,4.64,80.43,3.75,-4.58,C0C700
大溪永福,24.892936,121.324975,0.65,26.79,1.77,87.14,5.64,-6.25,C0C710
梅花,24.678347,121.208558,0.76,24.27,3.67,91.86,8.93,-2.08,C0D360
峨眉,24.6905,121.017189,0.24,27.02,4.79,91.5,5.82,-4.0,C0D430
打鐵坑,24.849664,121.150789,0.2,25.39,0.72,87.5,1.54,-10.42,C0D480
橫山,24.71116,121.11693,0.14,25.56,11.13,97.71,5.43,-5.75,C0D540
雪霸,24.526972,121.11605,0.74,18.26,3.79,89.07,7.73,-8.03,C0D550
竹東,24.767147,121.057881,1.41,27.77,1.12,77.86,3.86,-6.19,C0D560
寶山,24.735006,121.025192,0.56,26.36,4.02,89.29,4.39,-6.21,C0D580
新豐,24.87068,120.97721,0.47,26.59,8.71,92.79,3.39,-9.4,C0D590
湖口,24.904794,121.043628,0.14,27.38,0.49,81.0,2.75,-9.08,C0D650
新竹市東區,24.798681,120.986942,-0.19,27.46,5.0,81.0,3.79,-6.59,C0D660
竹南,24.708978,120.888897,2.07,29.05,7.56,86.93,4.5,-7.62,C0E420
南庄,24.601775,121.000214,0.71,25.94,4.69,88.57,4.07,-9.96,C0E430
明德,24.583486,120.885411,0.51,28.09,2.35,82.36,5.36,-3.2,C0E550
通霄,24.471892,120.704622,0.06,27.64,2.44,86.0,6.04,-2.94,C0E590
馬都安,24.451272,120.930192,0.86,23.39,9.97,90.79,7.82,-6.9,C0E610
頭份,24.688247,120.912206,1.38,29.16,4.77,79.93,6.36,-4.15,C0E730
造橋,24.637056,120.864778,0.08,27.96,1.53,83.43,5.07,-4.8,C0E740
苗栗,24.564569,120.824575,-0.13,28.18,-0.64,74.79,4.36,-5.37,C0E750
銅鑼,24.489681,120.790853,0.08,27.54,-0.27,82.36,5.68,-4.55,C0E780
西湖,24.562947,120.7485,0.27,27.39,0.58,87.86,5.36,-4.41,C0E810
獅潭,24.539133,120.920042,-0.03,26.61,-0.33,84.21,5.43,-5.87,C0E820
苑裡,24.439714,120.653053,-0.24,27.87,2.51,81.93,4.04,-5.74,C0E830
大河,24.618069,120.948578,-1.4,25.68,4.11,85.29,5.0,-8.79,C0E850
高鐵苗栗,24.60725,120.826094,0.03,27.94,14.44,88.86,5.46,-2.62,C0E870
石岡,24.276061,120.777644,0.71,27.29,2.08,83.93,10.07,-8.82,C0F0B0
中坑,24.248517,120.903319,-0.36,21.92,0.63,91.79,12.61,-12.66,C0F0C0
審馬陣,24.381675,121.4203,0.83,11.71,8.13,91.21,13.89,6.43,C0F0D0
東勢,24.246428,120.833047,1.27,27.55,0.21,80.71,9.57,-6.91,C0F850
大坑,24.173142,120.722289,1.31,29.33,3.57,79.93,7.14,-6.6,C0F970
神岡,24.272481,120.658314,-0.15,27.29,-0.8,82.79,6.75,-1.77,C0F9I0
大安,24.345061,120.588025,-0.23,27.66,1.0,84.86,5.0,-2.51,C0F9K0
后里,24.310436,120.729725,0.6,28.04,1.1,83.21,8.18,-3.74,C0F9L0
豐原,24.254322,120.720692,1.45,29.03,-0.74,78.07,6.61,-6.4,C0F9M0
大里,24.092464,120.701378,0.86,29.77,5.58,80.71,8.18,-4.83,C0F9N0
潭子,24.213106,120.703933,-0.27,28.19,5.49,82.36,7.18,-6.43,C0F9O0
清水,24.312297,120.562242,-0.18,28.14,-0.38,83.21,4.96,-2.33,C0F9P0
外埔,24.347817,120.705686,0.19,27.48,-0.25,85.14,7.14,-2.73,C0F9Q0
龍井,24.184536,120.528972,0.15,28.43,-5.62,81.93,7.39,-0.55,C0F9R0
烏日,24.107058,120.624103,0.21,28.69,1.33,78.29,9.39,-0.97,C0F9S0
西屯,24.179494,120.641275,0.02,28.49,0.4,78.0,8.11,-2.69,C0F9T0
南屯,24.137006,120.637969,-0.03,28.77,1.91,78.21,9.0,-1.28,C0F9U0
新社,24.200172,120.815806,0.59,25.84,-1.32,84.57,12.61,-5.13,C0F9V0
大雅(中科園區),24.21528,120.62445,0.06,27.44,4.29,84.29,5.79,-7.04,C0F9X0
桃山,24.432739,121.303808,0.95,11.12,7.27,92.29,15.0,-3.67,C0F9Y0
雪山東峰,24.388792,121.268675,1.08,12.02,6.15,89.5,12.89,-7.4,C0F9Z0
芬園,24.015678,120.6213,-0.44,27.17,10.27,93.14,10.64,-1.58,C0G620
員林,23.946503,120.585597,2.84,30.45,-1.39,81.79,12.36,-1.63,C0G650
溪湖,23.94835,120.479122,0.97,28.99,-4.31,83.58,12.04,0.92,C0G660
溪州,23.851589,120.499093,0.8,28.54,-3.89,79.29,11.29,-3.68,C0G720
二林,23.903325,120.376081,0.23,28.01,1.76,90.29,11.61,-2.93,C0G730
大城,23.852487,120.320935,0.18,27.88,2.7,86.07,7.75,-4.23,C0G740
福興,24.041289,120.437669,0.01,28.93,-3.28,80.57,7.86,-1.11,C0G770
秀水,24.03405,120.503869,0.37,28.9,1.17,84.79,12.43,2.98,C0G780
埔鹽,24.000394,120.431683,0.79,28.76,-5.52,81.73,9.04,-0.43,C0G800
埔心,23.947633,120.525456,1.47,30.12,-0.12,81.29,12.61,0.87,C0G810
田尾,23.901669,120.509389,0.47,28.81,3.0,88.21,13.18,0.71,C0G820
埤頭,23.866003,120.452806,0.15,28.35,5.18,93.79,11.61,0.3,C0G830
社頭,23.897647,120.5862,0.32,29.24,9.89,85.86,10.71,-1.57,C0G860
伸港,24.148933,120.484403,-0.11,28.27,-2.35,81.79,7.39,-0.11,C0G890
線西,24.143358,120.443536,-0.84,28.24,1.88,83.5,6.46,-4.54,C0G900
花壇,24.032076,120.549461,1.2,30.2,11.93,88.43,13.07,9.48,C0G910
埔里,23.972169,120.952425,0.34,25.91,3.7,89.0,23.04,-2.47,C0H890
草屯,23.973672,120.68085,0.1,28.13,3.33,82.29,11.0,-1.98,C0H960
昆陽,24.121322,121.273642,1.6,11.8,2.88,94.07,13.96,-2.54,C0H990
神木村,23.532742,120.843667,1.08,19.8,2.94,94.21,16.79,-10.44,C0H9A0
合歡山,24.143442,121.272547,1.74,10.87,7.59,96.29,20.46,-10.94,C0H9C0
廬山,24.033311,121.181808,1.22,20.24,-0.59,87.21,14.68,-9.14,C0I010
信義,23.689694,120.851036,0.73,25.14,2.24,89.43,11.04,-10.47,C0I080
竹山,23.761225,120.688156,1.13,27.68,2.48,86.93,15.5,-1.38,C0I110
水里,23.812553,120.849792,0.54,26.59,1.51,84.5,20.11,-5.49,C0I360
魚池,23.895703,120.94135,0.38,24.57,-0.14,87.07,19.93,-5.53,C0I370
集集,23.828206,120.801467,0.11,26.77,3.96,88.36,17.61,-9.41,C0I380
仁愛,24.022122,121.132206,1.0,22.18,-3.28,86.43,12.71,-20.39,C0I390
名間,23.837053,120.701447,-0.01,27.04,7.45,88.21,13.29,-5.73,C0I410
國姓,24.037803,120.855072,0.38,26.51,1.11,87.86,16.0,-12.77,C0I420
南投,23.911469,120.687331,0.32,28.42,8.67,86.86,8.04,-14.27,C0I460
梅峰,24.085272,121.173572,1.31,16.93,-1.81,90.21,16.82,-18.67,C0I480
萬大林道,23.928228,121.091411,0.86,19.83,-4.18,88.14,14.75,-9.66,C0I490
小奇萊,24.131764,121.295717,1.41,11.71,3.59,93.57,6.17,-17.05,C0I530
崙背,23.75555,120.318925,0.1,27.84,1.61,88.07,14.86,-2.04,C0K250
四湖,23.630414,120.227125,0.88,28.26,-0.03,85.57,15.64,2.14,C0K280
宜梧,23.536281,120.169329,-0.13,28.23,0.25,85.07,15.89,5.13,C0K291
虎尾,23.719183,120.442036,0.76,28.44,8.85,88.29,14.54,-0.03,C0K330
土庫,23.679029,120.395574,0.01,28.11,-0.09,82.86,13.57,-3.42,C0K390
斗六,23.720583,120.541127,0.16,28.2,-0.72,80.57,8.07,-10.51,C0K400
北港,23.573957,120.292802,0.01,28.2,-0.24,82.86,10.25,0.25,C0K410
西螺,23.800407,120.467394,0.15,28.36,0.91,82.79,12.39,-2.67,C0K420
褒忠,23.690938,120.303634,0.1,27.96,1.76,86.36,14.32,0.83,C0K430
二崙,23.772797,120.408944,0.01,27.92,12.78,96.64,12.64,-4.83,C0K440
大埤,23.646074,120.431537,0.17,28.22,1.75,83.57,10.64,-7.11,C0K450
斗南,23.678734,120.478359,0.14,28.24,4.67,83.07,10.61,-8.43,C0K460
林內,23.748675,120.609642,0.19,27.54,1.86,85.14,12.93,-5.92,C0K470
莿桐,23.761192,120.502372,0.16,27.99,2.99,83.64,10.39,-8.08,C0K480
元長,23.64981,120.315024,0.14,28.3,2.52,84.57,14.96,-0.96,C0K500
水林,23.572924,120.24597,0.21,28.42,4.31,85.86,14.43,2.08,C0K510
臺西,23.701547,120.197559,-0.18,27.81,3.48,86.43,17.5,2.39,C0K530
蔦松,23.514319,120.229736,0.12,28.36,2.3,85.79,11.96,1.28,C0K550
棋山,23.68645,120.603417,0.16,27.65,6.57,88.93,11.93,-11.52,C0K560
高鐵雲林,23.737456,120.417944,-0.48,27.78,2.61,86.57,13.04,4.25,C0K580
東後寮,23.369908,120.248065,0.07,28.0,2.97,87.86,14.82,3.58,C0M520
奮起湖,23.493903,120.699253,0.97,20.5,3.45,96.21,27.0,-3.99,C0M530
中埔,23.42538,120.5229,-0.14,27.59,1.57,80.14,15.71,-1.92,C0M640
朴子,23.43463,120.23902,-0.61,27.47,5.11,88.0,13.89,4.18,C0M650
溪口,23.604131,120.403569,0.02,28.01,0.76,83.5,8.43,-5.03,C0M660
大林,23.600616,120.45841,0.09,28.44,3.48,82.43,11.39,-6.84,C0M670
太保,23.455062,120.331455,-0.15,28.1,0.87,84.64,12.46,0.5,C0M680
水上,23.419734,120.388909,0.03,28.09,1.96,83.79,20.96,8.27,C0M690
竹崎,23.526178,120.555508,-0.08,27.28,4.7,86.0,17.18,1.38,C0M700
東石,23.458927,120.15385,-0.3,28.29,-0.38,82.71,15.5,5.62,C0M710
番路,23.464657,120.554156,0.08,27.2,5.1,84.07,18.5,-1.71,C0M720
嘉義市東區,23.457673,120.460531,-0.17,28.49,5.79,83.5,21.89,8.36,C0M730
六腳,23.492871,120.290625,-0.07,28.24,4.63,84.07,12.18,2.91,C0M740
布袋,23.380878,120.167789,0.02,28.48,0.74,83.64,13.54,2.4,C0M750
民雄,23.551754,120.428457,-0.11,28.34,2.46,82.86,11.39,-3.79,C0M760
嘉義梅山,23.585398,120.555587,-0.22,27.61,5.67,85.0,20.07,0.92,C0M770
鹿草,23.41134,120.30835,0.1,28.43,3.59,84.93,17.07,3.52,C0M780
新港,23.553269,120.345728,-0.21,28.11,2.03,83.14,9.89,-2.34,C0M790
茶山,23.299075,120.664767,0.14,25.31,3.86,90.21,23.46,-4.62,C0M800
里佳,23.389125,120.716647,0.51,20.83,1.82,90.86,25.25,-11.68,C0M810
達邦,23.453994,120.749517,0.82,22.76,4.24,90.5,18.11,-14.36,C0M820
表湖,23.24186,120.64166,-0.71,23.56,4.15,90.5,21.54,4.86,C0M850
新美,23.338017,120.683169,-0.13,24.94,11.43,89.93,24.0,19.34,C0M860
北寮,23.079561,120.495008,-0.22,27.48,8.76,92.0,29.54,16.12,C0O830
王爺宮,23.222064,120.40085,1.98,29.51,-2.19,81.14,22.18,8.47,C0O840
大內,23.11885,120.36083,0.65,29.31,5.39,87.64,22.79,10.39,C0O860
善化,23.112883,120.297219,0.68,28.32,9.45,93.36,22.57,5.29,C0O900
崎頂,22.959547,120.369317,0.59,28.29,4.54,89.5,22.93,11.17,C0O960
虎頭埤,23.021375,120.347878,-0.19,27.69,0.07,84.0,26.68,12.86,C0O970
新市,23.061614,120.298197,0.48,28.97,-0.31,83.79,22.32,11.38,C0O980
媽廟,22.99175,120.293525,0.14,28.65,3.87,86.93,21.21,8.8,C0O990
尾寮山,22.833111,120.683889,1.35,22.74,3.06,95.79,38.21,3.58,C0R100
阿禮,22.742908,120.743678,0.17,22.4,-0.37,86.5,23.21,4.16,C0R130
瑪家,22.682903,120.686639,-0.61,23.54,12.6,97.36,34.21,7.22,C0R140
三地門,22.709889,120.639944,0.82,28.24,3.16,81.71,27.32,1.47,C0R150
鹽埔,22.739558,120.530778,0.21,28.41,1.45,88.07,26.54,11.21,C0R160
赤山,22.592333,120.614306,0.0,28.42,8.68,91.64,27.57,9.06,C0R190
潮州,22.534361,120.54,0.87,28.84,3.97,82.21,28.75,8.5,C0R220
來義,22.527306,120.625111,-0.77,27.12,10.72,92.29,29.46,11.51,C0R240
春日,22.370361,120.628306,-1.4,26.95,7.87,88.21,29.5,16.74,C0R260
琉球嶼,22.332244,120.362236,0.85,28.64,-2.38,83.64,11.71,-0.95,C0R270
車城,22.0744,120.716247,-0.33,28.49,3.76,86.57,20.04,16.41,C0R320
牡丹,22.130036,120.792639,-0.3,26.41,9.93,95.43,24.0,15.72,C0R341
貓鼻頭,21.921774,120.7358,0.63,28.38,1.03,85.71,20.43,9.22,C0R350
大漢山,22.405264,120.753181,0.46,18.39,4.12,98.5,55.64,37.89,C0R440
高樹,22.826389,120.600806,-0.35,28.14,1.83,79.43,28.46,11.21,C0R470
長治,22.693128,120.542622,0.57,29.22,3.33,83.71,27.29,11.42,C0R480
九如,22.7405,120.490503,0.57,29.11,-0.68,82.43,30.61,15.24,C0R490
崁頂,22.514781,120.506914,-0.26,28.61,3.15,85.64,18.14,4.04,C0R520
佳冬,22.419456,120.552375,-0.19,28.59,3.21,84.43,26.86,13.41,C0R540
新埤,22.467947,120.582894,-0.16,28.38,-2.07,81.0,29.36,16.71,C0R550
新園,22.5434,120.461558,0.86,29.6,-4.2,79.29,24.11,10.39,C0R560
麟洛,22.65078,120.52719,0.71,29.56,5.33,85.07,28.32,15.05,C0R570
南州,22.48591,120.50274,-0.29,28.36,7.92,88.5,24.96,11.96,C0R580
里港,22.77919,120.49459,0.03,28.38,4.3,86.21,28.79,15.14,C0R590
舊泰武,22.588194,120.664944,-0.35,23.98,6.24,90.86,20.86,-3.69,C0R600
墾雷,21.900836,120.855269,-0.61,28.01,10.21,94.29,22.36,15.11,C0R620
東港,22.46247,120.44074,-0.18,28.77,1.96,85.71,19.5,15.71,C0R640
竹田,22.58486,120.54344,-0.32,28.76,1.55,83.14,25.71,18.04,C0R650
枋寮,22.367722,120.590647,-0.21,28.56,10.06,88.0,21.21,19.21,C0R660
楓港,22.190131,120.692156,-0.81,28.01,2.53,81.71,28.5,25.47,C0R670
佳樂水,21.993578,120.861633,-0.86,28.21,8.28,88.71,20.25,17.94,C0R680
墾丁,21.966756,120.810269,-0.39,26.59,3.76,92.57,21.5,18.81,C0R690
枋山,22.246844,120.661086,0.4,28.73,1.75,82.0,46.5,44.38,C0R700
龍磐,21.931672,120.838942,-0.89,27.51,5.98,91.36,19.14,17.49,C0R710
旭海,22.205403,120.887614,-1.05,26.56,7.75,88.5,18.25,12.66,C0R720
大坪頂,22.024633,120.69355,-0.46,27.4,7.53,94.71,13.46,11.93,C0R730
四林格山,22.076989,120.802439,-0.22,24.48,2.21,97.14,26.14,14.39,C0R750
南仁湖,22.084681,120.863353,-0.98,25.41,12.57,98.07,31.86,19.29,C0R760
保力,22.071122,120.764111,-0.02,27.31,3.63,90.07,20.64,10.71,C0R770
滿州,22.024403,120.839892,-0.69,27.69,5.73,86.86,21.75,17.03,C0R780
九棚,22.14195,120.889281,-1.06,27.69,10.26,86.7,9.04,0.04,C0R790
丹路,22.204481,120.750989,-0.15,27.53,4.58,87.14,38.32,29.01,C0R800
內獅,22.305064,120.642986,-0.2,28.61,20.04,96.36,33.25,29.94,C0R810
白鷺,22.454275,120.666219,0.04,25.17,7.08,90.14,39.75,37.09,C0R820
高士,22.121825,120.836781,-0.87,25.27,10.1,94.79,26.32,14.38,C0R830
牡丹池山,22.168389,120.841225,-0.85,24.34,9.8,96.93,24.18,14.21,C0R840
下馬,23.150427,121.070312,0.61,23.84,6.71,89.21,14.82,12.7,C0S660
太麻里,22.60902,120.98533,0.7,24.7,7.77,93.0,12.85,2.62,C0S690
知本,22.684866,121.005642,0.99,25.16,7.06,93.21,25.07,14.61,C0S700
鹿野,22.917711,121.122994,1.11,25.57,6.88,92.0,20.07,11.45,C0S710
綠島,22.6672,121.47533,0.9,27.64,1.11,87.57,21.61,15.01,C0S730
池上,23.119628,121.209469,0.91,26.07,5.1,91.21,19.36,12.91,C0S740
向陽,23.248397,120.986133,1.33,16.29,13.51,93.86,19.29,-1.19,C0S750
大溪山,22.478475,120.943325,0.85,25.53,4.26,90.64,18.68,5.74,C0S770
金崙,22.538122,120.966875,0.98,27.31,3.41,85.71,16.0,5.36,C0S790
東河,22.972672,121.303986,0.0,27.54,5.18,90.71,23.86,16.05,C0S810
長濱,23.286817,121.411975,0.78,26.56,4.53,89.14,21.36,14.51,C0S830
南田,22.279725,120.889208,0.63,28.17,1.52,82.29,20.64,6.71,C0S840
關山,23.0395,121.175017,0.22,26.61,6.1,91.14,18.71,11.07,C0S890
蘭嶼高中,22.04909,121.51214,-0.6,28.54,9.57,89.07,30.32,28.01,C0S900
蘭嶼燈塔,22.081197,121.503117,-0.55,26.99,10.8,94.64,28.46,26.64,C0S910
金峰嘉蘭,22.594789,120.960825,-0.83,27.44,8.5,86.5,19.68,12.88,C0S920
延平,22.902581,121.084058,-0.93,26.31,12.37,88.93,20.04,17.4,C0S930
石寧山,23.223772,121.406639,-0.9,27.39,7.61,89.86,23.71,21.48,C0S940
七塊厝,22.954453,121.229922,0.1,26.31,-0.1,86.71,21.93,13.49,C0S950
香蘭,22.587569,120.993375,-0.51,28.23,13.12,87.93,18.5,14.25,C0S960
加津林,22.416211,120.926942,-0.26,28.05,6.77,84.14,20.32,15.48,C0S970
勝林山,22.430439,120.8938,-1.74,22.54,11.6,94.79,21.46,15.18,C0S980
山豬窟,22.318619,120.857372,-1.46,25.64,12.32,90.07,24.96,18.85,C0S990
歷坵,22.520969,120.89185,-0.14,25.3,4.63,91.07,18.96,12.92,C0SA00
檳榔四格山,22.810031,121.109308,-0.97,25.34,9.46,93.64,15.71,13.12,C0SA10
金崙山,22.567419,120.959667,-0.11,23.74,3.28,90.21,22.43,16.87,C0SA20
都歷,23.020333,121.323642,-0.62,27.51,4.08,83.64,21.79,16.05,C0SA30
瑞和,22.974361,121.156697,-0.89,26.62,6.91,87.79,19.18,14.63,C0SA40
知本（水試所）,22.702394,121.082761,-0.77,27.85,9.29,88.36,17.25,14.55,C0SA60
土坂,22.453108,120.887572,0.08,27.51,8.99,87.36,22.32,14.67,C0SA80
達仁林場,22.264347,120.823972,-0.9,24.92,12.19,93.0,34.14,21.61,C0SA90
大禹嶺,24.186117,121.316086,1.07,13.64,4.43,90.36,14.25,0.71,C0T790
天祥,24.179597,121.495639,1.02,24.24,6.23,88.64,14.43,8.54,C0T820
鯉魚潭,23.935639,121.508944,0.59,25.67,2.18,92.14,17.64,9.75,C0T870
西林,23.8119,121.441458,0.68,26.5,8.49,90.43,12.93,5.17,C0T900
光復,23.660694,121.424964,1.34,27.16,-0.9,87.71,15.32,6.61,C0T960
月眉山,23.809928,121.539828,1.38,24.91,-0.56,93.5,12.46,5.64,C0T9A0
水源,23.991861,121.537169,1.06,24.16,0.35,93.21,21.46,13.52,C0T9B0
和中,24.26676,121.74103,0.73,27.12,10.56,100.0,15.46,6.77,C0T9D0
大坑,23.880628,121.581981,1.0,25.16,4.27,93.57,20.14,12.09,C0T9E0
水璉,23.797131,121.542514,0.57,26.19,4.6,92.43,12.04,4.98,C0T9F0
鳳林山,23.735269,121.420131,0.1,24.19,1.9,95.43,17.46,7.82,C0T9G0
加路蘭山,23.682947,121.5274,1.35,24.31,5.01,98.86,15.07,5.78,C0T9H0
豐濱,23.583897,121.514806,1.3,26.66,-3.25,87.43,13.71,5.33,C0T9I0
靜浦,23.455167,121.495028,0.95,26.91,7.2,94.36,20.89,14.26,C0T9M0
富里,23.171639,121.249378,-0.79,26.51,17.94,99.5,16.07,13.77,C0T9N0
雙連埤,24.753033,121.641303,0.05,23.36,-0.93,94.57,7.82,-4.17,C0U520
礁溪,24.817539,121.765608,1.1,27.18,-1.17,85.64,5.68,-5.24,C0U600
玉蘭,24.675286,121.587061,1.19,25.08,-0.5,86.0,10.93,-1.0,C0U650
太平山,24.505486,121.525656,1.41,18.05,1.29,94.64,13.29,1.53,C0U710
南山,24.43742,121.38167,0.61,21.76,-3.21,88.5,6.32,-0.88,C0U720
龜山島,24.841667,121.953133,-0.03,24.22,-0.91,93.86,4.75,-0.64,C0U750
東澳,24.52196,121.83318,0.88,27.37,-2.19,85.14,8.54,-2.19,C0U760
南澳,24.44935,121.81022,0.32,27.03,3.18,89.43,4.46,-2.91,C0U770
五結,24.68637,121.79794,-0.12,27.12,-0.01,85.29,5.82,-1.15,C0U780
頭城,24.85323,121.8308,-0.14,27.04,1.02,90.14,7.04,-2.25,C0U860
大礁溪,24.791042,121.675047,0.28,24.49,7.21,94.64,7.54,-1.85,C0U870
三星,24.66812,121.65302,0.2,26.49,-4.37,84.57,6.79,-0.74,C0U890
內城,24.71813,121.68766,0.67,27.1,-0.59,86.93,6.64,-2.25,C0U900
冬山,24.63373,121.7937,0.67,27.52,1.01,82.29,8.5,-1.1,C0U910
羅東,24.68184,121.74934,0.78,27.51,1.87,85.43,5.39,-2.74,C0U940
鶯子嶺,24.89754,121.79244,0.9,21.57,-2.47,93.93,12.25,0.61,C0U950
翠峰湖,24.510856,121.608044,1.2,17.92,2.28,95.07,16.79,7.26,C0U960
大福,24.80064,121.81389,-0.1,26.64,3.54,86.79,5.5,-2.94,C0U970
坪林石牌,24.86478,121.77396,0.49,23.76,2.64,96.29,9.0,-1.49,C0U980
員山,24.74435,121.72247,0.21,27.13,4.82,88.21,5.43,-3.31,C0U990
土場,24.576533,121.495333,0.13,25.14,-1.99,87.93,7.39,-0.57,C0UA00
鴛鴦湖,24.590269,121.412228,0.94,18.55,3.5,97.5,18.57,7.47,C0UA10
白嶺,24.527819,121.519031,0.92,20.67,-1.24,93.93,14.18,3.53,C0UA30
西德山,24.560647,121.752608,0.91,21.64,1.37,94.93,9.82,-0.42,C0UA40
西帽山,24.555361,121.802628,0.64,23.02,-4.12,89.5,12.68,-0.3,C0UA50
樟樹山,24.41393,121.78325,0.49,24.55,3.12,89.62,6.88,-0.23,C0UA60
桃源谷,24.962606,121.888875,0.53,23.88,0.03,96.57,12.57,0.34,C0UA70
復興,23.222403,120.806089,0.73,24.51,4.57,86.93,23.82,2.81,C0V210
溪埔,22.738578,120.446797,-0.07,28.26,6.48,88.79,31.29,16.9,C0V350
內門,22.975481,120.466769,0.99,28.39,3.66,87.43,36.54,20.05,C0V360
古亭坑,22.893178,120.401947,-0.16,26.84,6.54,91.5,43.38,23.81,C0V370
阿公店,22.804194,120.355528,-0.24,28.01,4.13,87.14,21.82,10.03,C0V400
鳳山,22.646653,120.356122,-0.71,28.23,11.1,88.86,21.05,9.76,C0V440
鳳森,22.545064,120.392592,-0.19,28.24,1.44,85.07,23.29,10.66,C0V450
新興,22.627422,120.298803,0.17,29.09,0.25,80.36,25.04,13.48,C0V490
阿蓮,22.883208,120.327508,-0.16,28.63,4.42,85.43,31.81,17.75,C0V530
梓官,22.760558,120.267211,-0.32,28.65,2.34,83.71,24.43,12.95,C0V610
永安,22.82315,120.236856,-0.3,28.47,0.12,84.29,19.29,7.2,C0V620
茄萣,22.906642,120.182608,0.12,29.05,6.33,85.0,25.93,15.19,C0V630
湖內,22.887139,120.2445,-0.58,28.21,2.38,83.5,20.75,8.9,C0V640
彌陀,22.783806,120.246361,-0.08,28.65,0.97,86.29,19.86,8.3,C0V650
岡山,22.797078,120.294958,0.17,29.41,3.63,82.79,27.29,14.14,C0V660
仁武,22.701083,120.347722,0.01,29.42,3.65,82.71,23.82,10.89,C0V680
鼓山,22.623325,120.275575,-0.33,28.67,2.86,84.36,21.21,11.54,C0V690
三民,22.645017,120.311233,-0.28,29.21,5.82,79.5,26.04,14.46,C0V700
苓雅,22.622742,120.330669,0.1,29.32,10.76,84.33,28.12,16.92,C0V710
林園,22.507747,120.394511,0.22,29.68,6.34,83.57,20.43,8.23,C0V720
大寮,22.605614,120.395717,-0.49,28.68,9.72,87.29,29.36,17.44,C0V730
旗山,22.888614,120.483597,0.91,29.09,1.27,81.14,35.57,20.65,C0V740
路竹,22.854997,120.259439,0.36,29.37,2.13,81.86,21.0,6.87,C0V750
橋頭,22.757806,120.30575,0.23,29.44,-1.04,79.21,24.39,13.19,C0V760
大社,22.730306,120.346639,0.08,29.26,6.95,84.36,25.18,12.44,C0V770
萬山,22.905944,120.688056,0.5,26.18,6.39,88.57,29.55,11.44,C0V790
六龜,22.997889,120.633583,0.25,27.27,5.93,85.71,37.54,16.12,C0V800
左營,22.67491,120.28491,-0.4,28.49,2.0,83.07,24.86,11.82,C0V810
小林,23.148408,120.63325,-0.09,25.73,10.55,90.93,21.93,6.15,C0V820
東莒,25.9652,119.98069,0.69,25.08,0.9,88.64,2.58,-5.61,C0W110
西嶼,23.5626,119.468436,0.46,26.63,0.62,93.17,16.67,12.11,C0W120
花嶼,23.40007,119.32276,0.53,27.08,1.59,91.0,5.32,0.21,C0W130
金沙,24.488292,118.408778,0.87,27.16,-2.97,82.64,0.61,-2.92,C0W140
金寧,24.457703,118.328989,-0.01,27.06,-5.05,81.86,0.43,-3.2,C0W150
東河,23.296598,120.385608,-0.42,27.89,1.3,83.43,19.29,5.74,C0X050
下營,23.22695,120.256261,0.16,28.36,-0.76,82.79,21.57,8.27,C0X060
佳里,23.173039,120.145086,0.8,28.65,5.28,89.93,27.64,13.95,C0X080
臺南市北區,23.010394,120.194228,-0.27,29.14,8.43,83.86,19.14,8.65,C0X100
臺南市南區,22.961189,120.188378,-0.17,29.01,3.81,84.86,20.86,11.2,C0X110
麻豆,23.183289,120.248611,0.37,29.3,3.53,86.0,22.57,11.92,C0X120
官田,23.193217,120.315422,-0.12,28.67,11.1,90.86,17.89,7.56,C0X130
西港,23.125608,120.203108,-0.44,28.64,2.33,82.29,26.5,17.03,C0X140
安定,23.102614,120.227839,0.04,28.94,5.55,86.79,25.79,16.45,C0X150
仁德,22.968258,120.257689,0.12,29.04,4.98,84.43,22.75,11.88,C0X160
關廟,22.963017,120.327797,-0.3,28.74,10.17,86.29,20.96,7.79,C0X170
山上,23.0757,120.363253,-0.04,28.21,3.85,85.36,24.32,11.45,C0X180
安平,22.993161,120.152181,-0.21,28.84,-0.33,82.43,20.5,11.06,C0X190
左鎮,23.056758,120.408522,0.85,28.56,0.69,85.43,25.79,12.39,C0X200
白河,23.347466,120.414427,-0.2,27.96,4.71,85.21,18.43,4.73,C0X210
學甲,23.230367,120.182187,-0.05,28.33,4.88,84.64,20.14,11.53,C0X220
鹽水,23.272621,120.247641,-0.07,28.07,3.18,85.93,19.36,8.71,C0X230
關子嶺,23.331169,120.508025,0.03,25.96,5.53,90.14,29.68,7.89,C0X240
新營,23.310689,120.316681,-0.39,28.46,5.41,83.5,20.89,9.71,C0X250
後壁,23.366358,120.362326,-0.15,28.21,2.78,83.5,18.5,8.12,C0X260
將軍,23.214999,120.13577,-0.04,28.24,3.16,85.29,19.32,9.58,C0X280
北門,23.267772,120.125481,-0.03,28.34,-0.01,84.93,16.71,7.55,C0X290
鹿寮,23.386047,120.477331,-0.06,27.44,1.27,86.07,13.95,-0.75,C0X300
柳營,23.253328,120.375253,-0.63,27.89,8.71,86.14,17.64,15.67,C0X320
明里,23.208717,121.262342,0.29,26.18,2.67,92.5,17.29,9.53,C0Z020
佳心,23.34567,121.21316,1.01,22.86,10.85,97.29,21.43,13.83,C0Z050
玉里,23.3215,121.339656,0.96,27.14,6.07,95.86,23.36,14.7,C0Z061
舞鶴,23.46811,121.37407,1.41,26.28,8.28,99.71,26.82,21.0,C0Z070
富源,23.587642,121.378225,0.75,26.31,0.62,90.79,17.54,7.91,C0Z080
東華,23.89525,121.549833,0.55,27.5,3.95,90.36,6.46,1.72,C0Z100
吉安光華,23.930925,121.595153,0.29,26.99,-3.06,84.79,20.82,15.31,C0Z150
鳳林,23.746114,121.453411,0.26,26.66,0.36,85.0,12.68,3.28,C0Z160
卓溪,23.3443,121.3029,-0.24,26.79,1.09,83.71,24.11,16.75,C0Z170
新城,24.040486,121.604878,0.2,27.11,15.01,98.71,14.57,8.54,C0Z180
富世,24.14743,121.6297,0.06,27.01,0.1,88.14,19.07,11.83,C0Z190
萬榮,23.709219,121.420106,0.52,26.55,-1.22,86.29,15.07,6.69,C0Z200
瑞穗,23.5239,121.39021,0.88,27.1,2.28,88.71,18.61,11.91,C0Z210
和平林道,24.343922,121.656317,0.2,24.11,-1.9,90.29,14.82,11.31,C0Z220
和平,24.30717,121.77007,-0.78,26.36,0.34,84.57,14.18,7.21,C0Z230
瑞穗林道,23.49284,121.30688,0.55,21.77,3.41,97.93,22.39,11.33,C0Z250
蕃薯寮,23.73835,121.540108,0.56,25.43,-2.73,90.21,12.18,3.52,C0Z270
德武,23.47426,121.41071,0.54,26.56,1.26,89.21,27.36,22.19,C0Z280
赤柯山,23.36893,121.38293,0.6,22.71,1.66,93.29,26.61,20.75,C0Z290
東里,23.26853,121.30547,0.38,26.88,-1.4,87.14,26.79,21.83,C0Z300
清水斷崖,24.218294,121.689142,-0.38,26.39,-0.48,89.36,12.18,4.08,C0Z310
清水林道,23.27125,121.188272,0.21,24.11,3.21,88.86,19.71,13.07,C0Z320
安通山,23.290728,121.348528,0.01,24.92,6.05,92.43,25.82,20.65,C0Z330
口湖工作站,23.589978,120.180394,0.08,28.01,2.55,79.64,14.11,10.78,12J990
東港工作站,22.479997,120.466058,-0.29,28.76,3.63,73.07,20.5,15.97,12Q970
恆春工作站,22.079678,120.714425,1.23,28.53,1.96,80.36,18.29,-4.21,12Q980
萬大發電廠,23.978875,121.139639,1.07,22.69,-7.3,84.07,13.07,-1.94,42HA10
桃改樹林分場,24.944503,121.386972,-0.87,27.11,1.65,81.71,7.43,0.49,72AI40
桃園農改場,24.950944,121.030583,1.09,27.48,1.73,86.0,2.0,-9.58,72C440
桃改五峰分場,24.612194,121.157167,1.37,22.57,2.68,91.5,3.23,-8.46,72D080
臺中農改場,24.003028,120.534389,0.7,27.95,5.69,89.57,14.68,2.49,72G600
中改埔里分場,23.903208,120.963364,0.77,24.24,2.12,92.71,18.27,-5.93,72HA00
南改斗南分場,23.634556,120.477333,0.93,28.29,2.17,85.93,7.96,-6.56,72K220
南改義竹分場,23.360694,120.279361,0.32,27.96,-2.4,84.0,17.32,3.6,72M360
南改鹿草分場,23.416869,120.283061,0.01,28.1,5.75,87.79,12.36,3.52,72M700
臺南農改場,23.0605,120.342194,0.3,27.96,5.96,89.57,23.54,11.07,72N100
七股研究中心,23.081672,120.062894,0.07,28.7,4.08,86.36,28.21,21.4,72N240
高雄農改場,22.709333,120.525889,0.31,28.33,6.7,88.14,26.18,5.22,72Q010
東改班鳩分場,22.829528,121.077694,0.46,26.0,2.84,87.85,14.58,5.74,72S200
東改賓朗果園,22.813889,121.071278,-8.27,16.86,3.93,94.6,17.54,9.31,72S590
花蓮農改場,23.975222,121.563889,1.05,27.09,0.16,85.29,22.73,16.32,72T250
花改蘭陽分場,24.686306,121.716583,1.1,27.09,-0.58,86.36,5.57,-2.76,72U480
高改旗南分場,22.857861,120.516667,-0.64,27.84,9.87,86.93,4.1,-17.38,72V140
茶改北部分場,24.955778,121.631222,1.69,25.19,1.68,88.36,4.79,-11.57,82A750
茶改場,24.908472,121.185333,0.78,26.54,-0.07,84.43,4.64,-7.25,82C160
茶改中部分場,23.875611,120.913583,0.26,23.12,2.94,92.42,21.75,1.48,82H320
茶改南部分場,23.762528,120.7405,0.13,25.4,1.68,90.93,9.29,-8.82,82H840
茶改東部分場,22.907694,121.130139,0.22,26.54,4.61,88.29,20.18,11.96,82S580
農工中心,24.985917,121.239833,1.14,27.34,5.19,81.79,3.32,-6.66,A2C560
水試臺西試驗場,23.717231,120.190522,0.17,28.18,5.78,90.07,19.11,10.1,A2K360
臺大雲林校區,23.730628,120.423903,-0.11,27.81,3.73,86.36,12.32,8.29,A2K630
臺南蘭花園區,23.340258,120.379661,-0.16,27.91,5.91,88.29,16.86,13.26,A2N290
畜試北區分所,24.527806,120.770972,0.92,27.7,8.62,91.0,4.32,-4.17,B2E890
畜產試驗所,23.058972,120.336406,0.1,27.58,4.19,89.29,24.5,5.72,B2N890
畜試南區分所,21.945583,120.802167,-0.06,27.84,-0.15,83.64,21.32,10.45,B2Q810
畜試東區分所,24.669039,121.832561,-0.36,27.15,6.81,92.0,7.89,3.21,B2U990
蓮華池,23.918333,120.885278,-0.32,24.01,6.8,91.57,24.29,4.05,E2H360
林試畢祿溪站,24.226944,121.308522,-0.1,15.97,12.9,92.07,12.29,11.95,E2HA20
四湖植物園,23.676986,120.163433,0.09,28.0,10.18,96.5,18.79,11.08,E2K600
林試六龜中心,22.991703,120.645722,-0.74,26.24,13.95,90.57,32.68,31.21,E2P980
林試太麻里2,22.598,120.99775,-0.54,27.71,6.31,84.0,1.08,-2.92,E2S960
林試太麻里1,22.598922,120.980044,-0.48,27.29,7.83,86.14,18.61,13.76,E2S980
農試所(霧峰),24.031261,120.688133,1.57,28.76,4.26,88.08,12.79,-1.54,G2F820
農試嘉義分所,23.485028,120.473806,0.15,27.59,4.59,86.07,25.18,14.73,G2L020
農試溪口農場,23.58565,120.408111,1.0,28.1,1.82,85.07,8.75,2.4,G2M350
農試鳳山分所,22.646611,120.356083,-0.06,28.33,5.36,84.29,24.32,7.43,G2P820
苗栗農改場,24.495722,120.829111,0.57,27.39,2.03,82.14,4.89,-7.4,K2E360
苗改生物防治研究中心,24.422861,120.871833,0.05,25.98,2.88,84.86,7.75,-0.58,K2E710
種苗改良場,24.225972,120.800917,0.98,25.92,8.98,91.36,9.71,-8.77,K2F750
臺大和社,23.590856,120.888864,1.76,24.06,2.6,90.86,10.71,-4.14,U2HA30
臺大內茅埔,23.689722,120.851117,0.89,25.08,2.32,88.79,9.61,-5.25,U2HA40
臺大竹山,23.756972,120.681556,0.18,27.36,3.96,85.0,15.71,-0.22,U2HA50
