站名,緯度,經度,平均溫距平,本年度平均溫,平均溼度距平,本年度日均相對溼度,本年度日均降水量,日均降水量距平,站號
淡水,25.164889,121.448906,0.64,27.15,5.06,85.64,4.43,-9.41,466900
鞍部,25.182586,121.529731,0.78,22.1,6.77,95.73,4.51,-13.09,466910
臺北,25.037658,121.514853,0.77,28.11,4.25,80.55,7.36,-6.62,466920
竹子湖,25.162078,121.544547,0.94,23.81,5.1,91.09,4.18,-11.53,466930
基隆,25.133314,121.740475,0.94,27.39,2.96,82.0,4.43,-10.69,466940
花蓮,23.975128,121.613275,0.84,27.64,4.01,85.0,11.83,4.74,466990
新屋,25.006725,121.047492,-0.22,27.24,3.28,87.55,2.51,-7.6,467050
宜蘭,24.763975,121.756528,1.05,27.45,3.14,85.64,3.19,-8.02,467080
金門,24.407306,118.289281,0.64,26.15,2.69,88.45,0.88,-4.75,467110
田中,23.873803,120.581286,-0.24,28.4,1.29,84.45,7.78,4.86,467270
澎湖,23.565503,119.563094,0.63,27.91,3.07,88.09,9.78,4.39,467350
臺南,22.99328,120.20492,0.61,29.05,3.62,80.91,16.14,0.9,467410
永康,23.038386,120.2367,0.8,28.99,6.65,81.55,19.05,4.43,467420
嘉義,23.495925,120.432906,0.5,28.35,6.75,85.0,15.78,3.04,467480
臺中,24.145736,120.684075,1.16,28.75,2.99,79.55,3.05,-12.33,467490
阿里山,23.508208,120.813242,1.21,15.26,3.95,95.18,17.55,-17.41,467530
大武,22.35572,120.90374,0.95,28.78,3.08,80.64,11.05,-3.67,467540
玉山,23.48718,120.95943,2.69,9.65,6.3,90.36,6.88,-16.01,467550
新竹,24.827853,121.014219,0.81,28.05,5.14,82.36,3.0,-9.4,467571
恆春,22.003897,120.746339,0.64,28.91,3.84,83.0,11.77,-0.51,467590
成功,23.097486,121.373428,0.6,27.38,6.23,88.36,9.3,3.26,467610
日月潭,23.881325,120.90805,0.99,22.91,9.47,94.91,26.92,5.25,467650
臺東,22.752211,121.154586,0.69,28.47,5.35,83.45,6.8,-0.39,467660
馬祖,26.169467,119.923158,1.32,24.88,2.52,90.09,5.84,-0.89,467990
山佳,24.974944,121.402008,1.27,28.25,1.39,82.64,3.64,-8.48,C0A520
坪林,24.938183,121.70975,2.68,26.75,-2.92,89.73,6.05,-8.3,C0A530
泰平,24.971197,121.823711,1.39,24.5,0.03,95.09,5.86,-9.57,C0A550
桶後,24.848222,121.597992,2.75,26.38,-6.38,86.17,15.41,1.45,C0A570
石碇,24.993969,121.662917,1.1,25.9,-4.06,87.73,3.55,-13.71,C0A640
大坪,25.165914,121.632969,3.09,27.13,-3.56,85.78,8.44,-9.53,C0A860
五指山,25.132153,121.608692,2.64,24.62,-1.61,92.36,5.27,-9.09,C0A870
雙溪,25.036003,121.864242,2.43,27.74,-3.08,86.73,3.05,-10.76,C0A890
三和,25.233153,121.595236,0.2,25.69,-1.94,91.09,10.32,-9.58,C0A931
金山,25.223628,121.643967,0.8,26.61,-1.38,85.64,7.64,-7.81,C0A940
鼻頭角,25.129036,121.923372,1.41,27.31,-1.83,88.45,2.09,-7.96,C0A950
三貂角,25.007606,122.002058,1.22,26.79,2.58,89.55,6.23,-2.92,C0A970
社子,25.109508,121.469681,1.51,28.76,2.45,82.18,3.23,-9.28,C0A980
天母,25.117494,121.537169,0.98,28.19,-2.21,75.09,2.73,-10.02,C0A9C0
內湖,25.079422,121.57545,1.55,28.82,2.07,81.27,6.18,-7.0,C0A9F0
大屯山,25.175675,121.522408,2.49,22.74,3.65,98.73,5.09,-11.17,C0AC40
三峽,24.939025,121.369728,1.42,28.86,1.9,83.73,6.23,-6.35,C0AC60
信義,25.037822,121.564597,1.06,28.39,0.21,82.18,7.36,-6.33,C0AC70
文山,25.00235,121.575728,0.28,27.09,-2.02,83.36,7.91,-6.44,C0AC80
新莊,25.051478,121.446756,-0.11,28.0,4.71,80.36,3.73,-8.37,C0ACA0
八里,25.150211,121.403947,1.2,28.62,12.26,92.0,4.32,-7.45,C0AD10
蘆洲,25.086594,121.472331,0.67,28.93,3.13,79.82,3.55,-7.44,C0AD30
土城,24.973208,121.445169,0.09,27.15,2.15,85.09,16.05,2.51,C0AD40
鶯歌,24.951533,121.346294,1.07,28.44,3.65,86.82,2.91,-8.8,C0AD50
汐止,25.066881,121.658778,0.22,27.52,-1.8,82.82,3.82,-10.31,C0AH00
永和,25.01125,121.508111,0.73,28.8,5.12,81.09,11.59,-0.73,C0AH10
五分山,25.07125,121.780794,2.12,24.4,-0.91,94.64,5.45,-9.29,C0AH30
平等,25.129142,121.577086,0.13,25.57,1.58,84.91,3.36,-11.64,C0AH40
林口,25.072181,121.38084,0.79,27.21,5.67,92.29,4.14,-6.67,C0AH50
松山,25.04871,121.55042,-0.23,28.05,11.59,82.36,7.77,0.97,C0AH70
深坑,25.002703,121.628328,0.84,27.35,-0.13,85.18,3.77,-4.51,C0AH80
福山植物園,24.760717,121.58135,0.68,23.35,1.32,94.09,8.59,0.66,C0AH90
五股,25.07445,121.42728,0.75,27.75,-1.55,85.27,4.05,-4.26,C0AI00
屈尺,24.92184,121.54475,1.7,28.47,1.63,86.45,10.5,-0.19,C0AI10
白沙灣,25.283128,121.519058,0.12,26.85,7.02,88.36,4.36,-4.73,C0AI20
三重,25.057328,121.500629,-0.98,28.38,9.37,89.91,2.86,0.79,C0AI30
石牌,25.115597,121.513139,0.43,29.25,7.26,80.18,3.18,-5.51,C0AI40
七堵,25.094819,121.71713,1.06,28.24,-1.54,85.36,4.45,-4.97,C0B010
基隆嶼,25.19141,121.78391,-0.14,26.45,6.01,96.55,1.73,-9.39,C0B020
復興,24.820208,121.352281,0.79,24.74,-4.18,82.27,8.36,-6.9,C0C460
桃園,24.992425,121.323172,0.35,27.85,5.72,80.18,4.27,-7.68,C0C480
八德,24.928708,121.283289,-0.21,27.23,1.33,80.64,4.68,-6.47,C0C490
觀音,25.027072,121.153317,0.28,26.63,9.28,91.82,3.41,-7.68,C0C590
蘆竹,25.084275,121.265767,0.18,27.58,2.9,84.82,3.32,-6.73,C0C620
大溪,24.882853,121.265547,0.4,26.27,5.66,84.36,6.36,-4.13,C0C630
平鎮,24.897503,121.214636,0.64,26.52,3.97,84.91,5.91,-5.11,C0C650
楊梅,24.912375,121.143047,-0.55,26.85,8.94,85.2,2.95,-6.25,C0C660
龍潭,24.870056,121.221389,-0.06,26.37,5.19,84.0,5.41,-2.96,C0C670
龜山,25.02846,121.38656,-1.12,25.25,2.39,83.27,4.32,-7.89,C0C680
中壢,24.977661,121.256375,-0.11,27.18,5.2,80.82,3.68,-2.65,C0C700
大溪永福,24.892936,121.324975,0.6,26.8,0.29,86.64,5.55,-3.74,C0C710
梅花,24.678347,121.208558,0.94,24.43,3.68,91.55,9.91,-1.31,C0D360
峨眉,24.6905,121.017189,0.29,27.14,4.69,91.18,3.14,-5.7,C0D430
打鐵坑,24.849664,121.150789,0.29,25.48,0.44,87.0,1.86,-9.51,C0D480
橫山,24.71116,121.11693,0.22,25.64,11.07,97.55,5.64,-5.25,C0D540
雪霸,24.526972,121.11605,0.99,18.54,5.84,90.36,7.73,-7.81,C0D550
竹東,24.767147,121.057881,1.52,27.87,0.61,77.09,3.68,-5.52,C0D560
寶山,24.735006,121.025192,0.64,26.41,4.28,89.45,3.77,-5.79,C0D580
新豐,24.87068,120.97721,0.4,26.49,9.68,93.64,3.68,-8.56,C0D590
湖口,24.904794,121.043628,-0.16,27.2,1.17,82.27,3.14,-5.74,C0D650
新竹市東區,24.798681,120.986942,-0.41,27.38,6.01,81.91,3.55,-2.98,C0D660
竹南,24.708978,120.888897,2.04,28.99,9.45,88.73,5.09,-6.72,C0E420
南庄,24.601775,121.000214,0.81,26.02,5.24,89.09,3.82,-10.15,C0E430
明德,24.583486,120.885411,0.27,27.88,4.24,84.09,5.05,-2.23,C0E550
通霄,24.471892,120.704622,-0.08,27.55,3.86,87.18,4.86,-2.67,C0E590
馬都安,24.451272,120.930192,0.94,23.46,11.92,92.18,6.68,-8.06,C0E610
頭份,24.688247,120.912206,1.28,29.06,6.02,81.0,7.45,-2.07,C0E730
造橋,24.637056,120.864778,-0.07,27.88,2.77,84.36,5.45,-2.61,C0E740
苗栗,24.564569,120.824575,-0.33,28.06,0.72,75.82,4.18,-4.0,C0E750
銅鑼,24.489681,120.790853,0.0,27.54,0.76,83.09,5.36,-3.85,C0E780
西湖,24.562947,120.7485,0.16,27.35,1.47,88.45,3.55,-4.54,C0E810
獅潭,24.539133,120.920042,-0.09,26.65,0.82,85.0,4.23,-5.88,C0E820
苑裡,24.439714,120.653053,-0.39,27.77,3.24,82.82,3.05,-4.99,C0E830
大河,24.618069,120.948578,-1.63,25.55,5.2,86.73,5.14,-5.6,C0E850
高鐵苗栗,24.60725,120.826094,-0.22,27.78,15.66,90.45,4.86,-1.66,C0E870
石岡,24.276061,120.777644,0.46,27.21,3.67,85.36,6.77,-7.34,C0F0B0
中坑,24.248517,120.903319,-0.36,22.05,1.64,92.27,12.77,-8.37,C0F0C0
審馬陣,24.381675,121.4203,1.56,12.2,4.09,89.27,9.27,2.11,C0F0D0
東勢,24.246428,120.833047,1.29,27.66,1.32,81.18,8.64,-6.43,C0F850
大坑,24.173142,120.722289,1.27,29.37,4.67,80.55,2.95,-9.58,C0F970
神岡,24.272481,120.658314,-0.16,27.33,-0.02,83.27,3.14,-4.09,C0F9I0
大安,24.345061,120.588025,-0.33,27.63,1.75,85.45,3.86,-2.53,C0F9K0
后里,24.310436,120.729725,0.49,28.0,2.73,84.55,4.82,-5.51,C0F9L0
豐原,24.254322,120.720692,1.4,29.05,0.16,78.73,1.86,-9.18,C0F9M0
大里,24.092464,120.701378,0.81,29.81,6.69,81.18,5.82,-6.19,C0F9N0
潭子,24.213106,120.703933,1.37,29.92,6.63,82.91,2.68,-9.22,C0F9O0
清水,24.312297,120.562242,-0.31,28.09,0.66,84.0,4.27,-1.83,C0F9P0
外埔,24.347817,120.705686,0.09,27.44,0.95,86.09,4.77,-3.61,C0F9Q0
龍井,24.184536,120.528972,0.13,28.48,-5.26,82.18,5.23,-1.55,C0F9R0
烏日,24.107058,120.624103,0.32,28.86,1.41,78.0,4.91,-4.13,C0F9S0
西屯,24.179494,120.641275,0.01,28.57,1.11,78.18,2.95,-6.33,C0F9T0
南屯,24.137006,120.637969,0.05,28.93,2.18,78.09,4.73,-4.07,C0F9U0
新社,24.200172,120.815806,0.58,25.91,-0.01,85.36,11.91,-4.44,C0F9V0
大雅(中科園區),24.21528,120.62445,-0.02,27.52,4.76,84.45,1.86,-8.2,C0F9X0
桃山,24.432739,121.303808,1.51,11.61,4.75,90.27,14.64,-2.95,C0F9Y0
雪山東峰,24.388792,121.268675,1.67,12.53,4.02,87.91,9.77,-8.8,C0F9Z0
芬園,24.015678,120.6213,-0.22,27.43,10.49,93.09,8.14,-3.02,C0G620
員林,23.946503,120.585597,2.93,30.57,-1.32,81.55,10.5,-2.58,C0G650
溪湖,23.94835,120.479122,1.07,29.16,-4.06,83.78,8.82,-0.92,C0G660
溪州,23.851589,120.499093,0.8,28.63,-3.55,79.55,9.73,-4.42,C0G720
二林,23.903325,120.376081,0.21,28.09,1.81,90.45,6.45,-6.81,C0G730
大城,23.852487,120.320935,0.2,27.99,2.75,86.27,5.59,-5.58,C0G740
福興,24.041289,120.437669,0.12,29.05,-3.29,80.55,3.27,-4.42,C0G770
秀水,24.03405,120.503869,0.4,28.99,1.57,84.91,8.55,0.15,C0G780
埔鹽,24.000394,120.431683,0.83,28.87,-5.26,81.88,4.82,-3.4,C0G800
埔心,23.947633,120.525456,1.49,30.21,0.34,81.45,10.64,-0.09,C0G810
田尾,23.901669,120.509389,0.56,28.95,3.34,88.36,11.05,-0.5,C0G820
埤頭,23.866003,120.452806,0.18,28.41,5.46,94.09,9.32,-1.15,C0G830
社頭,23.897647,120.5862,0.33,29.33,10.64,86.18,8.45,-2.86,C0G860
伸港,24.148933,120.484403,-0.1,28.35,-2.13,81.82,5.09,-1.08,C0G890
線西,24.143358,120.443536,-0.64,28.26,1.66,83.82,4.64,-6.84,C0G900
花壇,24.032076,120.549461,1.35,30.25,11.78,88.55,9.41,5.02,C0G910
埔里,23.972169,120.952425,0.45,26.12,3.79,88.45,24.91,-0.8,C0H890
草屯,23.973672,120.68085,0.18,28.28,4.2,82.64,10.5,-1.21,C0H960
昆陽,24.121322,121.273642,2.12,12.26,1.22,92.64,9.5,-8.1,C0H990
神木村,23.532742,120.843667,1.39,20.09,3.53,94.64,8.68,-19.18,C0H9A0
合歡山,24.143442,121.272547,2.29,11.32,5.98,95.27,12.36,-19.09,C0H9C0
廬山,24.033311,121.181808,1.48,20.48,0.15,87.45,12.05,-13.39,C0I010
信義,23.689694,120.851036,1.05,25.46,1.47,88.36,8.91,-13.78,C0I080
竹山,23.761225,120.688156,1.27,27.86,2.98,86.91,13.32,-3.55,C0I110
水里,23.812553,120.849792,0.6,26.73,2.04,84.55,20.86,-4.35,C0I360
魚池,23.895703,120.94135,0.46,24.75,0.25,87.0,20.41,-6.27,C0I370
集集,23.828206,120.801467,0.17,26.92,4.64,88.55,17.73,-10.67,C0I380
仁愛,24.022122,121.132206,1.22,22.44,-3.14,86.27,10.59,-21.65,C0I390
名間,23.837053,120.701447,0.0,27.16,8.36,88.64,11.18,-7.76,C0I410
國姓,24.037803,120.855072,0.44,26.68,1.22,87.55,15.86,-11.13,C0I420
南投,23.911469,120.687331,0.33,28.55,9.11,86.91,6.36,-14.26,C0I460
梅峰,24.085272,121.173572,1.59,17.23,-1.76,89.91,13.95,-19.91,C0I480
萬大林道,23.928228,121.091411,1.08,20.07,-3.39,88.64,13.41,-12.32,C0I490
小奇萊,24.131764,121.295717,2.12,12.18,0.95,92.0,6.17,-17.46,C0I530
崙背,23.75555,120.318925,0.1,27.94,2.04,88.55,8.82,-7.16,C0K250
四湖,23.630414,120.227125,0.99,28.41,0.05,85.64,7.82,-3.17,C0K280
宜梧,23.536281,120.169329,-0.08,28.35,-0.14,85.09,5.18,-4.22,C0K291
虎尾,23.719183,120.442036,0.84,28.56,9.68,88.82,11.09,-2.17,C0K330
土庫,23.679029,120.395574,-0.06,28.2,0.61,83.55,12.55,-4.3,C0K390
斗六,23.720583,120.541127,0.14,28.28,0.38,81.45,5.36,-13.91,C0K400
北港,23.573957,120.292802,0.03,28.31,-0.1,83.09,5.05,-3.87,C0K410
西螺,23.800407,120.467394,0.14,28.39,1.81,83.64,9.5,-5.04,C0K420
褒忠,23.690938,120.303634,0.12,28.04,2.23,87.09,8.32,-3.77,C0K430
二崙,23.772797,120.408944,-0.05,27.98,13.23,97.09,10.09,-6.52,C0K440
大埤,23.646074,120.431537,0.13,28.32,2.75,84.36,7.27,-10.83,C0K450
斗南,23.678734,120.478359,0.06,28.28,5.74,84.0,7.91,-12.19,C0K460
林內,23.748675,120.609642,0.27,27.74,2.37,85.18,10.14,-8.94,C0K470
莿桐,23.761192,120.502372,0.11,28.04,4.16,84.64,7.23,-10.48,C0K480
元長,23.64981,120.315024,0.09,28.38,3.12,85.09,11.0,-3.74,C0K500
水林,23.572924,120.24597,0.16,28.51,4.78,86.27,8.68,-2.3,C0K510
臺西,23.701547,120.197559,-0.16,27.92,3.42,86.55,6.59,-7.16,C0K530
蔦松,23.514319,120.229736,0.16,28.54,2.4,85.82,5.5,-3.78,C0K550
棋山,23.68645,120.603417,0.25,27.85,7.03,89.0,8.95,-15.51,C0K560
高鐵雲林,23.737456,120.417944,-0.47,27.88,2.92,87.0,9.95,0.94,C0K580
東後寮,23.369908,120.248065,0.06,28.15,3.35,88.0,10.68,1.2,C0M520
奮起湖,23.493903,120.699253,1.15,20.65,4.57,97.09,19.18,-12.32,C0M530
中埔,23.42538,120.5229,-0.27,27.58,3.63,81.73,12.09,-4.13,C0M640
朴子,23.43463,120.23902,-0.61,27.62,5.44,88.18,10.95,2.64,C0M650
溪口,23.604131,120.403569,0.04,28.1,1.51,84.18,4.5,-9.31,C0M660
大林,23.600616,120.45841,0.04,28.55,4.85,83.45,8.27,-10.47,C0M670
太保,23.455062,120.331455,-0.16,28.27,1.69,85.09,7.82,-1.81,C0M680
水上,23.419734,120.388909,0.01,28.24,2.89,84.27,12.91,2.34,C0M690
竹崎,23.526178,120.555508,-0.09,27.37,6.22,87.09,12.27,-2.2,C0M700
東石,23.458927,120.15385,-0.25,28.42,-0.65,82.73,5.5,-3.84,C0M710
番路,23.464657,120.554156,0.03,27.27,6.61,85.18,13.77,-4.1,C0M720
嘉義市東區,23.457673,120.460531,-0.16,28.67,6.93,83.82,16.41,5.11,C0M730
六腳,23.492871,120.290625,-0.07,28.33,5.25,84.55,7.86,0.02,C0M740
布袋,23.380878,120.167789,0.0,28.6,1.24,84.09,8.23,-2.07,C0M750
民雄,23.551754,120.428457,-0.17,28.44,3.83,83.73,7.14,-7.27,C0M760
嘉義梅山,23.585398,120.555587,-0.27,27.65,7.4,86.64,15.0,-4.74,C0M770
鹿草,23.41134,120.30835,0.11,28.61,4.15,85.27,12.73,1.77,C0M780
新港,23.553269,120.345728,-0.21,28.26,2.72,83.45,4.86,-6.66,C0M790
茶山,23.299075,120.664767,0.35,25.67,3.96,89.55,15.64,-12.65,C0M800
里佳,23.389125,120.716647,0.64,21.07,3.19,91.55,15.27,-20.4,C0M810
達邦,23.453994,120.749517,1.06,23.09,4.25,90.0,10.91,-20.79,C0M820
表湖,23.24186,120.64166,-0.5,23.87,4.95,90.18,11.82,-2.86,C0M850
新美,23.338017,120.683169,0.36,25.32,10.0,89.0,17.05,11.31,C0M860
北寮,23.079561,120.495008,-0.11,27.69,9.26,92.0,26.23,15.01,C0O830
王爺宮,23.222064,120.40085,2.09,29.74,-1.93,81.09,17.18,5.31,C0O840
大內,23.11885,120.36083,0.73,29.5,5.9,87.55,18.86,9.07,C0O860
善化,23.112883,120.297219,0.91,28.57,9.48,92.91,17.82,3.69,C0O900
崎頂,22.959547,120.369317,0.86,28.66,4.49,88.64,15.64,5.21,C0O960
虎頭埤,23.021375,120.347878,0.0,27.96,0.15,83.55,20.82,8.48,C0O970
新市,23.061614,120.298197,0.66,29.25,-0.37,83.18,17.45,8.42,C0O980
媽廟,22.99175,120.293525,0.36,28.97,3.6,86.0,14.64,2.98,C0O990
尾寮山,22.833111,120.683889,1.67,23.05,3.61,95.91,24.82,-9.8,C0R100
阿禮,22.742908,120.743678,0.54,22.85,-0.31,85.91,10.77,-5.97,C0R130
瑪家,22.682903,120.686639,-0.45,23.78,14.05,97.91,16.14,-8.35,C0R140
三地門,22.709889,120.639944,1.16,28.61,3.47,81.0,16.36,-8.64,C0R150
鹽埔,22.739558,120.530778,0.37,28.66,1.66,87.91,12.36,0.3,C0R160
赤山,22.592333,120.614306,0.23,28.74,8.48,91.0,13.05,-3.26,C0R190
潮州,22.534361,120.54,1.12,29.15,4.02,81.45,13.45,-5.32,C0R220
來義,22.527306,120.625111,-0.52,27.46,10.53,91.45,13.45,-1.08,C0R240
春日,22.370361,120.628306,-1.18,27.35,7.85,87.27,16.59,6.87,C0R260
琉球嶼,22.332244,120.362236,1.03,28.88,-2.53,83.0,6.82,-4.46,C0R270
車城,22.0744,120.716247,0.07,28.8,2.39,85.55,12.18,7.99,C0R320
牡丹,22.130036,120.792639,-0.05,26.65,9.62,95.0,15.36,6.29,C0R341
貓鼻頭,21.921774,120.7358,0.83,28.62,0.0,85.0,12.23,1.99,C0R350
大漢山,22.405264,120.753181,0.82,18.65,3.67,98.36,36.41,16.99,C0R440
高樹,22.826389,120.600806,-0.17,28.43,2.22,79.09,16.41,1.99,C0R470
長治,22.693128,120.542622,0.78,29.53,3.13,82.82,14.18,1.22,C0R480
九如,22.7405,120.490503,0.76,29.38,-0.46,81.82,13.41,0.93,C0R490
崁頂,22.514781,120.506914,-0.13,28.83,3.35,85.27,10.45,-1.55,C0R520
佳冬,22.419456,120.552375,0.03,28.87,2.83,83.73,14.05,3.74,C0R540
新埤,22.467947,120.582894,0.02,28.65,-2.3,80.18,15.91,5.68,C0R550
新園,22.5434,120.461558,1.01,29.86,-4.23,78.55,12.73,1.24,C0R560
麟洛,22.65078,120.52719,0.92,29.87,5.64,84.64,14.82,3.49,C0R570
南州,22.48591,120.50274,-0.12,28.62,7.77,87.91,11.32,1.15,C0R580
里港,22.77919,120.49459,0.22,28.67,4.6,85.73,12.5,1.13,C0R590
舊泰武,22.588194,120.664944,-0.18,24.22,7.4,91.36,20.86,-1.87,C0R600
墾雷,21.900836,120.855269,-0.75,28.15,10.58,94.0,16.23,13.34,C0R620
東港,22.46247,120.44074,-0.0,28.97,1.22,85.18,11.77,8.63,C0R640
竹田,22.58486,120.54344,-0.04,29.05,0.61,82.45,12.77,5.48,C0R650
枋寮,22.367722,120.590647,0.0,28.76,9.56,87.64,13.82,11.97,C0R660
楓港,22.190131,120.692156,-0.5,28.28,1.52,80.91,16.59,13.55,C0R670
佳樂水,21.993578,120.861633,-0.69,28.38,7.97,88.27,10.86,8.44,C0R680
墾丁,21.966756,120.810269,-0.11,26.83,2.9,91.82,11.45,8.76,C0R690
枋山,22.246844,120.661086,0.7,29.04,0.41,80.64,46.5,44.46,C0R700
龍磐,21.931672,120.838942,-0.71,27.65,5.63,91.09,13.14,11.52,C0R710
旭海,22.205403,120.887614,-0.73,26.85,7.38,88.0,12.32,6.82,C0R720
大坪頂,22.024633,120.69355,-0.15,27.64,6.62,94.0,7.95,6.3,C0R730
四林格山,22.076989,120.802439,0.04,24.7,1.82,96.82,17.45,3.57,C0R750
南仁湖,22.084681,120.863353,-0.77,25.55,12.4,98.09,19.64,4.41,C0R760
保力,22.071122,120.764111,0.25,27.55,2.58,89.27,14.0,5.08,C0R770
滿州,22.024403,120.839892,-0.41,27.93,4.87,86.18,10.68,5.3,C0R780
九棚,22.14195,120.889281,-1.0,27.69,10.24,86.7,8.59,-1.37,C0R790
丹路,22.204481,120.750989,0.2,27.86,3.13,85.82,25.5,17.04,C0R800
內獅,22.305064,120.642986,0.15,28.94,19.6,95.91,20.91,18.14,C0R810
白鷺,22.454275,120.666219,0.28,25.48,6.93,89.55,25.95,23.03,C0R820
高士,22.121825,120.836781,-0.67,25.43,9.88,94.73,16.77,2.5,C0R830
牡丹池山,22.168389,120.841225,-0.58,24.55,9.91,96.91,17.0,5.5,C0R840
下馬,23.150427,121.070312,1.01,24.38,6.3,87.64,8.77,6.92,C0S660
太麻里,22.60902,120.98533,0.86,24.82,10.25,94.2,4.95,-4.01,C0S690
知本,22.684866,121.005642,1.45,25.57,7.58,92.73,20.23,10.75,C0S700
鹿野,22.917711,121.122994,1.51,25.98,6.84,91.09,10.86,3.09,C0S710
綠島,22.6672,121.47533,1.17,27.93,-0.3,86.55,7.27,2.34,C0S730
池上,23.119628,121.209469,1.35,26.51,3.81,89.91,10.45,4.71,C0S740
向陽,23.248397,120.986133,1.81,16.75,14.94,93.09,12.59,-8.3,C0S750
大溪山,22.478475,120.943325,1.19,25.84,4.13,90.73,8.86,-2.82,C0S770
金崙,22.538122,120.966875,1.46,27.77,4.26,85.36,7.14,-1.75,C0S790
東河,22.972672,121.303986,0.28,27.82,4.49,90.64,9.64,2.72,C0S810
長濱,23.286817,121.411975,1.03,26.79,4.8,89.55,14.23,8.31,C0S830
南田,22.279725,120.889208,0.98,28.55,1.22,81.27,12.68,0.62,C0S840
關山,23.0395,121.175017,0.45,27.03,5.08,89.73,9.36,2.93,C0S890
蘭嶼高中,22.04909,121.51214,-0.64,28.69,8.9,88.36,14.59,12.61,C0S900
蘭嶼燈塔,22.081197,121.503117,-0.55,27.2,10.63,94.09,17.59,16.09,C0S910
金峰嘉蘭,22.594789,120.960825,-0.32,27.84,8.18,86.18,12.45,5.55,C0S920
延平,22.902581,121.084058,-0.35,26.73,11.22,87.91,12.0,9.38,C0S930
石寧山,23.223772,121.406639,-0.3,27.83,6.41,89.18,17.68,16.07,C0S940
七塊厝,22.954453,121.229922,0.46,26.55,-0.35,86.73,9.95,-0.03,C0S950
香蘭,22.587569,120.993375,-0.06,28.58,12.78,87.55,10.86,6.79,C0S960
加津林,22.416211,120.926942,0.13,28.4,6.1,83.64,9.45,5.53,C0S970
勝林山,22.430439,120.8938,-1.22,22.91,11.45,94.91,13.36,7.94,C0S980
山豬窟,22.318619,120.857372,-1.09,25.95,11.64,89.64,14.82,9.95,C0S990
歷坵,22.520969,120.89185,0.35,25.65,4.24,91.09,10.5,5.52,C0SA00
檳榔四格山,22.810031,121.109308,-0.49,25.75,9.48,93.09,8.36,5.77,C0SA10
金崙山,22.567419,120.959667,0.27,24.03,4.51,90.82,14.68,9.1,C0SA20
都歷,23.020333,121.323642,-0.3,27.68,4.0,84.0,8.45,1.8,C0SA30
瑞和,22.974361,121.156697,-0.34,27.03,5.64,86.64,10.14,5.08,C0SA40
知本（水試所）,22.702394,121.082761,-0.27,28.2,8.15,87.45,8.55,6.2,C0SA60
土坂,22.453108,120.887572,0.29,27.98,8.81,86.27,10.82,3.51,C0SA80
達仁林場,22.264347,120.823972,-0.64,25.13,12.01,93.09,21.14,8.17,C0SA90
大禹嶺,24.186117,121.316086,1.6,14.16,4.24,89.55,9.82,-4.24,C0T790
天祥,24.179597,121.495639,1.41,24.63,4.15,86.64,6.32,0.18,C0T820
鯉魚潭,23.935639,121.508944,0.93,25.95,1.41,91.09,10.73,2.83,C0T870
西林,23.8119,121.441458,0.99,26.77,8.21,89.55,7.5,-0.99,C0T900
光復,23.660694,121.424964,1.73,27.5,-1.63,86.82,7.73,-0.3,C0T960
月眉山,23.809928,121.539828,1.74,25.2,-0.47,93.09,4.59,-2.2,C0T9A0
水源,23.991861,121.537169,1.28,24.28,0.88,93.18,13.68,5.7,C0T9B0
和中,24.26676,121.74103,1.11,27.44,10.18,100.0,10.41,0.9,C0T9D0
大坑,23.880628,121.581981,1.37,25.46,4.2,93.09,12.09,3.79,C0T9E0
水璉,23.797131,121.542514,0.95,26.53,4.36,91.64,4.23,-2.85,C0T9F0
鳳林山,23.735269,121.420131,0.45,24.46,1.99,94.82,10.68,1.18,C0T9G0
加路蘭山,23.682947,121.5274,1.75,24.65,5.21,98.64,5.73,-3.09,C0T9H0
豐濱,23.583897,121.514806,1.57,26.88,-3.12,87.18,5.0,-2.64,C0T9I0
靜浦,23.455167,121.495028,1.24,27.2,6.99,94.09,9.95,4.12,C0T9M0
富里,23.171639,121.249378,-0.13,26.97,17.36,99.36,6.09,3.82,C0T9N0
雙連埤,24.753033,121.641303,0.15,23.45,-1.8,93.82,4.73,-8.21,C0U520
礁溪,24.817539,121.765608,1.29,27.32,-3.16,84.64,3.18,-8.31,C0U600
玉蘭,24.675286,121.587061,1.42,25.23,-2.0,85.0,9.27,-3.17,C0U650
太平山,24.505486,121.525656,1.69,18.29,1.6,94.64,7.36,-4.52,C0U710
南山,24.43742,121.38167,0.54,21.88,-2.9,88.0,5.82,-1.02,C0U720
龜山島,24.841667,121.953133,0.04,24.25,-0.7,94.09,2.27,-3.29,C0U750
東澳,24.52196,121.83318,1.23,27.63,-4.9,83.82,4.59,-6.54,C0U760
南澳,24.44935,121.81022,0.69,27.34,0.91,88.09,0.55,-7.24,C0U770
五結,24.68637,121.79794,0.08,27.32,-1.9,84.0,3.0,-4.16,C0U780
頭城,24.85323,121.8308,0.01,27.21,-0.82,89.0,3.41,-6.13,C0U860
大礁溪,24.791042,121.675047,0.23,24.57,6.14,94.09,5.68,-4.2,C0U870
三星,24.66812,121.65302,0.29,26.66,-6.24,83.27,4.41,-2.44,C0U890
內城,24.71813,121.68766,0.76,27.25,-2.75,85.64,4.73,-4.25,C0U900
冬山,24.63373,121.7937,0.82,27.73,-1.08,81.0,6.36,-2.53,C0U910
羅東,24.68184,121.74934,0.91,27.73,-0.4,83.91,2.86,-4.96,C0U940
鶯子嶺,24.89754,121.79244,0.65,21.51,-1.53,94.73,8.32,-3.31,C0U950
翠峰湖,24.510856,121.608044,1.31,18.16,2.01,94.55,11.55,3.25,C0U960
大福,24.80064,121.81389,0.02,26.76,1.65,86.0,2.82,-5.93,C0U970
坪林石牌,24.86478,121.77396,0.46,23.85,1.9,95.82,5.77,-5.46,C0U980
員山,24.74435,121.72247,0.31,27.27,2.59,87.0,3.91,-5.03,C0U990
土場,24.576533,121.495333,0.2,25.32,-3.38,86.55,4.86,-1.88,C0UA00
鴛鴦湖,24.590269,121.412228,0.99,18.73,3.27,97.27,19.14,9.01,C0UA10
白嶺,24.527819,121.519031,0.9,20.84,-1.1,93.82,10.68,1.44,C0UA30
西德山,24.560647,121.752608,0.84,21.75,1.82,95.0,6.73,-0.67,C0UA40
西帽山,24.555361,121.802628,0.61,23.12,-4.15,89.55,7.41,-2.35,C0UA50
樟樹山,24.41393,121.78325,0.7,24.87,2.03,88.8,1.45,-4.4,C0UA60
桃源谷,24.962606,121.888875,0.42,23.95,0.12,96.45,7.59,-2.96,C0UA70
復興,23.222403,120.806089,1.1,24.94,4.66,86.18,8.86,-11.82,C0V210
溪埔,22.738578,120.446797,0.17,28.59,6.41,87.91,13.05,1.53,C0V350
內門,22.975481,120.466769,1.24,28.72,3.79,86.91,31.14,16.76,C0V360
古亭坑,22.893178,120.401947,-0.04,26.98,7.55,92.0,34.1,16.09,C0V370
阿公店,22.804194,120.355528,-0.08,28.24,4.41,87.09,12.45,2.22,C0V400
鳳山,22.646653,120.356122,-0.56,28.5,11.43,88.27,1.25,-7.82,C0V440
鳳森,22.545064,120.392592,-0.03,28.52,1.41,84.27,12.73,1.68,C0V450
新興,22.627422,120.298803,0.36,29.33,0.3,79.82,15.32,5.05,C0V490
阿蓮,22.883208,120.327508,-0.03,28.85,4.97,85.27,15.1,3.43,C0V530
梓官,22.760558,120.267211,-0.15,28.86,2.69,83.36,12.91,2.5,C0V610
永安,22.82315,120.236856,-0.13,28.71,0.23,83.91,10.68,0.06,C0V620
茄萣,22.906642,120.182608,0.31,29.31,5.98,84.36,18.41,8.73,C0V630
湖內,22.887139,120.2445,-0.46,28.41,2.7,83.27,13.82,3.87,C0V640
彌陀,22.783806,120.246361,0.1,28.9,0.98,85.91,11.95,1.56,C0V650
岡山,22.797078,120.294958,0.33,29.65,3.87,82.36,15.14,3.81,C0V660
仁武,22.701083,120.347722,0.15,29.62,3.77,82.27,13.05,1.97,C0V680
鼓山,22.623325,120.275575,-0.18,28.88,2.86,83.91,14.23,5.96,C0V690
三民,22.645017,120.311233,-0.17,29.44,6.19,79.18,15.36,6.19,C0V700
苓雅,22.622742,120.330669,0.2,29.54,11.56,84.11,16.67,8.08,C0V710
林園,22.507747,120.394511,0.33,29.89,6.38,83.09,12.27,2.01,C0V720
大寮,22.605614,120.395717,-0.36,28.94,9.92,86.73,13.05,3.41,C0V730
旗山,22.888614,120.483597,1.09,29.35,1.82,80.91,25.27,13.23,C0V740
路竹,22.854997,120.259439,0.51,29.61,2.29,81.36,13.41,0.14,C0V750
橋頭,22.757806,120.30575,0.38,29.66,-0.98,78.82,13.23,3.59,C0V760
大社,22.730306,120.346639,0.27,29.55,7.07,83.82,14.14,3.85,C0V770
萬山,22.905944,120.688056,0.86,26.63,6.86,88.18,13.0,-4.76,C0V790
六龜,22.997889,120.633583,0.46,27.58,6.08,85.18,20.77,0.45,C0V800
左營,22.67491,120.28491,-0.33,28.67,2.64,82.91,13.82,1.64,C0V810
小林,23.148408,120.63325,0.31,26.09,9.99,90.18,14.91,0.95,C0V820
東莒,25.9652,119.98069,0.54,24.97,-1.09,87.44,2.82,-5.56,C0W110
西嶼,23.5626,119.468436,0.4,26.62,-0.56,92.44,21.33,17.26,C0W120
花嶼,23.40007,119.32276,0.51,27.07,0.97,90.82,6.09,1.46,C0W130
金沙,24.488292,118.408778,0.28,26.7,-3.78,83.18,0.77,-2.89,C0W140
金寧,24.457703,118.328989,-0.58,26.6,-6.37,82.09,0.5,-3.42,C0W150
東河,23.296598,120.385608,-0.35,28.11,2.3,83.82,14.5,3.25,C0X050
下營,23.22695,120.256261,0.18,28.59,-0.32,82.55,10.59,-0.64,C0X060
佳里,23.173039,120.145086,0.95,28.86,5.25,89.45,17.36,5.28,C0X080
臺南市北區,23.010394,120.194228,-0.19,29.35,8.73,83.45,12.0,2.73,C0X100
臺南市南區,22.961189,120.188378,-0.05,29.22,4.09,84.64,14.18,5.31,C0X110
麻豆,23.183289,120.248611,0.45,29.49,3.88,85.91,12.55,2.72,C0X120
官田,23.193217,120.315422,0.02,28.93,11.36,90.45,11.95,2.73,C0X130
西港,23.125608,120.203108,-0.35,28.85,2.77,82.09,16.5,8.05,C0X140
安定,23.102614,120.227839,0.11,29.12,6.17,86.82,21.18,13.15,C0X150
仁德,22.968258,120.257689,0.31,29.33,5.28,84.09,14.45,4.33,C0X160
關廟,22.963017,120.327797,-0.12,29.04,10.33,85.64,14.5,2.6,C0X170
山上,23.0757,120.363253,0.12,28.47,4.18,85.0,18.5,8.0,C0X180
安平,22.993161,120.152181,-0.07,29.06,-0.77,81.55,12.95,4.33,C0X190
左鎮,23.056758,120.408522,0.99,28.79,0.97,85.09,21.55,10.11,C0X200
白河,23.347466,120.414427,-0.22,28.12,5.74,85.73,13.18,1.68,C0X210
學甲,23.230367,120.182187,0.0,28.49,4.95,84.45,11.14,4.5,C0X220
鹽水,23.272621,120.247641,-0.11,28.23,3.71,85.91,8.95,0.41,C0X230
關子嶺,23.331169,120.508025,-0.02,26.0,7.36,91.64,25.73,5.58,C0X240
新營,23.310689,120.316681,-0.34,28.65,5.84,83.55,12.32,2.63,C0X250
後壁,23.366358,120.362326,-0.07,28.4,3.29,83.82,9.86,0.94,C0X260
將軍,23.214999,120.13577,-0.03,28.4,3.3,85.18,10.59,2.42,C0X280
北門,23.267772,120.125481,-0.02,28.49,-0.08,84.91,10.18,3.08,C0X290
鹿寮,23.386047,120.477331,-0.11,27.53,2.68,87.0,13.95,1.25,C0X300
柳營,23.253328,120.375253,-0.24,28.12,7.8,86.18,12.68,10.26,C0X320
明里,23.208717,121.262342,0.65,26.59,2.12,91.45,7.64,0.62,C0Z020
佳心,23.34567,121.21316,1.38,23.21,11.58,97.09,14.36,6.92,C0Z050
玉里,23.3215,121.339656,1.39,27.56,5.92,95.0,13.36,5.3,C0Z061
舞鶴,23.46811,121.37407,1.82,26.65,8.38,99.64,14.95,9.2,C0Z070
富源,23.587642,121.378225,1.18,26.72,-0.09,89.73,10.59,0.54,C0Z080
東華,23.89525,121.549833,0.94,27.93,2.7,88.64,1.23,-3.62,C0Z100
吉安光華,23.930925,121.595153,0.42,27.32,-2.06,85.36,11.0,5.7,C0Z150
鳳林,23.746114,121.453411,0.36,26.95,-0.55,83.73,7.05,-2.91,C0Z160
卓溪,23.3443,121.3029,0.03,27.21,0.28,82.45,16.59,10.03,C0Z170
新城,24.040486,121.604878,0.44,27.42,14.89,98.64,7.27,0.94,C0Z180
富世,24.14743,121.6297,0.17,27.23,0.07,87.64,13.73,5.68,C0Z190
萬榮,23.709219,121.420106,0.62,26.84,-2.05,85.18,7.27,-1.53,C0Z200
瑞穗,23.5239,121.39021,1.1,27.45,1.58,87.91,10.23,4.41,C0Z210
和平林道,24.343922,121.656317,0.41,24.39,-3.29,89.09,6.59,3.07,C0Z220
和平,24.30717,121.77007,-0.57,26.6,-0.75,83.64,8.0,0.91,C0Z230
瑞穗林道,23.49284,121.30688,0.65,21.99,4.04,98.27,13.41,4.09,C0Z250
蕃薯寮,23.73835,121.540108,0.52,25.63,-2.34,90.27,4.41,-3.81,C0Z270
德武,23.47426,121.41071,0.75,26.93,0.94,88.45,16.82,12.55,C0Z280
赤柯山,23.36893,121.38293,0.78,23.08,1.57,92.55,14.5,10.09,C0Z290
東里,23.26853,121.30547,0.6,27.3,-1.81,85.91,15.27,11.89,C0Z300
清水斷崖,24.218294,121.689142,-0.17,26.66,-1.41,88.36,8.59,-0.29,C0Z310
清水林道,23.27125,121.188272,0.55,24.57,1.99,87.09,13.32,8.22,C0Z320
安通山,23.290728,121.348528,0.28,25.38,5.59,91.36,14.86,12.57,C0Z330
口湖工作站,23.589978,120.180394,0.14,28.13,1.94,79.82,5.09,1.38,12J990
東港工作站,22.479997,120.466058,-0.05,29.03,2.79,72.36,9.68,6.07,12Q970
恆春工作站,22.079678,120.714425,1.0,28.75,-4.77,79.73,11.05,-24.8,12Q980
萬大發電廠,23.978875,121.139639,1.62,23.02,-8.31,83.45,10.82,-6.29,42HA10
桃改樹林分場,24.944503,121.386972,-0.76,27.09,0.99,81.45,8.14,6.44,72AI40
桃園農改場,24.950944,121.030583,0.96,27.32,3.02,87.36,2.27,-9.0,72C440
桃改五峰分場,24.612194,121.157167,1.53,22.7,3.9,92.64,2.06,-10.24,72D080
臺中農改場,24.003028,120.534389,0.86,28.12,5.58,89.36,11.77,0.95,72G600
中改埔里分場,23.903208,120.963364,1.09,24.46,1.39,92.27,18.5,-7.29,72HA00
南改斗南分場,23.634556,120.477333,1.15,28.52,2.4,86.0,4.82,-8.84,72K220
南改義竹分場,23.360694,120.279361,0.43,28.11,-1.94,84.27,10.59,-1.14,72M360
南改鹿草分場,23.416869,120.283061,0.15,28.27,5.15,87.91,8.55,-1.13,72M700
臺南農改場,23.0605,120.342194,0.54,28.21,5.93,89.18,18.64,8.32,72N100
七股研究中心,23.081672,120.062894,0.23,28.87,3.04,86.0,18.45,10.86,72N240
高雄農改場,22.709333,120.525889,0.58,28.68,7.03,88.0,13.77,-5.78,72Q010
東改班鳩分場,22.829528,121.077694,0.9,26.43,1.74,86.6,5.0,-3.0,72S200
東改賓朗果園,22.813889,121.071278,-25.64,-0.5,-2.45,88.0,9.32,1.67,72S590
花蓮農改場,23.975222,121.563889,1.44,27.43,-1.04,84.0,12.86,6.24,72T250
花改蘭陽分場,24.686306,121.716583,1.32,27.26,-1.85,84.91,3.36,-5.33,72U480
高改旗南分場,22.857861,120.516667,-0.33,28.16,9.27,86.18,5.86,-13.95,72V140
茶改北部分場,24.955778,121.631222,1.72,25.2,1.18,87.73,4.23,-11.6,82A750
茶改場,24.908472,121.185333,0.84,26.61,0.22,84.27,2.55,-9.36,82C160
茶改中部分場,23.875611,120.913583,0.12,23.0,3.87,93.2,25.0,3.49,82H320
茶改南部分場,23.762528,120.7405,0.32,25.53,2.52,91.09,0.0,-19.73,82H840
茶改東部分場,22.907694,121.130139,0.64,26.98,2.95,87.0,11.0,3.25,82S580
農工中心,24.985917,121.239833,1.17,27.3,5.9,82.27,2.95,-7.42,A2C560
水試臺西試驗場,23.717231,120.190522,0.26,28.3,6.3,90.36,0.0,-5.89,A2K360
臺大雲林校區,23.730628,120.423903,0.13,27.87,3.69,87.0,9.86,4.9,A2K630
臺南蘭花園區,23.340258,120.379661,0.26,28.12,4.66,88.27,9.59,5.17,A2N290
畜產試驗所,23.058972,120.336406,0.33,27.85,4.01,88.64,18.91,2.39,B2N890
畜試南區分所,21.945583,120.802167,0.07,28.04,0.06,83.27,12.73,2.67,B2Q810
畜試東區分所,24.669039,121.832561,0.09,27.33,5.14,90.91,4.59,-0.95,B2U990
蓮華池,23.918333,120.885278,-0.12,24.23,6.75,91.09,26.0,5.43,E2H360
林試畢祿溪站,24.226944,121.308522,0.6,16.28,11.15,90.82,7.36,6.92,E2HA20
四湖植物園,23.676986,120.163433,0.27,28.15,8.85,96.45,7.45,-1.11,E2K600
林試六龜中心,22.991703,120.645722,-0.24,26.62,12.6,89.91,19.27,17.47,E2P980
林試太麻里2,22.598,120.99775,0.05,28.2,5.19,82.73,0.69,-2.85,E2S960
林試太麻里1,22.598922,120.980044,0.13,27.77,6.68,84.91,11.41,6.72,E2S980
農試所(霧峰),24.031261,120.688133,1.9,29.1,5.58,89.2,12.36,-1.2,G2F820
農試嘉義分所,23.485028,120.473806,0.3,27.73,6.16,87.36,20.91,11.17,G2L020
農試溪口農場,23.58565,120.408111,1.03,28.26,2.21,85.36,4.91,-1.7,G2M350
農試鳳山分所,22.646611,120.356083,0.14,28.62,5.2,83.64,11.73,-2.98,G2P820
苗栗農改場,24.495722,120.829111,0.44,27.24,3.82,83.91,3.91,-8.11,K2E360
苗改生物防治研究中心,24.422861,120.871833,0.04,26.06,3.42,85.55,4.68,-2.29,K2E710
種苗改良場,24.225972,120.800917,1.04,25.95,10.37,92.64,8.0,-11.48,K2F750
臺大和社,23.590856,120.888864,2.33,24.44,0.7,89.82,6.45,-6.07,U2HA30
臺大內茅埔,23.689722,120.851117,1.43,25.4,0.41,87.73,7.14,-7.82,U2HA40
臺大竹山,23.756972,120.681556,0.32,27.52,4.26,85.18,13.55,-2.85,U2HA50
