站名,緯度,經度,平均溫距平,本年度平均溫,平均溼度距平,本年度日均相對溼度,本年度日均降水量,日均降水量距平,站號
淡水,25.164889,121.448906,0.94,25.63,-0.2,78.83,6.17,-2.45,466900
鞍部,25.182586,121.529731,0.43,19.98,3.21,90.65,6.97,-4.57,466910
臺北,25.037658,121.514853,1.07,26.63,-2.16,72.87,13.12,4.68,466920
竹子湖,25.162078,121.544547,0.7,21.83,1.63,85.96,7.46,-1.97,466930
基隆,25.133314,121.740475,1.05,25.72,0.34,77.22,9.96,-0.05,466940
花蓮,23.975128,121.613275,0.29,25.45,2.55,82.7,9.91,3.98,466990
新屋,25.006725,121.047492,0.74,25.7,-1.97,81.39,7.2,-3.84,467050
宜蘭,24.763975,121.756528,0.53,25.17,1.86,83.48,5.66,-1.59,467080
金門,24.407306,118.289281,1.31,24.27,4.67,87.78,3.59,-2.78,467110
田中,23.873803,120.581286,-0.32,27.1,-5.48,76.61,4.23,-3.74,467270
澎湖,23.565503,119.563094,0.74,26.56,-1.02,81.7,1.01,-3.63,467350
臺南,22.99328,120.20492,0.77,28.3,-3.37,71.39,1.55,-4.08,467410
永康,23.038386,120.2367,1.14,28.33,-0.24,72.35,2.06,-3.59,467420
嘉義,23.495925,120.432906,0.78,27.17,-0.27,78.48,2.16,-3.72,467480
臺中,24.145736,120.684075,0.75,27.14,-1.85,73.3,5.7,-3.06,467490
阿里山,23.508208,120.813242,-0.02,13.14,-0.12,89.13,6.31,-10.9,467530
大武,22.35572,120.90374,0.72,27.42,-0.9,75.57,1.45,-3.8,467540
玉山,23.48718,120.95943,0.67,6.48,-0.24,80.74,6.11,-7.33,467550
新竹,24.827853,121.014219,1.15,26.4,-1.72,75.61,7.16,-1.42,467571
恆春,22.003897,120.746339,1.05,28.44,-0.99,74.13,1.02,-3.52,467590
成功,23.097486,121.373428,0.54,25.93,2.95,84.17,8.5,3.2,467610
日月潭,23.881325,120.90805,0.51,21.56,3.78,87.87,9.05,-2.72,467650
臺東,22.752211,121.154586,0.57,26.97,1.78,79.26,6.43,1.73,467660
馬祖,26.169467,119.923158,1.72,22.55,3.42,90.22,4.8,-0.45,467990
山佳,24.974944,121.402008,1.44,26.63,-5.2,75.57,9.8,2.89,C0A520
坪林,24.938183,121.70975,1.82,24.23,-4.31,87.48,12.87,3.92,C0A530
泰平,24.971197,121.823711,0.85,22.12,-1.69,93.3,12.8,2.41,C0A550
桶後,24.848222,121.597992,0.98,22.98,-5.48,87.39,9.07,-0.73,C0A570
石碇,24.993969,121.662917,1.17,23.92,-6.15,84.0,15.2,4.7,C0A640
大坪,25.165914,121.632969,1.7,23.89,-4.18,86.17,11.39,-1.31,C0A860
五指山,25.132153,121.608692,2.2,22.37,-4.49,89.83,10.48,1.32,C0A870
雙溪,25.036003,121.864242,1.46,24.96,-4.25,86.13,15.31,6.03,C0A890
三和,25.233153,121.595236,0.81,23.71,-4.51,87.22,10.89,-4.8,C0A931
金山,25.223628,121.643967,1.01,24.82,-6.27,80.26,10.48,0.23,C0A940
鼻頭角,25.129036,121.923372,1.81,25.68,-4.77,84.35,6.57,2.0,C0A950
三貂角,25.007606,122.002058,1.48,25.15,2.58,85.91,9.37,1.71,C0A970
社子,25.109508,121.469681,1.32,26.72,-2.03,78.3,7.48,-0.1,C0A980
天母,25.117494,121.537169,0.76,26.13,-5.56,71.3,8.28,0.96,C0A9C0
內湖,25.079422,121.57545,1.65,27.15,-4.16,74.26,11.7,4.32,C0A9F0
大屯山,25.175675,121.522408,2.2,20.44,1.65,95.65,7.61,-2.0,C0AC40
三峽,24.939025,121.369728,2.1,27.3,-4.33,77.39,9.63,0.16,C0AC60
信義,25.037822,121.564597,3.97,29.06,-6.84,74.89,13.09,3.51,C0AC70
文山,25.00235,121.575728,0.61,25.3,-5.58,78.3,13.13,3.42,C0AC80
新莊,25.051478,121.446756,0.84,26.59,-3.62,72.39,10.0,0.45,C0ACA0
八里,25.150211,121.403947,1.93,27.14,3.36,83.43,6.67,-3.35,C0AD10
蘆洲,25.086594,121.472331,1.49,27.38,-3.47,73.91,7.8,-1.22,C0AD30
土城,24.973208,121.445169,0.83,25.71,-2.66,79.3,13.15,4.23,C0AD40
鶯歌,24.951533,121.346294,2.05,27.1,-5.16,79.0,8.96,0.18,C0AD50
汐止,25.066881,121.658778,0.89,25.7,-7.46,77.57,12.72,2.5,C0AH00
永和,25.01125,121.508111,1.62,27.19,-2.65,74.91,12.65,3.36,C0AH10
五分山,25.07125,121.780794,2.16,22.04,-4.2,91.7,13.04,3.54,C0AH30
平等,25.129142,121.577086,0.41,23.47,-6.83,80.57,8.59,1.2,C0AH40
林口,25.072181,121.38084,3.37,27.31,-3.27,82.78,7.52,0.79,C0AH50
松山,25.04871,121.55042,0.72,26.7,1.35,70.91,11.76,5.25,C0AH70
深坑,25.002703,121.628328,1.77,26.16,-2.72,81.06,14.02,7.67,C0AH80
福山植物園,24.760717,121.58135,0.19,20.55,-0.13,93.13,8.02,-3.2,C0AH90
五股,25.07445,121.42728,0.42,24.52,-8.24,80.26,8.52,-1.87,C0AI00
屈尺,24.92184,121.54475,1.4,26.21,-1.87,81.83,14.26,5.4,C0AI10
白沙灣,25.283128,121.519058,1.27,25.25,2.35,82.96,5.41,-7.07,C0AI20
三重,25.057328,121.500629,0.41,27.04,-5.66,80.04,9.67,1.44,C0AI30
石牌,25.115597,121.513139,1.68,27.6,1.19,74.17,7.0,-3.27,C0AI40
七堵,25.094819,121.71713,2.22,26.44,-7.07,81.35,11.85,-1.08,C0B010
基隆嶼,25.19141,121.78391,1.22,24.85,1.97,92.39,6.87,-1.92,C0B020
復興,24.820208,121.352281,0.97,23.02,-5.29,80.61,9.78,-0.73,C0C460
桃園,24.992425,121.323172,1.38,26.51,-2.67,71.48,8.8,0.4,C0C480
八德,24.928708,121.283289,0.91,25.74,-8.11,72.7,9.43,-0.3,C0C490
觀音,25.027072,121.153317,0.7,24.92,4.8,86.0,8.89,-1.04,C0C590
蘆竹,25.084275,121.265767,1.0,25.94,-3.54,78.39,6.3,-3.21,C0C620
大溪,24.882853,121.265547,1.19,24.89,-2.26,76.48,10.11,2.57,C0C630
平鎮,24.897503,121.214636,1.45,25.06,-3.56,77.0,12.37,4.59,C0C650
楊梅,24.912375,121.143047,0.74,25.42,-2.11,76.13,9.91,0.36,C0C660
龍潭,24.870056,121.221389,1.16,24.93,-3.45,76.96,9.22,-0.14,C0C670
龜山,25.02846,121.38656,-0.08,23.88,-4.71,75.3,8.67,0.75,C0C680
中壢,24.977661,121.256375,0.83,25.78,-4.36,72.39,7.59,-0.89,C0C700
大溪永福,24.892936,121.324975,1.59,25.04,-5.48,80.87,10.85,-0.71,C0C710
梅花,24.678347,121.208558,0.49,22.46,-1.0,87.26,9.09,-0.77,C0D360
峨眉,24.6905,121.017189,0.41,24.86,0.58,88.48,9.02,-1.15,C0D430
打鐵坑,24.849664,121.150789,0.64,23.67,-3.79,82.3,6.78,-1.45,C0D480
橫山,24.71116,121.11693,0.43,23.85,9.44,95.26,5.4,-3.72,C0D540
雪霸,24.526972,121.11605,0.22,16.19,-3.57,82.26,15.91,5.44,C0D550
竹東,24.767147,121.057881,2.05,26.23,-16.62,60.0,7.91,0.06,C0D560
寶山,24.735006,121.025192,0.71,24.31,0.15,85.74,9.09,0.5,C0D580
新豐,24.87068,120.97721,0.89,24.87,3.84,86.65,9.15,-0.02,C0D590
湖口,24.904794,121.043628,0.93,25.76,-7.6,74.96,9.26,-0.16,C0D650
新竹市東區,24.798681,120.986942,0.48,25.77,-2.0,75.43,7.3,-1.5,C0D660
竹南,24.708978,120.888897,1.73,26.69,1.05,81.74,2.36,-5.41,C0E420
南庄,24.601775,121.000214,0.4,23.86,0.52,86.09,11.85,2.51,C0E430
明德,24.583486,120.885411,1.0,25.92,-4.15,80.7,7.46,-2.2,C0E550
通霄,24.471892,120.704622,0.53,25.79,-1.86,82.87,4.61,-5.09,C0E590
馬都安,24.451272,120.930192,0.62,22.04,3.0,83.96,9.22,0.81,C0E610
頭份,24.688247,120.912206,1.82,27.29,-1.32,75.22,6.8,-1.29,C0E730
造橋,24.637056,120.864778,0.3,25.84,-3.26,81.09,6.87,-3.21,C0E740
苗栗,24.564569,120.824575,0.5,26.42,-6.38,71.52,6.39,-3.43,C0E750
銅鑼,24.489681,120.790853,0.61,25.83,-5.89,77.26,6.59,-3.2,C0E780
西湖,24.562947,120.7485,0.55,25.41,-2.39,85.57,0.0,-9.51,C0E810
獅潭,24.539133,120.920042,0.22,24.63,-5.09,81.73,11.36,-0.09,C0E820
苑裡,24.439714,120.653053,0.39,26.17,-3.59,77.96,3.91,-5.71,C0E830
大河,24.618069,120.948578,-1.35,23.39,-2.23,82.78,8.91,0.54,C0E850
高鐵苗栗,24.60725,120.826094,0.26,25.91,3.88,83.36,6.61,1.25,C0E870
石岡,24.276061,120.777644,0.63,25.42,2.51,86.09,5.15,-3.99,C0F0B0
中坑,24.248517,120.903319,-0.66,20.43,-4.97,87.0,13.63,-3.22,C0F0C0
審馬陣,24.381675,121.4203,-0.07,9.66,-9.16,76.43,5.91,-1.61,C0F0D0
東勢,24.246428,120.833047,1.62,26.16,-6.17,75.65,8.07,-6.41,C0F850
大坑,24.173142,120.722289,1.39,27.63,-2.6,75.09,5.5,-6.68,C0F970
神岡,24.272481,120.658314,0.62,25.86,-9.2,75.91,3.57,-6.5,C0F9I0
大安,24.345061,120.588025,0.24,26.05,-3.66,80.83,3.07,-5.47,C0F9K0
后里,24.310436,120.729725,1.07,26.42,-7.83,76.09,4.11,-7.28,C0F9L0
豐原,24.254322,120.720692,1.94,27.58,-8.29,72.26,4.24,-8.16,C0F9M0
大里,24.092464,120.701378,0.35,27.51,4.57,80.62,9.37,-1.39,C0F9N0
潭子,24.213106,120.703933,0.46,27.0,-0.15,78.04,3.87,-8.48,C0F9O0
清水,24.312297,120.562242,0.49,26.61,-5.54,78.96,2.76,-5.59,C0F9P0
外埔,24.347817,120.705686,0.51,25.75,-4.5,81.96,3.78,-6.24,C0F9Q0
龍井,24.184536,120.528972,0.71,26.98,-10.83,76.7,2.85,-5.79,C0F9R0
烏日,24.107058,120.624103,0.54,27.21,-4.84,72.48,5.7,-3.18,C0F9S0
西屯,24.179494,120.641275,0.67,27.16,-6.81,71.57,2.89,-8.03,C0F9T0
南屯,24.137006,120.637969,0.3,27.3,-4.47,72.13,4.85,-5.16,C0F9U0
新社,24.200172,120.815806,0.71,24.37,-6.55,78.61,9.37,-6.04,C0F9V0
大雅(中科園區),24.21528,120.62445,0.27,26.06,-2.31,77.3,4.04,-2.64,C0F9X0
桃山,24.432739,121.303808,0.24,9.1,-7.3,75.17,8.11,-3.45,C0F9Y0
雪山東峰,24.388792,121.268675,0.23,9.87,-7.49,74.04,9.57,-0.22,C0F9Z0
芬園,24.015678,120.6213,-0.12,25.65,3.04,86.39,9.65,0.87,C0G620
員林,23.946503,120.585597,2.57,29.04,-8.95,74.7,6.17,-0.12,C0G650
溪湖,23.94835,120.479122,1.24,27.53,6.76,94.17,9.85,1.97,C0G660
溪州,23.851589,120.499093,0.63,26.83,-7.83,74.39,3.15,-1.38,C0G720
二林,23.903325,120.376081,0.61,26.56,-2.76,85.57,6.48,2.53,C0G730
大城,23.852487,120.320935,0.62,26.58,-1.79,80.0,4.2,-0.18,C0G740
福興,24.041289,120.437669,0.7,27.53,-7.61,75.78,3.22,-4.75,C0G770
秀水,24.03405,120.503869,1.05,27.61,-4.72,78.87,4.67,-2.53,C0G780
埔鹽,24.000394,120.431683,3.42,29.45,-6.25,80.62,2.96,-4.52,C0G800
埔心,23.947633,120.525456,3.88,30.61,-11.8,72.0,14.58,6.39,C0G810
田尾,23.901669,120.509389,0.9,27.42,-1.29,83.87,4.39,-4.2,C0G820
埤頭,23.866003,120.452806,0.77,26.91,-3.38,86.39,3.07,-4.94,C0G830
社頭,23.897647,120.5862,1.01,28.09,2.03,80.0,4.2,-4.62,C0G860
二水,23.810742,120.6173,3.02,29.6,-5.09,78.13,3.13,-5.08,C0G880
伸港,24.148933,120.484403,0.49,26.82,-7.16,76.91,2.37,-5.61,C0G890
線西,24.143358,120.443536,-0.6,26.8,-3.89,78.57,2.09,-3.81,C0G900
花壇,24.032076,120.549461,1.22,28.6,4.42,83.09,6.4,0.61,C0G910
埔里,23.972169,120.952425,0.37,24.94,-2.88,80.13,6.85,-5.27,C0H890
草屯,23.973672,120.68085,0.31,26.74,-4.08,74.74,7.35,-1.93,C0H960
昆陽,24.121322,121.273642,0.24,9.29,-7.21,81.65,6.52,-5.17,C0H990
神木村,23.532742,120.843667,0.5,18.24,-1.74,89.13,7.04,-5.99,C0H9A0
合歡山,24.143442,121.272547,1.08,8.7,-5.47,83.78,11.33,-11.39,C0H9C0
廬山,24.033311,121.181808,0.54,18.69,-4.48,81.39,10.33,-3.69,C0I010
信義,23.689694,120.851036,0.26,23.93,-4.19,81.39,6.37,-3.05,C0I080
竹山,23.761225,120.688156,0.82,26.34,-5.28,80.35,3.85,-3.32,C0I110
水里,23.812553,120.849792,0.46,25.43,-4.91,77.04,8.0,-1.92,C0I360
魚池,23.895703,120.94135,0.49,23.6,-6.92,79.61,8.76,-3.3,C0I370
集集,23.828206,120.801467,0.21,25.8,-3.36,79.83,10.17,1.81,C0I380
仁愛,24.022122,121.132206,0.52,20.53,-7.43,81.22,9.24,-7.58,C0I390
名間,23.837053,120.701447,0.05,25.87,-1.27,78.78,3.37,-2.03,C0I410
國姓,24.037803,120.855072,0.14,25.39,-4.65,79.74,11.39,-1.38,C0I420
南投,23.911469,120.687331,0.18,26.98,1.74,79.26,3.54,-2.96,C0I460
梅峰,24.085272,121.173572,0.24,14.61,-3.5,87.3,9.54,-7.85,C0I480
萬大林道,23.928228,121.091411,0.59,18.43,-8.52,81.83,15.87,1.92,C0I490
小奇萊,24.131764,121.295717,-0.06,9.24,-5.87,83.04,9.65,-16.78,C0I530
崙背,23.75555,120.318925,0.18,26.18,-2.68,82.39,2.72,-1.2,C0K250
四湖,23.630414,120.227125,0.99,27.19,-5.09,78.13,1.65,-3.05,C0K280
宜梧,23.536281,120.169329,0.85,27.15,-4.33,78.7,1.13,-4.81,C0K291
虎尾,23.719183,120.442036,1.07,27.52,-0.0,79.35,2.35,-2.93,C0K330
土庫,23.679029,120.395574,0.73,27.04,-8.07,75.13,1.35,-1.86,C0K390
斗六,23.720583,120.541127,0.52,27.05,-7.22,73.83,1.87,-1.86,C0K400
北港,23.573957,120.292802,0.71,27.18,-6.95,75.26,1.46,-3.07,C0K410
西螺,23.800407,120.467394,0.59,27.07,-5.89,76.26,2.17,-2.89,C0K420
褒忠,23.690938,120.303634,0.74,26.79,-6.16,78.09,1.91,-2.97,C0K430
二崙,23.772797,120.408944,0.63,26.8,-1.5,81.96,1.89,-1.48,C0K440
大埤,23.646074,120.431537,0.74,27.22,-6.41,75.7,1.54,-1.52,C0K450
斗南,23.678734,120.478359,0.73,27.17,-2.89,75.83,1.57,-1.73,C0K460
林內,23.748675,120.609642,0.43,26.41,-5.91,77.74,3.35,-1.19,C0K470
莿桐,23.761192,120.502372,0.55,26.75,-7.49,76.26,2.59,-1.4,C0K480
元長,23.64981,120.315024,0.79,27.2,-2.23,77.39,1.57,-2.12,C0K500
水林,23.572924,120.24597,0.93,27.43,-4.53,77.0,1.46,-2.27,C0K510
臺西,23.701547,120.197559,0.44,26.6,-1.68,79.96,2.0,-2.53,C0K530
蔦松,23.514319,120.229736,0.71,27.31,-3.08,78.65,1.48,-2.31,C0K550
棋山,23.68645,120.603417,0.52,26.7,-0.79,80.52,2.61,-2.4,C0K560
高鐵雲林,23.737456,120.417944,0.22,26.69,-5.19,79.7,1.61,-3.56,C0K580
東後寮,23.369908,120.248065,0.69,27.03,-3.28,80.22,1.96,-2.23,C0M520
奮起湖,23.493903,120.699253,0.62,19.28,-0.62,91.39,0.77,-14.24,C0M530
中埔,23.42538,120.5229,0.55,26.73,-6.38,73.78,2.2,-4.34,C0M640
朴子,23.43463,120.23902,0.08,26.5,-1.49,80.74,3.35,-0.58,C0M650
溪口,23.604131,120.403569,0.7,26.97,-6.86,76.43,1.76,-2.91,C0M660
大林,23.600616,120.45841,0.78,27.55,-5.36,73.09,2.35,-1.71,C0M670
太保,23.455062,120.331455,0.39,27.2,-5.99,75.87,5.11,0.92,C0M680
水上,23.419734,120.388909,0.63,27.12,-3.75,77.48,2.76,-1.94,C0M690
竹崎,23.526178,120.555508,0.54,26.54,-5.07,77.87,3.43,-3.84,C0M700
東石,23.458927,120.15385,0.59,27.23,-6.92,75.7,1.35,-4.09,C0M710
番路,23.464657,120.554156,0.73,26.4,-3.83,76.61,1.85,-6.49,C0M720
嘉義市東區,23.457673,120.460531,0.66,28.02,-1.56,74.3,2.96,-2.55,C0M730
六腳,23.492871,120.290625,0.64,27.13,-2.5,76.87,4.04,-1.18,C0M740
布袋,23.380878,120.167789,0.7,27.41,-6.74,75.17,1.91,-1.92,C0M750
民雄,23.551754,120.428457,0.6,27.43,-5.53,74.39,2.39,-1.42,C0M760
嘉義梅山,23.585398,120.555587,0.62,26.73,-4.68,76.96,2.41,-4.11,C0M770
鹿草,23.41134,120.30835,0.86,27.56,-4.08,76.39,3.7,-0.85,C0M780
新港,23.553269,120.345728,0.62,27.36,-4.64,75.13,2.33,-1.35,C0M790
茶山,23.299075,120.664767,0.7,25.2,-5.0,78.74,5.43,-4.88,C0M800
里佳,23.389125,120.716647,0.5,19.71,-4.74,84.04,7.09,-7.73,C0M810
達邦,23.453994,120.749517,0.67,21.87,-1.53,81.87,5.43,-7.54,C0M820
表湖,23.24186,120.64166,0.37,23.51,-6.09,81.26,3.11,-12.11,C0M850
新美,23.338017,120.683169,0.47,24.71,0.13,79.09,7.09,-10.2,C0M860
北寮,23.079561,120.495008,0.9,27.25,1.54,83.96,2.65,-6.31,C0O830
王爺宮,23.222064,120.40085,2.96,29.1,-9.8,73.52,1.43,-5.57,C0O840
大內,23.11885,120.36083,1.71,28.92,-1.42,80.96,1.2,-5.78,C0O860
善化,23.112883,120.297219,1.08,27.77,1.6,85.78,1.33,-3.56,C0O900
崎頂,22.959547,120.369317,1.79,28.07,-3.36,78.96,2.43,-5.61,C0O960
虎頭埤,23.021375,120.347878,0.79,27.31,-5.11,77.13,2.07,-4.82,C0O970
新市,23.061614,120.298197,1.6,28.64,-7.72,76.78,2.07,-4.74,C0O980
媽廟,22.99175,120.293525,0.47,27.48,-15.65,67.0,2.11,-5.45,C0O990
尾寮山,22.833111,120.683889,2.67,23.4,-0.58,89.57,8.72,-6.25,C0R100
阿禮,22.742908,120.743678,0.43,21.58,-6.44,81.39,10.61,-2.71,C0R130
瑪家,22.682903,120.686639,0.38,23.26,4.78,90.26,2.5,-12.55,C0R140
三地門,22.709889,120.639944,1.66,28.81,-9.66,67.5,1.96,-8.01,C0R150
鹽埔,22.739558,120.530778,0.89,27.99,-4.23,81.7,3.65,-5.18,C0R160
赤山,22.592333,120.614306,1.29,28.47,-1.88,81.0,1.33,-7.92,C0R190
潮州,22.534361,120.54,1.6,28.86,-7.5,72.43,0.8,-6.36,C0R220
來義,22.527306,120.625111,0.74,27.42,-0.98,79.13,0.33,-10.07,C0R240
春日,22.370361,120.628306,-0.27,27.03,-1.34,76.87,0.7,-5.87,C0R260
琉球嶼,22.332244,120.362236,1.42,28.59,-10.19,73.74,0.67,-3.71,C0R270
車城,22.0744,120.716247,0.46,28.4,-3.87,76.22,0.52,-6.64,C0R320
牡丹,22.130036,120.792639,0.21,26.21,2.34,86.17,0.41,-9.67,C0R341
貓鼻頭,21.921774,120.7358,1.15,28.01,-7.1,77.57,1.22,-3.06,C0R350
大漢山,22.405264,120.753181,0.02,17.26,-0.59,93.91,2.33,-44.32,C0R440
高樹,22.826389,120.600806,0.81,28.18,-4.79,71.83,3.04,-6.14,C0R470
長治,22.693128,120.542622,1.8,29.32,-9.41,71.78,2.98,-5.74,C0R480
九如,22.7405,120.490503,1.6,29.01,-7.92,74.17,2.0,-6.21,C0R490
崁頂,22.514781,120.506914,0.79,28.23,-6.55,76.39,0.0,-7.21,C0R520
佳冬,22.419456,120.552375,0.79,28.18,-3.96,76.96,0.26,-6.11,C0R540
新埤,22.467947,120.582894,0.86,28.1,-9.87,72.43,0.24,-6.92,C0R550
新園,22.5434,120.461558,1.85,29.28,-10.95,71.22,3.0,-4.37,C0R560
麟洛,22.65078,120.52719,2.14,29.73,-3.03,75.78,2.15,-5.43,C0R570
南州,22.48591,120.50274,0.67,27.91,-0.78,80.35,0.46,-6.31,C0R580
里港,22.77919,120.49459,0.95,28.21,-2.87,77.04,2.09,-6.32,C0R590
舊泰武,22.588194,120.664944,0.97,23.8,-4.45,82.13,0.8,-14.24,C0R600
墾雷,21.900836,120.855269,0.6,27.53,4.12,87.04,0.78,-3.18,C0R620
東港,22.46247,120.44074,1.26,28.36,-10.87,75.22,0.65,-12.64,C0R640
竹田,22.58486,120.54344,1.33,28.55,-12.56,74.52,1.65,-13.98,C0R650
枋寮,22.367722,120.590647,0.45,27.91,0.18,82.26,0.8,-15.86,C0R660
楓港,22.190131,120.692156,-0.05,27.68,-6.85,72.61,0.26,-18.26,C0R670
佳樂水,21.993578,120.861633,0.06,27.71,-2.91,79.13,0.78,-5.28,C0R680
墾丁,21.966756,120.810269,0.65,26.26,-5.98,83.43,0.61,-6.54,C0R690
枋山,22.246844,120.661086,0.75,28.27,-5.72,73.83,0.15,-17.99,C0R700
龍磐,21.931672,120.838942,0.4,27.17,-4.69,82.43,0.41,-6.19,C0R710
旭海,22.205403,120.887614,0.17,26.03,-5.13,80.91,1.76,-11.3,C0R720
大坪頂,22.024633,120.69355,0.33,27.21,2.14,85.43,0.83,-3.61,C0R730
四林格山,22.076989,120.802439,0.45,23.94,-5.34,89.87,1.93,-5.77,C0R750
南仁湖,22.084681,120.863353,-0.11,24.71,4.26,93.13,3.43,-4.9,C0R760
保力,22.071122,120.764111,0.51,27.01,-3.65,80.35,0.98,-5.67,C0R770
滿州,22.024403,120.839892,0.09,27.13,-3.13,78.91,0.91,-5.05,C0R780
九棚,22.14195,120.889281,0.35,27.28,-3.12,78.22,1.89,-6.28,C0R790
丹路,22.204481,120.750989,0.86,27.6,-6.12,75.04,0.37,-22.28,C0R800
內獅,22.305064,120.642986,0.82,28.38,12.31,91.48,0.15,-20.31,C0R810
白鷺,22.454275,120.666219,0.94,25.48,-4.28,78.3,0.26,-27.88,C0R820
高士,22.121825,120.836781,0.08,24.73,-1.61,86.26,1.89,-7.78,C0R830
牡丹池山,22.168389,120.841225,-0.07,23.73,-0.88,89.91,1.04,-12.19,C0R840
下馬,23.150427,121.070312,-0.03,22.62,3.15,86.53,2.18,-1.8,C0S660
太麻里,22.60902,120.98533,0.98,23.45,0.18,90.22,0.72,-4.06,C0S690
知本,22.684866,121.005642,1.1,23.7,-0.1,90.65,2.63,-3.65,C0S700
鹿野,22.917711,121.122994,1.16,24.16,-0.03,88.39,0.74,-3.75,C0S710
綠島,22.6672,121.47533,1.26,26.63,-8.39,82.7,5.33,0.34,C0S730
池上,23.119628,121.209469,0.76,24.49,-0.63,87.91,1.87,-1.67,C0S740
向陽,23.248397,120.986133,1.2,14.94,3.12,88.0,6.59,-3.43,C0S750
大溪山,22.478475,120.943325,0.74,24.03,-1.5,89.09,2.57,-3.55,C0S770
金崙,22.538122,120.966875,1.15,26.45,-3.52,80.48,0.61,-4.45,C0S790
東河,22.972672,121.303986,0.21,26.42,-2.94,85.43,5.26,0.56,C0S810
長濱,23.286817,121.411975,0.82,25.14,-5.13,84.96,4.2,-1.11,C0S830
南田,22.279725,120.889208,1.09,27.57,-10.21,74.96,2.26,-3.77,C0S840
關山,23.0395,121.175017,0.28,25.26,-0.74,86.26,2.43,-1.7,C0S890
蘭嶼高中,22.04909,121.51214,0.77,27.64,5.12,85.26,5.57,-1.46,C0S900
蘭嶼燈塔,22.081197,121.503117,1.06,26.28,5.85,90.3,2.87,-4.54,C0S910
金峰嘉蘭,22.594789,120.960825,0.04,26.46,-2.08,81.17,0.43,-6.59,C0S920
延平,22.902581,121.084058,-0.25,24.99,0.23,83.61,0.59,-4.34,C0S930
石寧山,23.223772,121.406639,0.26,25.85,-3.82,86.3,7.26,-0.16,C0S940
七塊厝,22.954453,121.229922,0.96,25.04,-9.54,81.71,18.09,11.48,C0S950
香蘭,22.587569,120.993375,0.37,27.19,2.1,83.3,0.61,-6.6,C0S960
加津林,22.416211,120.926942,0.19,26.97,-2.42,78.91,2.96,-6.19,C0S970
勝林山,22.430439,120.8938,-0.85,21.43,0.34,91.13,2.0,-9.32,C0S980
山豬窟,22.318619,120.857372,0.03,25.07,-3.29,81.96,2.52,-10.03,C0S990
歷坵,22.520969,120.89185,0.27,24.17,-3.29,87.04,0.78,-8.3,C0SA00
檳榔四格山,22.810031,121.109308,-0.45,23.89,1.93,91.35,1.93,-6.62,C0SA10
金崙山,22.567419,120.959667,-0.02,21.84,-1.64,90.65,1.52,-7.19,C0SA20
都歷,23.020333,121.323642,0.33,25.98,-7.5,78.71,1.64,-5.32,C0SA30
瑞和,22.974361,121.156697,-0.19,25.17,-2.99,82.93,1.57,-3.74,C0SA40
知本（水試所）,22.702394,121.082761,0.06,26.75,-1.3,82.7,3.04,-4.52,C0SA60
土坂,22.453108,120.887572,0.52,26.52,-0.43,81.57,0.78,-12.95,C0SA80
達仁林場,22.264347,120.823972,0.25,24.38,-2.04,84.96,2.48,-24.06,C0SA90
大禹嶺,24.186117,121.316086,0.14,11.75,-5.91,78.61,7.33,-1.36,C0T790
天祥,24.179597,121.495639,0.64,22.32,-0.59,84.22,2.91,-1.43,C0T820
鯉魚潭,23.935639,121.508944,0.13,23.43,0.43,91.09,7.87,0.96,C0T870
西林,23.8119,121.441458,0.86,24.59,4.97,87.35,12.17,6.25,C0T900
光復,23.660694,121.424964,0.98,25.09,-2.83,86.65,16.41,10.34,C0T960
月眉山,23.809928,121.539828,0.92,22.74,-2.23,92.65,2.55,-3.12,C0T9A0
水源,23.991861,121.537169,0.79,22.19,-2.08,90.48,13.24,4.96,C0T9B0
和中,24.26676,121.74103,0.24,24.91,9.6,99.65,23.78,15.74,C0T9D0
大坑,23.880628,121.581981,0.82,23.1,1.09,92.09,9.41,2.05,C0T9E0
水璉,23.797131,121.542514,0.38,24.29,0.93,89.7,7.78,1.58,C0T9F0
鳳林山,23.735269,121.420131,-0.07,22.23,-2.53,92.04,13.43,5.75,C0T9G0
加路蘭山,23.682947,121.5274,1.13,22.23,3.66,98.48,9.91,1.52,C0T9H0
豐濱,23.583897,121.514806,0.98,24.63,-5.61,85.96,17.02,9.3,C0T9I0
靜浦,23.455167,121.495028,0.73,25.2,-0.47,90.7,14.85,8.89,C0T9M0
富里,23.171639,121.249378,0.51,25.44,11.56,98.65,4.91,-3.33,C0T9N0
雙連埤,24.753033,121.641303,0.23,21.24,-4.31,91.0,8.28,-1.62,C0U520
礁溪,24.817539,121.765608,0.77,25.12,-5.87,82.04,6.28,-2.28,C0U600
玉蘭,24.675286,121.587061,1.11,23.05,-5.44,82.22,8.11,-0.63,C0U650
太平山,24.505486,121.525656,0.41,15.6,-0.85,92.04,7.8,0.81,C0U710
南山,24.43742,121.38167,0.23,19.23,-8.3,85.91,5.02,-1.98,C0U720
龜山島,24.841667,121.953133,0.07,22.48,-5.42,88.61,3.98,0.08,C0U750
東澳,24.52196,121.83318,0.14,24.8,-3.22,86.04,10.46,1.78,C0U760
南澳,24.44935,121.81022,-0.04,24.88,-0.03,86.17,4.91,-1.7,C0U770
五結,24.68637,121.79794,0.3,24.97,-2.63,83.26,5.0,-1.55,C0U780
頭城,24.85323,121.8308,0.46,25.27,-1.78,86.3,5.76,-1.96,C0U860
大礁溪,24.791042,121.675047,0.5,22.53,1.06,90.17,7.54,-0.96,C0U870
三星,24.66812,121.65302,0.39,24.46,-8.96,80.96,5.5,-1.45,C0U890
內城,24.71813,121.68766,0.86,25.05,-5.54,83.61,5.52,-1.1,C0U900
冬山,24.63373,121.7937,0.63,25.34,-2.58,80.0,7.2,1.14,C0U910
羅東,24.68184,121.74934,0.92,25.39,-2.71,83.13,7.43,0.79,C0U940
鶯子嶺,24.89754,121.79244,0.71,19.34,-8.86,88.35,10.67,-0.65,C0U950
翠峰湖,24.510856,121.608044,0.19,14.91,0.24,94.04,8.35,-0.51,C0U960
大福,24.80064,121.81389,0.07,24.66,-0.31,83.87,5.46,-2.24,C0U970
坪林石牌,24.86478,121.77396,0.65,21.62,1.81,93.04,9.09,-0.6,C0U980
員山,24.74435,121.72247,0.45,25.07,-0.35,84.83,5.61,-1.09,C0U990
土場,24.576533,121.495333,0.2,23.19,-4.77,83.78,5.46,-1.4,C0UA00
鴛鴦湖,24.590269,121.412228,0.19,15.96,1.69,95.35,9.63,0.42,C0UA10
白嶺,24.527819,121.519031,0.24,18.05,-2.39,92.87,7.78,-0.02,C0UA30
西德山,24.560647,121.752608,0.7,19.37,-3.07,92.0,11.13,2.0,C0UA40
西帽山,24.555361,121.802628,0.76,20.86,-8.53,86.17,17.26,6.15,C0UA50
樟樹山,24.41393,121.78325,0.43,22.15,-0.98,88.06,7.7,3.04,C0UA60
桃源谷,24.962606,121.888875,0.86,22.0,-1.58,93.78,12.65,2.62,C0UA70
復興,23.222403,120.806089,1.02,23.72,-2.59,78.78,5.0,-12.83,C0V210
溪埔,22.738578,120.446797,0.95,28.07,-1.25,77.74,2.15,-5.75,C0V350
內門,22.975481,120.466769,1.78,28.03,-3.67,78.0,1.98,-5.67,C0V360
古亭坑,22.893178,120.401947,1.12,27.6,-5.63,78.52,2.46,-4.32,C0V370
阿公店,22.804194,120.355528,0.65,27.51,-6.35,76.35,2.5,-4.45,C0V400
鳳山,22.646653,120.356122,0.56,28.27,3.29,78.61,1.87,-5.31,C0V440
鳳森,22.545064,120.392592,0.94,28.04,-6.95,75.35,4.39,-2.71,C0V450
新興,22.627422,120.298803,1.21,28.76,-7.22,71.61,1.65,-6.08,C0V490
阿蓮,22.883208,120.327508,1.59,28.9,-6.94,74.0,2.0,-5.45,C0V530
梓官,22.760558,120.267211,0.63,28.09,-4.95,75.0,2.63,-4.59,C0V610
永安,22.82315,120.236856,0.53,27.72,-6.39,76.48,4.13,-3.36,C0V620
茄萣,22.906642,120.182608,0.92,28.17,-0.7,77.74,3.48,-3.63,C0V630
湖內,22.887139,120.2445,0.26,27.5,-5.33,75.09,5.65,-1.76,C0V640
彌陀,22.783806,120.246361,1.08,28.34,-4.02,78.0,3.3,-3.74,C0V650
岡山,22.797078,120.294958,1.24,29.03,-6.42,71.74,3.74,-3.22,C0V660
仁武,22.701083,120.347722,1.15,29.01,-5.84,72.7,1.59,-5.17,C0V680
鼓山,22.623325,120.275575,0.47,28.04,-6.67,74.48,2.26,-4.13,C0V690
三民,22.645017,120.311233,0.62,28.75,-1.72,71.7,1.93,-4.94,C0V700
苓雅,22.622742,120.330669,1.39,29.26,1.61,74.7,0.02,-6.62,C0V710
林園,22.507747,120.394511,1.24,29.49,-1.77,74.04,3.26,-3.05,C0V720
大寮,22.605614,120.395717,0.75,28.62,-1.84,74.74,2.2,-4.64,C0V730
旗山,22.888614,120.483597,1.95,29.02,-5.07,72.57,1.63,-6.61,C0V740
路竹,22.854997,120.259439,1.31,28.83,-5.58,72.52,4.33,-3.34,C0V750
橋頭,22.757806,120.30575,1.19,29.05,-8.55,70.43,2.57,-4.68,C0V760
大社,22.730306,120.346639,0.79,28.62,-2.97,74.0,1.76,-5.19,C0V770
萬山,22.905944,120.688056,1.33,26.15,-3.77,75.87,6.0,-5.88,C0V790
六龜,22.997889,120.633583,1.13,27.17,-1.55,76.74,2.78,-9.63,C0V800
左營,22.67491,120.28491,0.51,27.91,-5.54,74.74,1.57,-2.66,C0V810
小林,23.148408,120.63325,1.18,25.63,-3.47,80.13,4.5,-15.27,C0V820
花嶼,23.40007,119.32276,1.05,25.87,-2.1,84.87,0.67,-2.51,C0W130
金寧,24.457703,118.328989,0.51,25.38,-3.33,79.04,0.46,-4.37,C0W150
東河,23.296598,120.385608,0.62,27.49,-7.89,73.57,1.26,-3.52,C0X050
下營,23.22695,120.256261,0.79,27.54,-5.75,75.43,1.61,-2.43,C0X060
佳里,23.173039,120.145086,0.8,27.69,-1.46,79.65,2.09,-2.28,C0X080
臺南市北區,23.010394,120.194228,0.91,28.47,-1.88,75.14,1.85,-5.16,C0X100
臺南市南區,22.961189,120.188378,0.83,28.37,-3.67,76.57,1.65,-5.84,C0X110
麻豆,23.183289,120.248611,1.53,28.69,-2.92,78.09,1.48,-5.1,C0X120
官田,23.193217,120.315422,1.15,28.27,-0.17,80.22,1.3,-5.83,C0X130
西港,23.125608,120.203108,0.63,27.93,-6.92,75.57,1.13,-5.51,C0X140
安定,23.102614,120.227839,1.23,28.25,-3.5,79.04,1.65,-5.15,C0X150
仁德,22.968258,120.257689,1.18,28.54,-2.13,77.39,2.07,-5.91,C0X160
關廟,22.963017,120.327797,0.07,27.64,1.36,77.69,1.85,-6.53,C0X170
山上,23.0757,120.363253,1.14,27.9,-3.25,78.91,2.74,-4.55,C0X180
安平,22.993161,120.152181,0.72,28.07,-12.71,69.78,2.11,-4.96,C0X190
左鎮,23.056758,120.408522,1.83,28.02,-5.16,79.35,2.26,-4.87,C0X200
白河,23.347466,120.414427,0.59,27.29,-3.63,76.17,2.78,-1.93,C0X210
學甲,23.230367,120.182187,0.91,27.57,-2.49,76.35,0.98,-4.93,C0X220
鹽水,23.272621,120.247641,0.66,27.25,-2.58,77.78,0.89,-3.25,C0X230
關子嶺,23.331169,120.508025,0.43,24.92,0.31,85.52,3.59,-4.01,C0X240
新營,23.310689,120.316681,0.77,27.85,-3.86,74.17,1.15,-4.01,C0X250
後壁,23.366358,120.362326,0.79,27.41,-5.65,75.57,1.41,-4.12,C0X260
將軍,23.214999,120.13577,0.58,27.24,-3.57,76.91,1.37,-2.73,C0X280
北門,23.267772,120.125481,0.62,27.33,-4.45,77.52,1.2,-2.9,C0X290
鹿寮,23.386047,120.477331,0.42,26.55,-3.97,79.52,5.17,-0.79,C0X300
柳營,23.253328,120.375253,0.39,27.63,-3.47,75.61,0.89,-9.78,C0X320
明里,23.208717,121.262342,0.75,24.49,-0.69,90.09,4.13,-0.85,C0Z020
佳心,23.34567,121.21316,0.66,21.06,6.65,94.83,3.89,-0.46,C0Z050
玉里,23.3215,121.339656,1.3,25.53,3.79,90.74,3.52,-1.24,C0Z061
舞鶴,23.46811,121.37407,1.05,24.33,8.6,99.13,4.57,0.11,C0Z070
富源,23.587642,121.378225,0.94,24.29,-1.34,89.61,12.3,5.68,C0Z080
東華,23.89525,121.549833,0.75,25.38,-0.33,89.22,3.78,-1.34,C0Z100
吉安光華,23.930925,121.595153,0.45,25.06,-8.58,79.65,8.11,3.38,C0Z150
鳳林,23.746114,121.453411,0.27,24.6,-2.83,83.0,10.33,5.12,C0Z160
卓溪,23.3443,121.3029,0.04,25.16,-3.06,79.48,4.22,-0.14,C0Z170
新城,24.040486,121.604878,0.31,25.07,13.51,97.48,14.98,9.48,C0Z180
富世,24.14743,121.6297,0.44,25.18,-3.71,83.91,13.57,8.4,C0Z190
萬榮,23.709219,121.420106,0.54,24.53,-3.77,84.57,12.61,7.77,C0Z200
瑞穗,23.5239,121.39021,0.75,25.03,0.64,87.48,7.72,2.5,C0Z210
和平林道,24.343922,121.656317,0.09,21.83,-5.11,87.7,3.69,-0.47,C0Z220
和平,24.30717,121.77007,-0.51,24.4,-2.72,80.39,13.17,9.43,C0Z230
瑞穗林道,23.49284,121.30688,0.32,19.6,1.73,97.22,10.96,2.77,C0Z250
蕃薯寮,23.73835,121.540108,0.58,23.35,-4.0,89.09,11.7,7.04,C0Z270
德武,23.47426,121.41071,0.43,24.54,-0.38,88.22,3.85,-0.11,C0Z280
赤柯山,23.36893,121.38293,0.68,20.82,-2.0,90.74,5.09,0.09,C0Z290
東里,23.26853,121.30547,0.61,25.19,-4.23,84.48,3.02,-1.89,C0Z300
清水斷崖,24.218294,121.689142,-0.03,24.53,-3.83,85.43,17.48,11.01,C0Z310
清水林道,23.27125,121.188272,0.73,22.38,-2.98,85.39,2.75,-2.45,C0Z320
安通山,23.290728,121.348528,0.33,23.26,1.99,89.83,3.11,-1.56,C0Z330
口湖工作站,23.589978,120.180394,1.44,26.96,-4.29,73.09,1.3,-4.86,12J990
東港工作站,22.479997,120.466058,1.26,28.43,-7.4,65.45,0.66,-11.41,12Q970
恆春工作站,22.079678,120.714425,2.01,28.27,-1.32,71.59,0.55,-1.96,12Q980
萬大發電廠,23.978875,121.139639,0.49,21.3,-10.13,79.59,13.0,-5.73,42HA10
桃改樹林分場,24.944503,121.386972,0.1,25.77,-6.72,74.32,10.39,-2.28,72AI40
桃園農改場,24.950944,121.030583,1.27,25.82,-3.56,80.86,9.66,1.92,72C440
桃改五峰分場,24.612194,121.157167,1.0,20.65,-1.03,88.09,9.32,0.07,72D080
臺中農改場,24.003028,120.534389,0.74,26.61,2.28,84.82,7.84,1.87,72G600
中改埔里分場,23.903208,120.963364,0.71,23.03,-4.31,86.77,8.66,-12.61,72HA00
南改斗南分場,23.634556,120.477333,1.27,27.37,-3.46,79.14,0.66,-5.88,72K220
南改義竹分場,23.360694,120.279361,0.86,27.15,-7.5,77.27,1.93,-3.24,72M360
南改鹿草分場,23.416869,120.283061,1.34,27.05,-3.66,81.32,5.18,-1.4,72M700
臺南農改場,23.0605,120.342194,0.77,27.5,-0.31,80.64,0.73,-5.28,72N100
七股研究中心,23.081672,120.062894,1.32,27.8,-4.16,78.82,2.32,-6.42,72N240
高雄農改場,22.709333,120.525889,0.99,28.53,-0.9,76.91,4.27,-1.82,72Q010
東改班鳩分場,22.829528,121.077694,0.7,24.76,-0.05,84.5,2.12,-2.99,72S200
東改賓朗果園,22.813889,121.071278,0.8,24.47,-1.55,88.86,2.0,-3.03,72S590
花蓮農改場,23.975222,121.563889,0.84,25.2,-1.21,82.68,7.98,2.49,72T250
花改蘭陽分場,24.686306,121.716583,0.92,25.1,-2.79,82.86,6.84,0.88,72U480
高改旗南分場,22.857861,120.516667,-0.46,27.57,4.11,77.59,1.48,-4.23,72V140
茶改北部分場,24.955778,121.631222,1.26,23.26,-1.21,83.55,14.07,4.79,82A750
茶改場,24.908472,121.185333,1.19,25.05,-6.77,77.09,10.2,2.73,82C160
茶改中部分場,23.875611,120.913583,-0.35,21.68,-0.5,86.68,10.27,-1.3,82H320
茶改南部分場,23.762528,120.7405,-0.12,24.13,-3.05,84.09,10.79,4.69,82H840
茶改東部分場,22.907694,121.130139,0.32,25.4,-1.44,82.82,1.45,-2.94,82S580
農工中心,24.985917,121.239833,1.41,25.89,-1.23,74.05,9.55,1.94,A2C560
水試臺西試驗場,23.717231,120.190522,0.22,27.1,1.98,83.77,2.55,-3.22,A2K360
臺大雲林校區,23.730628,120.423903,-0.19,26.6,0.04,80.5,1.98,-4.65,A2K630
臺南蘭花園區,23.340258,120.379661,0.46,27.25,-0.62,80.55,2.14,-5.61,A2N290
畜產試驗所,23.058972,120.336406,0.72,27.35,-1.15,79.95,1.82,-3.74,B2N890
畜試南區分所,21.945583,120.802167,0.77,27.8,-4.46,74.0,0.61,-3.93,B2Q810
畜試東區分所,24.669039,121.832561,0.29,25.04,1.64,89.73,7.52,2.19,B2U990
蓮華池,23.918333,120.885278,-0.79,22.8,2.41,85.77,8.91,-2.52,E2H360
林試畢祿溪站,24.226944,121.308522,-0.64,13.95,2.68,83.82,8.05,2.66,E2HA20
四湖植物園,23.676986,120.163433,1.15,26.81,6.33,91.95,2.89,-4.89,E2K600
林試六龜中心,22.991703,120.645722,0.41,26.22,1.4,80.32,3.86,-16.89,E2P980
林試太麻里2,22.598,120.99775,0.15,26.96,-4.13,77.05,0.75,-2.77,E2S960
林試太麻里1,22.598922,120.980044,0.53,26.68,-3.0,79.0,0.82,-3.01,E2S980
農試所(霧峰),24.031261,120.688133,0.93,26.93,2.91,85.77,11.41,4.19,G2F820
農試嘉義分所,23.485028,120.473806,0.8,26.66,-1.66,79.55,2.48,-4.67,G2L020
農試溪口農場,23.58565,120.408111,2.14,27.12,-5.73,79.14,1.77,-5.14,G2M350
農試鳳山分所,22.646611,120.356083,0.56,28.42,-1.36,72.55,1.64,-4.69,G2P820
苗栗農改場,24.495722,120.829111,0.67,25.54,-1.58,79.82,8.57,1.79,K2E360
苗改生物防治研究中心,24.422861,120.871833,0.07,24.2,-3.08,81.59,8.11,-2.81,K2E710
種苗改良場,24.225972,120.800917,0.7,24.45,5.43,85.77,7.73,-3.3,K2F750
溪頭,23.670306,120.798194,2.18,20.86,-3.12,88.3,1.45,-9.86,U2H480
臺大和社,23.590856,120.888864,1.28,22.66,-3.3,85.18,4.52,-10.39,U2HA30
臺大內茅埔,23.689722,120.851117,0.76,23.97,-5.13,81.64,6.66,-6.0,U2HA40
臺大竹山,23.756972,120.681556,0.47,26.28,-3.87,77.45,4.11,-3.66,U2HA50
