站名,緯度,經度,平均溫距平,本年度平均溫,平均溼度距平,本年度日均相對溼度,本年度日均降水量,日均降水量距平,站號
淡水,25.164889,121.448906,0.02,25.0,1.59,80.58,8.72,0.32,466900
鞍部,25.182586,121.529731,-0.43,19.38,4.82,92.13,10.49,-1.0,466910
臺北,25.037658,121.514853,0.09,25.94,0.1,74.97,12.5,4.2,466920
竹子湖,25.162078,121.544547,-0.18,21.22,3.04,87.32,10.45,1.07,466930
基隆,25.133314,121.740475,0.36,25.31,1.48,78.31,11.23,1.33,466940
花蓮,23.975128,121.613275,-0.12,25.27,2.2,82.39,7.98,1.77,466990
新屋,25.006725,121.047492,-0.26,25.1,-1.06,82.42,11.12,1.66,467050
宜蘭,24.763975,121.756528,-0.2,24.68,3.2,84.77,5.72,-2.36,467080
金門,24.407306,118.289281,0.68,24.05,3.07,86.32,4.69,-1.21,467110
田中,23.873803,120.581286,-0.49,26.9,-7.41,76.66,3.4,-9.32,467270
澎湖,23.565503,119.563094,0.34,26.37,-1.48,81.39,1.49,-2.79,467350
臺南,22.99328,120.20492,0.43,28.14,-3.45,71.45,2.3,-3.37,467410
永康,23.038386,120.2367,0.77,28.15,-0.45,72.42,2.25,-3.54,467420
嘉義,23.495925,120.432906,0.29,26.9,0.01,78.87,2.91,-2.75,467480
臺中,24.145736,120.684075,0.18,26.81,-1.01,74.16,5.78,-3.02,467490
阿里山,23.508208,120.813242,-0.25,13.06,0.25,90.26,8.28,-8.66,467530
大武,22.35572,120.90374,0.36,27.21,-0.98,75.71,1.43,-4.04,467540
玉山,23.48718,120.95943,0.28,6.37,0.37,81.84,8.35,-4.89,467550
新竹,24.827853,121.014219,0.38,25.95,-0.71,76.52,8.87,0.89,467571
恆春,22.003897,120.746339,0.76,28.26,-1.62,74.0,1.32,-3.77,467590
成功,23.097486,121.373428,0.14,25.71,2.36,83.65,6.89,1.56,467610
日月潭,23.881325,120.90805,0.27,21.47,4.06,88.59,8.11,-4.1,467650
臺東,22.752211,121.154586,0.15,26.73,1.42,79.06,4.95,0.1,467660
馬祖,26.169467,119.923158,0.91,22.19,3.32,90.03,5.34,0.61,467990
山佳,24.974944,121.402008,0.41,25.87,-3.65,77.0,10.64,3.82,C0A520
坪林,24.938183,121.70975,1.08,23.7,-3.32,88.35,12.42,3.0,C0A530
泰平,24.971197,121.823711,0.11,21.63,-0.42,94.52,13.21,1.86,C0A550
桶後,24.848222,121.597992,0.33,22.55,-4.63,88.1,10.56,0.29,C0A570
石碇,24.993969,121.662917,0.33,23.35,-4.56,85.74,14.55,3.4,C0A640
大坪,25.165914,121.632969,0.74,23.21,-1.89,88.32,16.48,3.68,C0A860
五指山,25.132153,121.608692,1.25,21.69,-3.11,91.19,12.45,3.26,C0A870
雙溪,25.036003,121.864242,0.77,24.54,-3.15,87.13,13.54,3.85,C0A890
三和,25.233153,121.595236,-0.31,23.02,-3.51,88.13,17.92,3.21,C0A931
金山,25.223628,121.643967,0.1,24.22,-4.21,82.13,15.39,5.46,C0A940
鼻頭角,25.129036,121.923372,1.01,25.2,-4.28,84.65,6.42,1.72,C0A950
三貂角,25.007606,122.002058,0.65,24.6,3.72,86.68,9.1,1.12,C0A970
社子,25.109508,121.469681,0.8,26.51,-0.44,79.61,9.21,2.19,C0A980
天母,25.117494,121.537169,-0.19,25.48,-3.93,72.77,9.16,2.26,C0A9C0
內湖,25.079422,121.57545,0.63,26.41,-1.64,76.68,11.08,3.67,C0A9F0
大屯山,25.175675,121.522408,1.3,19.82,2.68,96.55,10.89,0.91,C0AC40
三峽,24.939025,121.369728,1.18,26.72,-3.01,78.52,11.0,2.08,C0AC60
信義,25.037822,121.564597,1.27,26.66,-2.36,79.24,12.47,2.94,C0AC70
文山,25.00235,121.575728,-0.27,24.72,-4.13,79.77,12.73,2.67,C0AC80
新莊,25.051478,121.446756,-0.18,25.9,-1.49,74.39,10.82,1.91,C0ACA0
八里,25.150211,121.403947,1.03,26.55,4.89,84.71,9.03,-0.14,C0AD10
蘆洲,25.086594,121.472331,0.46,26.68,-1.63,75.55,9.4,1.21,C0AD30
土城,24.973208,121.445169,-0.11,25.11,-1.28,80.52,13.24,4.53,C0AD40
鶯歌,24.951533,121.346294,1.06,26.45,-3.41,80.39,10.23,1.96,C0AD50
汐止,25.066881,121.658778,-0.23,24.98,-5.3,79.74,12.13,2.03,C0AH00
永和,25.01125,121.508111,0.64,26.59,-0.68,76.39,12.37,3.29,C0AH10
五分山,25.07125,121.780794,1.24,21.41,-2.87,93.1,14.31,4.53,C0AH30
平等,25.129142,121.577086,-0.48,22.79,-4.91,82.32,9.29,2.24,C0AH40
林口,25.072181,121.38084,0.83,25.01,-3.92,82.42,9.79,3.39,C0AH50
松山,25.04871,121.55042,-0.22,25.99,3.83,73.45,11.32,2.87,C0AH70
深坑,25.002703,121.628328,0.52,25.21,-1.16,82.92,13.16,4.74,C0AH80
福山植物園,24.760717,121.58135,-0.53,20.21,1.25,94.26,8.98,-1.88,C0AH90
五股,25.07445,121.42728,-0.48,23.86,-7.39,81.65,10.37,-0.44,C0AI00
屈尺,24.92184,121.54475,0.49,25.59,-0.59,83.39,14.4,3.88,C0AI10
白沙灣,25.283128,121.519058,0.48,24.69,3.0,83.81,8.63,-2.43,C0AI20
三重,25.057328,121.500629,-0.26,26.36,-4.74,81.94,9.61,-0.95,C0AI30
石牌,25.115597,121.513139,0.78,26.9,2.61,75.94,8.31,-1.9,C0AI40
七堵,25.094819,121.71713,1.39,25.84,-5.63,82.77,12.29,-1.88,C0B010
基隆嶼,25.19141,121.78391,0.42,24.29,2.16,93.03,9.42,1.61,C0B020
復興,24.820208,121.352281,0.06,22.43,-3.16,82.68,12.37,2.16,C0C460
桃園,24.992425,121.323172,0.27,25.74,0.02,73.97,10.56,2.57,C0C480
八德,24.928708,121.283289,-0.2,25.07,-6.18,74.48,11.44,2.63,C0C490
觀音,25.027072,121.153317,-0.27,24.28,6.47,87.58,11.97,3.15,C0C590
蘆竹,25.084275,121.265767,-0.04,25.33,-1.92,79.97,9.13,0.83,C0C620
大溪,24.882853,121.265547,0.18,24.2,-0.27,78.16,11.63,4.03,C0C630
平鎮,24.897503,121.214636,0.42,24.35,-1.45,79.0,12.78,5.15,C0C650
楊梅,24.912375,121.143047,-0.27,24.75,-0.44,77.87,11.84,2.76,C0C660
龍潭,24.870056,121.221389,0.01,24.17,-1.43,79.06,11.68,2.52,C0C670
龜山,25.02846,121.38656,-1.04,23.09,-2.81,77.48,10.52,2.59,C0C680
中壢,24.977661,121.256375,-0.24,25.05,-2.56,74.52,9.32,0.8,C0C700
大溪永福,24.892936,121.324975,0.83,24.49,-4.55,82.06,12.47,-0.12,C0C710
梅花,24.678347,121.208558,-0.2,22.01,0.53,88.74,11.9,2.18,C0D360
峨眉,24.6905,121.017189,-0.45,24.4,1.13,89.0,11.13,1.63,C0D430
打鐵坑,24.849664,121.150789,-0.23,23.12,-2.48,83.48,8.48,0.22,C0D480
橫山,24.71116,121.11693,-0.49,23.22,10.04,95.81,9.57,0.39,C0D540
雪霸,24.526972,121.11605,-0.22,16.01,-1.44,84.52,17.13,7.15,C0D550
竹東,24.767147,121.057881,0.99,25.49,-14.14,62.32,10.08,2.51,C0D560
寶山,24.735006,121.025192,-0.14,23.8,1.32,86.65,11.53,3.0,C0D580
新豐,24.87068,120.97721,-0.06,24.24,5.15,87.87,12.15,4.0,C0D590
湖口,24.904794,121.043628,-0.13,25.09,-6.24,76.55,11.06,2.8,C0D650
新竹市東區,24.798681,120.986942,-0.45,25.13,-0.79,76.74,10.71,2.44,C0D660
竹南,24.708978,120.888897,0.98,26.25,2.39,82.77,7.3,-0.24,C0E420
南庄,24.601775,121.000214,-0.27,23.44,1.51,86.87,14.16,4.94,C0E430
明德,24.583486,120.885411,0.13,25.4,-3.12,81.19,9.48,0.55,C0E550
通霄,24.471892,120.704622,-0.38,25.29,-1.29,83.23,8.19,-0.37,C0E590
馬都安,24.451272,120.930192,0.05,21.65,3.55,85.58,12.13,3.67,C0E610
頭份,24.688247,120.912206,0.85,26.65,0.49,76.58,9.95,2.06,C0E730
造橋,24.637056,120.864778,-0.66,25.31,-2.33,81.71,9.11,-0.37,C0E740
苗栗,24.564569,120.824575,-0.53,25.8,-4.58,72.97,8.87,-0.52,C0E750
銅鑼,24.489681,120.790853,-0.53,25.09,-4.33,78.65,9.31,0.39,C0E780
西湖,24.562947,120.7485,-0.39,24.86,-1.86,86.0,6.08,-2.89,C0E810
獅潭,24.539133,120.920042,-0.73,24.04,-3.36,83.07,13.12,2.78,C0E820
苑裡,24.439714,120.653053,-0.53,25.63,-3.0,78.48,6.85,-1.72,C0E830
大河,24.618069,120.948578,-2.2,22.88,-1.12,83.68,10.94,2.68,C0E850
高鐵苗栗,24.60725,120.826094,-0.62,25.38,5.84,85.32,8.63,2.3,C0E870
石岡,24.276061,120.777644,0.22,25.22,2.23,86.23,8.68,-0.33,C0F0B0
中坑,24.248517,120.903319,-1.05,20.26,-4.58,87.77,14.44,-1.06,C0F0C0
審馬陣,24.381675,121.4203,-0.4,9.51,-5.34,80.39,7.73,0.99,C0F0D0
東勢,24.246428,120.833047,0.94,25.78,-4.8,77.06,9.81,-4.16,C0F850
大坑,24.173142,120.722289,0.78,27.35,-1.46,75.97,6.23,-5.49,C0F970
神岡,24.272481,120.658314,-0.29,25.27,-7.41,77.45,7.18,-1.92,C0F9I0
大安,24.345061,120.588025,-0.68,25.5,-3.1,81.26,5.89,-1.7,C0F9K0
后里,24.310436,120.729725,0.16,25.89,-5.79,77.97,7.39,-2.82,C0F9L0
豐原,24.254322,120.720692,1.14,27.13,-6.48,73.94,8.98,-2.55,C0F9M0
大里,24.092464,120.701378,-0.18,27.29,5.2,81.22,8.53,-2.3,C0F9N0
潭子,24.213106,120.703933,1.6,28.49,1.34,79.42,6.6,-4.84,C0F9O0
清水,24.312297,120.562242,-0.51,26.0,-4.61,79.68,5.4,-1.88,C0F9P0
外埔,24.347817,120.705686,-0.32,25.28,-3.71,82.65,6.94,-1.98,C0F9Q0
龍井,24.184536,120.528972,-0.18,26.43,-10.16,77.35,3.81,-4.3,C0F9R0
烏日,24.107058,120.624103,-0.21,26.79,-3.95,73.29,5.48,-3.2,C0F9S0
西屯,24.179494,120.641275,-0.27,26.59,-5.16,73.03,4.03,-6.21,C0F9T0
南屯,24.137006,120.637969,-0.42,26.9,-3.74,72.87,5.24,-4.4,C0F9U0
新社,24.200172,120.815806,0.13,24.06,-5.3,80.29,11.13,-4.15,C0F9V0
大雅(中科園區),24.21528,120.62445,-0.57,25.5,-0.97,78.61,6.16,0.2,C0F9X0
桃山,24.432739,121.303808,-0.19,8.95,-3.47,79.61,11.65,0.21,C0F9Y0
雪山東峰,24.388792,121.268675,-0.29,9.65,-3.71,78.68,12.34,2.85,C0F9Z0
芬園,24.015678,120.6213,-0.72,25.35,3.76,87.0,8.73,0.01,C0G620
員林,23.946503,120.585597,2.01,28.74,-8.24,75.29,6.6,0.11,C0G650
溪湖,23.94835,120.479122,0.05,26.67,2.08,89.67,9.19,1.76,C0G660
溪州,23.851589,120.499093,0.03,26.51,-7.44,74.81,3.5,-1.24,C0G720
二林,23.903325,120.376081,-0.1,26.16,-2.57,85.65,6.37,2.56,C0G730
大城,23.852487,120.320935,-0.06,26.2,-1.55,80.14,3.87,-0.27,C0G740
福興,24.041289,120.437669,-0.11,27.07,-7.39,76.03,3.74,-3.66,C0G770
秀水,24.03405,120.503869,0.23,27.15,-4.09,79.48,4.76,-2.17,C0G780
埔鹽,24.000394,120.431683,1.1,27.5,-4.78,82.07,3.55,-3.31,C0G800
埔心,23.947633,120.525456,1.69,28.78,-8.38,75.0,11.81,3.35,C0G810
田尾,23.901669,120.509389,0.22,27.08,-1.01,84.16,5.08,-3.38,C0G820
埤頭,23.866003,120.452806,-0.02,26.5,-2.44,87.1,3.44,-4.81,C0G830
社頭,23.897647,120.5862,0.29,27.7,3.26,80.84,4.95,-3.72,C0G860
二水,23.810742,120.6173,1.42,28.31,-4.17,78.97,4.27,-4.25,C0G880
伸港,24.148933,120.484403,-0.42,26.28,-6.57,77.48,3.13,-4.37,C0G890
線西,24.143358,120.443536,-1.13,26.35,-4.71,78.77,3.1,-3.42,C0G900
花壇,24.032076,120.549461,0.7,28.13,3.1,83.48,5.83,-1.46,C0G910
埔里,23.972169,120.952425,-0.06,24.75,-1.3,82.0,9.52,-2.61,C0H890
草屯,23.973672,120.68085,-0.31,26.41,-3.06,75.87,7.84,-1.19,C0H960
昆陽,24.121322,121.273642,-0.06,9.22,-3.95,85.19,11.15,-0.35,C0H990
神木村,23.532742,120.843667,0.23,18.11,-1.65,89.77,9.03,-4.01,C0H9A0
合歡山,24.143442,121.272547,0.71,8.62,-2.42,87.16,18.84,-2.89,C0H9C0
廬山,24.033311,121.181808,0.19,18.49,-2.66,83.68,12.71,-0.99,C0I010
信義,23.689694,120.851036,-0.2,23.67,-2.71,83.39,7.32,-2.77,C0I080
竹山,23.761225,120.688156,0.38,26.09,-3.55,81.65,4.42,-3.33,C0I110
水里,23.812553,120.849792,0.05,25.22,-4.03,78.52,7.4,-3.45,C0I360
魚池,23.895703,120.94135,0.06,23.4,-5.41,81.45,10.44,-1.66,C0I370
集集,23.828206,120.801467,-0.27,25.55,-2.41,81.29,9.82,1.15,C0I380
仁愛,24.022122,121.132206,0.16,20.39,-5.63,83.13,11.76,-4.55,C0I390
名間,23.837053,120.701447,-0.5,25.56,-0.14,80.26,4.73,-1.43,C0I410
國姓,24.037803,120.855072,-0.35,25.16,-3.17,81.55,11.68,-0.29,C0I420
南投,23.911469,120.687331,-0.42,26.66,2.54,80.13,5.0,-1.74,C0I460
梅峰,24.085272,121.173572,-0.04,14.55,-2.19,88.9,12.97,-3.99,C0I480
萬大林道,23.928228,121.091411,0.15,18.18,-6.95,84.0,18.21,3.55,C0I490
小奇萊,24.131764,121.295717,-0.35,9.14,-2.33,86.39,17.1,-5.61,C0I530
崙背,23.75555,120.318925,-0.38,25.94,-2.99,81.87,2.9,-1.37,C0K250
四湖,23.630414,120.227125,0.5,26.91,-5.41,77.9,2.06,-2.58,C0K280
宜梧,23.536281,120.169329,0.26,26.88,-4.74,78.42,1.44,-3.87,C0K291
虎尾,23.719183,120.442036,0.42,27.11,0.78,79.84,2.65,-2.55,C0K330
土庫,23.679029,120.395574,0.07,26.65,-7.54,75.74,1.6,-2.28,C0K390
斗六,23.720583,120.541127,-0.11,26.69,-6.34,74.71,2.85,-2.22,C0K400
北港,23.573957,120.292802,0.12,26.82,-6.71,75.61,1.68,-3.26,C0K410
西螺,23.800407,120.467394,-0.04,26.68,-5.22,77.0,2.79,-3.66,C0K420
褒忠,23.690938,120.303634,0.1,26.43,-5.94,78.32,2.08,-3.34,C0K430
二崙,23.772797,120.408944,-0.12,26.35,-0.71,82.65,2.37,-1.49,C0K440
大埤,23.646074,120.431537,0.07,26.82,-5.53,76.45,1.89,-1.86,C0K450
斗南,23.678734,120.478359,0.05,26.77,-1.99,76.71,2.15,-2.08,C0K460
林內,23.748675,120.609642,-0.09,26.14,-4.83,78.74,4.4,-1.4,C0K470
莿桐,23.761192,120.502372,-0.12,26.35,-5.96,77.29,3.21,-1.92,C0K480
元長,23.64981,120.315024,0.11,26.82,-2.06,77.84,1.95,-2.02,C0K500
水林,23.572924,120.24597,0.31,27.09,-4.02,77.23,1.69,-2.56,C0K510
臺西,23.701547,120.197559,-0.15,26.31,-1.6,79.97,2.03,-2.33,C0K530
蔦松,23.514319,120.229736,0.09,26.97,-2.93,78.84,1.81,-2.38,C0K550
棋山,23.68645,120.603417,-0.0,26.42,-0.06,81.42,2.94,-2.85,C0K560
高鐵雲林,23.737456,120.417944,-0.44,26.34,-4.82,79.97,2.06,-4.4,C0K580
東後寮,23.369908,120.248065,0.17,26.79,-3.58,79.9,2.1,-2.34,C0M520
奮起湖,23.493903,120.699253,0.39,19.16,0.03,92.52,7.78,-8.27,C0M530
中埔,23.42538,120.5229,0.06,26.49,-5.57,74.55,2.45,-3.89,C0M640
朴子,23.43463,120.23902,-0.48,26.21,-1.45,80.74,3.39,-0.59,C0M650
溪口,23.604131,120.403569,0.1,26.6,-6.25,77.1,2.39,-2.78,C0M660
大林,23.600616,120.45841,0.1,27.15,-4.46,73.97,2.63,-1.79,C0M670
太保,23.455062,120.331455,-0.15,26.88,-5.87,76.19,4.73,0.19,C0M680
水上,23.419734,120.388909,0.06,26.81,-3.72,77.61,2.95,-2.17,C0M690
竹崎,23.526178,120.555508,0.1,26.31,-4.01,78.9,4.14,-3.66,C0M700
東石,23.458927,120.15385,0.05,26.95,-7.12,75.71,1.73,-3.55,C0M710
番路,23.464657,120.554156,0.21,26.14,-2.83,77.74,2.92,-4.89,C0M720
嘉義市東區,23.457673,120.460531,0.16,27.78,-1.3,74.74,3.55,-2.1,C0M730
六腳,23.492871,120.290625,0.09,26.86,-2.52,76.71,3.76,-1.87,C0M740
布袋,23.380878,120.167789,0.15,27.15,-6.45,75.39,2.13,-1.88,C0M750
民雄,23.551754,120.428457,-0.02,27.08,-4.88,75.13,2.71,-1.38,C0M760
嘉義梅山,23.585398,120.555587,0.07,26.43,-3.94,77.94,2.71,-3.99,C0M770
鹿草,23.41134,120.30835,0.31,27.28,-4.25,76.29,3.37,-1.76,C0M780
新港,23.553269,120.345728,-0.02,26.99,-4.15,75.58,2.68,-1.32,C0M790
茶山,23.299075,120.664767,0.37,25.03,-3.95,80.32,5.9,-4.21,C0M800
里佳,23.389125,120.716647,0.21,19.59,-3.78,85.48,10.1,-5.03,C0M810
達邦,23.453994,120.749517,0.36,21.72,-0.47,83.42,7.66,-4.5,C0M820
表湖,23.24186,120.64166,-0.02,23.32,-4.77,82.81,3.13,-11.04,C0M850
新美,23.338017,120.683169,0.44,24.55,-0.74,80.45,6.94,-11.94,C0M860
北寮,23.079561,120.495008,0.58,27.17,0.97,83.9,2.42,-6.4,C0O830
王爺宮,23.222064,120.40085,2.5,28.87,-10.12,73.9,2.02,-5.24,C0O840
大內,23.11885,120.36083,1.28,28.75,-1.67,81.13,1.34,-5.71,C0O860
善化,23.112883,120.297219,0.72,27.57,1.59,86.03,1.52,-3.86,C0O900
崎頂,22.959547,120.369317,1.44,27.97,-3.68,79.16,2.39,-5.33,C0O960
虎頭埤,23.021375,120.347878,0.41,27.19,-5.47,77.26,1.98,-5.01,C0O970
新市,23.061614,120.298197,1.17,28.48,-8.2,76.52,2.11,-4.69,C0O980
媽廟,22.99175,120.293525,0.29,27.56,-9.57,73.56,2.52,-4.96,C0O990
尾寮山,22.833111,120.683889,0.98,21.79,-0.56,91.0,11.79,-6.13,C0R100
阿禮,22.742908,120.743678,0.07,21.36,-5.4,83.23,12.53,-1.57,C0R130
瑪家,22.682903,120.686639,0.05,23.08,5.03,91.74,4.11,-11.53,C0R140
三地門,22.709889,120.639944,1.39,28.59,-7.5,70.5,2.85,-8.61,C0R150
鹽埔,22.739558,120.530778,0.73,28.04,-4.93,81.77,3.26,-5.24,C0R160
赤山,22.592333,120.614306,1.03,28.44,-1.76,81.48,1.9,-8.05,C0R190
潮州,22.534361,120.54,1.41,28.82,-7.26,72.58,2.0,-5.68,C0R220
來義,22.527306,120.625111,0.47,27.35,-0.98,79.81,1.39,-9.35,C0R240
春日,22.370361,120.628306,-0.5,26.94,-1.91,77.26,1.32,-6.45,C0R260
琉球嶼,22.332244,120.362236,1.24,28.54,-11.21,73.39,1.85,-3.39,C0R270
車城,22.0744,120.716247,0.24,28.13,-5.45,76.48,1.26,-9.65,C0R320
牡丹,22.130036,120.792639,-0.02,25.97,1.48,86.45,1.21,-14.48,C0R341
貓鼻頭,21.921774,120.7358,0.86,27.83,-8.81,77.39,1.47,-3.14,C0R350
大漢山,22.405264,120.753181,-0.19,17.13,-0.65,94.94,3.56,-39.15,C0R440
高樹,22.826389,120.600806,0.53,28.08,-4.51,72.68,2.79,-6.66,C0R470
長治,22.693128,120.542622,1.5,29.22,-8.81,72.68,3.44,-4.85,C0R480
九如,22.7405,120.490503,1.32,28.94,-8.07,74.52,2.42,-5.71,C0R490
崁頂,22.514781,120.506914,0.57,28.22,-7.07,76.19,1.16,-7.24,C0R520
佳冬,22.419456,120.552375,0.55,28.14,-4.93,76.87,0.73,-6.92,C0R540
新埤,22.467947,120.582894,0.7,28.14,-10.82,72.1,0.98,-7.12,C0R550
新園,22.5434,120.461558,1.64,29.26,-11.95,70.87,3.34,-5.29,C0R560
麟洛,22.65078,120.52719,1.79,29.6,-2.98,76.48,2.55,-5.0,C0R570
南州,22.48591,120.50274,0.46,27.92,-1.65,79.94,1.65,-6.37,C0R580
里港,22.77919,120.49459,0.72,28.19,-3.27,77.52,2.13,-5.98,C0R590
舊泰武,22.588194,120.664944,0.62,23.63,-3.65,83.61,1.74,-13.85,C0R600
墾雷,21.900836,120.855269,0.3,27.34,4.06,87.29,1.18,-3.03,C0R620
東港,22.46247,120.44074,1.09,28.36,-11.34,75.1,1.16,-13.52,C0R640
竹田,22.58486,120.54344,1.14,28.52,-12.52,74.81,2.5,-14.07,C0R650
枋寮,22.367722,120.590647,0.46,27.92,-1.16,81.94,1.32,-20.47,C0R660
楓港,22.190131,120.692156,-0.2,27.5,-8.74,72.32,0.81,-23.58,C0R670
佳樂水,21.993578,120.861633,-0.16,27.55,-4.0,78.9,1.32,-6.45,C0R680
墾丁,21.966756,120.810269,0.34,26.03,-6.71,83.61,1.19,-7.35,C0R690
枋山,22.246844,120.661086,0.7,28.14,-7.97,73.39,0.73,-23.68,C0R700
龍磐,21.931672,120.838942,0.09,26.95,-5.29,82.61,0.81,-6.16,C0R710
旭海,22.205403,120.887614,-0.2,25.78,-4.69,81.63,2.76,-12.87,C0R720
大坪頂,22.024633,120.69355,0.16,26.99,0.23,85.42,1.16,-5.48,C0R730
四林格山,22.076989,120.802439,-0.01,23.57,-5.06,90.77,2.66,-9.02,C0R750
南仁湖,22.084681,120.863353,-0.49,24.47,3.94,93.29,4.06,-8.26,C0R760
保力,22.071122,120.764111,0.32,26.79,-5.13,80.48,1.5,-8.63,C0R770
滿州,22.024403,120.839892,-0.21,26.92,-3.94,78.97,1.18,-6.65,C0R780
九棚,22.14195,120.889281,-0.12,26.96,-3.06,78.52,3.5,-9.76,C0R790
丹路,22.204481,120.750989,0.52,27.25,-7.0,75.77,1.44,-25.6,C0R800
內獅,22.305064,120.642986,0.76,28.31,10.71,91.16,0.98,-23.21,C0R810
白鷺,22.454275,120.666219,0.72,25.15,-4.9,80.06,1.53,-26.48,C0R820
高士,22.121825,120.836781,-0.32,24.47,-1.71,86.65,2.84,-10.95,C0R830
牡丹池山,22.168389,120.841225,-0.45,23.45,-1.0,90.29,2.27,-15.32,C0R840
下馬,23.150427,121.070312,-0.35,22.04,1.55,87.6,2.42,-1.21,C0S660
太麻里,22.60902,120.98533,0.52,23.17,0.23,90.68,1.63,-3.39,C0S690
知本,22.684866,121.005642,0.63,23.41,0.0,91.35,3.34,-3.42,C0S700
鹿野,22.917711,121.122994,0.63,23.84,0.0,89.0,1.29,-3.86,C0S710
綠島,22.6672,121.47533,0.8,26.33,-8.16,83.32,5.61,0.44,C0S730
池上,23.119628,121.209469,0.26,24.18,-0.84,88.35,1.74,-2.14,C0S740
向陽,23.248397,120.986133,0.82,14.75,1.88,88.04,7.46,-2.87,C0S750
大溪山,22.478475,120.943325,0.33,23.79,-1.58,89.26,2.71,-3.45,C0S770
金崙,22.538122,120.966875,0.62,26.12,-3.84,81.03,0.94,-4.13,C0S790
東河,22.972672,121.303986,-0.33,26.07,-2.74,86.13,4.44,-0.6,C0S810
長濱,23.286817,121.411975,0.31,24.85,-5.23,85.26,3.94,-1.52,C0S830
南田,22.279725,120.889208,0.68,27.34,-10.45,75.13,2.34,-3.41,C0S840
關山,23.0395,121.175017,-0.3,24.93,-0.58,87.03,2.68,-1.21,C0S890
蘭嶼高中,22.04909,121.51214,0.43,27.47,4.69,85.29,11.11,4.45,C0S900
蘭嶼燈塔,22.081197,121.503117,0.64,26.04,5.15,90.58,4.77,-1.77,C0S910
金峰嘉蘭,22.594789,120.960825,-0.48,26.11,-1.19,82.32,1.06,-5.31,C0S920
延平,22.902581,121.084058,-0.66,24.73,0.03,84.39,0.98,-4.22,C0S930
石寧山,23.223772,121.406639,-0.25,25.53,-3.71,86.77,5.84,0.04,C0S940
七塊厝,22.954453,121.229922,0.26,24.52,-8.53,83.24,14.02,8.35,C0S950
香蘭,22.587569,120.993375,-0.05,26.91,2.19,83.87,1.05,-5.6,C0S960
加津林,22.416211,120.926942,-0.12,26.79,-2.87,78.77,2.87,-6.22,C0S970
勝林山,22.430439,120.8938,-1.38,21.1,0.9,91.77,2.48,-8.17,C0S980
山豬窟,22.318619,120.857372,-0.5,24.7,-2.58,82.9,3.34,-8.75,C0S990
歷坵,22.520969,120.89185,-0.19,23.85,-2.68,88.0,1.18,-7.6,C0SA00
檳榔四格山,22.810031,121.109308,-0.77,23.66,1.45,91.81,1.69,-5.98,C0SA10
金崙山,22.567419,120.959667,-0.48,21.59,-1.16,90.87,2.03,-5.81,C0SA20
都歷,23.020333,121.323642,-0.06,25.71,-7.91,78.96,1.67,-4.15,C0SA30
瑞和,22.974361,121.156697,-0.66,24.89,-2.61,83.77,2.37,-2.79,C0SA40
知本（水試所）,22.702394,121.082761,-0.32,26.47,-1.84,82.94,2.79,-4.26,C0SA60
土坂,22.453108,120.887572,0.3,26.23,-1.29,82.52,1.4,-10.55,C0SA80
達仁林場,22.264347,120.823972,-0.22,24.04,-1.55,85.87,3.44,-21.32,C0SA90
大禹嶺,24.186117,121.316086,-0.22,11.57,-3.91,81.29,10.66,2.24,C0T790
天祥,24.179597,121.495639,0.18,22.11,1.04,85.16,3.48,-0.84,C0T820
鯉魚潭,23.935639,121.508944,-0.35,23.2,1.03,91.58,6.84,-0.26,C0T870
西林,23.8119,121.441458,0.24,24.27,6.18,88.32,10.16,4.1,C0T900
光復,23.660694,121.424964,0.45,24.79,-2.11,87.26,13.24,6.7,C0T960
月眉山,23.809928,121.539828,0.39,22.43,-1.11,93.48,3.04,-3.1,C0T9A0
水源,23.991861,121.537169,0.2,21.83,-0.76,91.61,11.19,2.76,C0T9B0
和中,24.26676,121.74103,-0.27,24.6,9.67,99.74,18.87,10.23,C0T9D0
大坑,23.880628,121.581981,0.19,22.74,2.22,93.0,8.03,0.5,C0T9E0
水璉,23.797131,121.542514,-0.24,23.93,2.27,90.68,6.9,0.22,C0T9F0
鳳林山,23.735269,121.420131,-0.77,21.81,-0.84,93.29,11.95,3.91,C0T9G0
加路蘭山,23.682947,121.5274,0.34,21.75,4.41,98.74,8.47,-0.12,C0T9H0
豐濱,23.583897,121.514806,0.48,24.37,-5.06,86.42,14.18,5.53,C0T9I0
靜浦,23.455167,121.495028,0.29,24.96,-0.35,90.97,11.42,5.15,C0T9M0
富里,23.171639,121.249378,-0.21,24.83,10.94,98.84,4.02,-2.54,C0T9N0
雙連埤,24.753033,121.641303,-0.57,20.75,-2.11,92.71,8.56,-2.16,C0U520
礁溪,24.817539,121.765608,0.04,24.61,-3.92,83.61,6.81,-2.98,C0U600
玉蘭,24.675286,121.587061,0.23,22.44,-3.31,84.19,9.23,-0.59,C0U650
太平山,24.505486,121.525656,-0.11,15.3,-0.27,92.87,9.05,0.6,C0U710
南山,24.43742,121.38167,-0.58,18.76,-5.6,87.81,6.29,0.25,C0U720
龜山島,24.841667,121.953133,-0.73,21.94,-4.17,90.0,6.42,1.93,C0U750
東澳,24.52196,121.83318,-0.44,24.44,-2.46,86.35,10.11,0.48,C0U760
南澳,24.44935,121.81022,-0.48,24.67,-0.39,85.81,4.81,-2.25,C0U770
五結,24.68637,121.79794,-0.54,24.44,-0.99,84.55,5.0,-2.29,C0U780
頭城,24.85323,121.8308,-0.44,24.74,-0.61,87.32,6.73,-1.4,C0U860
大礁溪,24.791042,121.675047,-0.4,21.97,2.9,91.81,8.52,-1.69,C0U870
三星,24.66812,121.65302,-0.52,23.91,-6.98,82.58,6.15,-1.02,C0U890
內城,24.71813,121.68766,-0.02,24.53,-3.51,85.23,5.77,-0.96,C0U900
冬山,24.63373,121.7937,-0.2,24.85,-1.17,81.1,6.85,1.58,C0U910
羅東,24.68184,121.74934,0.02,24.86,-0.93,84.39,6.98,0.63,C0U940
鶯子嶺,24.89754,121.79244,-0.19,18.77,-7.18,90.1,11.77,0.19,C0U950
翠峰湖,24.510856,121.608044,-0.39,14.7,0.9,94.74,9.4,-1.91,C0U960
大福,24.80064,121.81389,-0.75,24.19,0.73,84.87,5.44,-2.15,C0U970
坪林石牌,24.86478,121.77396,-0.24,21.11,2.27,94.0,10.37,0.15,C0U980
員山,24.74435,121.72247,-0.41,24.55,1.35,86.23,5.77,-1.05,C0U990
土場,24.576533,121.495333,-0.72,22.65,-2.69,85.68,6.21,-0.47,C0UA00
鴛鴦湖,24.590269,121.412228,-0.47,15.67,2.92,95.9,11.13,1.8,C0UA10
白嶺,24.527819,121.519031,-0.61,17.58,-1.22,93.84,9.21,1.66,C0UA30
西德山,24.560647,121.752608,-0.22,18.79,-1.24,93.68,10.81,1.53,C0UA40
西帽山,24.555361,121.802628,-0.23,20.23,-6.1,88.35,17.92,6.88,C0UA50
樟樹山,24.41393,121.78325,-0.36,21.72,0.13,88.83,7.68,3.01,C0UA60
桃源谷,24.962606,121.888875,-0.19,21.35,-0.26,94.84,13.15,2.77,C0UA70
復興,23.222403,120.806089,0.75,23.62,-2.02,80.16,5.37,-11.07,C0V210
溪埔,22.738578,120.446797,0.68,28.05,-1.62,78.06,2.68,-5.19,C0V350
內門,22.975481,120.466769,1.51,27.99,-3.98,78.35,1.89,-5.76,C0V360
古亭坑,22.893178,120.401947,0.89,27.49,-5.81,78.9,2.34,-4.79,C0V370
阿公店,22.804194,120.355528,0.29,27.38,-6.43,76.9,2.47,-5.49,C0V400
鳳山,22.646653,120.356122,0.21,28.14,2.82,78.9,1.53,-6.56,C0V440
鳳森,22.545064,120.392592,0.66,27.99,-7.4,75.52,4.69,-4.07,C0V450
新興,22.627422,120.298803,0.95,28.7,-7.95,71.52,2.29,-5.93,C0V490
阿蓮,22.883208,120.327508,1.02,28.58,-6.58,74.94,2.15,-5.24,C0V530
梓官,22.760558,120.267211,0.3,27.99,-5.65,74.87,3.29,-4.47,C0V610
永安,22.82315,120.236856,0.22,27.65,-7.13,76.19,4.02,-4.22,C0V620
茄萣,22.906642,120.182608,0.58,28.09,-1.67,77.16,3.6,-3.84,C0V630
湖內,22.887139,120.2445,-0.11,27.39,-5.96,74.94,5.15,-2.8,C0V640
彌陀,22.783806,120.246361,0.87,28.36,-5.54,77.26,4.02,-3.69,C0V650
岡山,22.797078,120.294958,0.89,28.91,-6.83,72.0,3.76,-4.71,C0V660
仁武,22.701083,120.347722,0.87,28.96,-6.25,73.03,2.29,-5.26,C0V680
鼓山,22.623325,120.275575,0.2,27.97,-7.33,74.23,2.73,-4.56,C0V690
三民,22.645017,120.311233,0.36,28.7,-2.09,71.81,2.55,-5.37,C0V700
苓雅,22.622742,120.330669,1.11,29.2,1.32,74.84,1.12,-6.42,C0V710
林園,22.507747,120.394511,1.07,29.49,-2.66,73.71,3.58,-4.26,C0V720
大寮,22.605614,120.395717,0.47,28.56,-2.42,74.81,2.71,-5.42,C0V730
旗山,22.888614,120.483597,1.7,28.97,-5.73,72.71,1.58,-6.8,C0V740
路竹,22.854997,120.259439,0.98,28.73,-6.47,72.39,4.11,-4.18,C0V750
橋頭,22.757806,120.30575,0.84,28.92,-8.85,70.55,3.18,-4.74,C0V760
大社,22.730306,120.346639,0.55,28.6,-3.18,74.3,2.34,-5.58,C0V770
萬山,22.905944,120.688056,0.95,25.92,-2.75,78.03,8.69,-3.6,C0V790
六龜,22.997889,120.633583,0.82,27.04,-1.25,77.9,3.52,-9.06,C0V800
左營,22.67491,120.28491,0.18,27.81,-5.85,74.77,2.35,-1.58,C0V810
小林,23.148408,120.63325,0.96,25.47,-3.02,81.52,4.94,-13.48,C0V820
花嶼,23.40007,119.32276,0.68,25.71,-2.5,84.58,1.23,-1.45,C0W130
金沙,24.488292,118.408778,-2.17,22.2,1.65,83.0,12.0,7.98,C0W140
金寧,24.457703,118.328989,-0.21,24.98,-4.13,78.26,3.41,-1.32,C0W150
東河,23.296598,120.385608,0.1,27.26,-7.41,73.84,1.39,-3.25,C0X050
下營,23.22695,120.256261,0.37,27.4,-6.46,74.84,1.74,-2.04,C0X060
佳里,23.173039,120.145086,0.47,27.57,-2.54,78.87,2.26,-2.32,C0X080
臺南市北區,23.010394,120.194228,0.36,28.24,-2.4,74.87,2.15,-4.54,C0X100
臺南市南區,22.961189,120.188378,0.46,28.28,-4.29,76.26,2.42,-4.58,C0X110
麻豆,23.183289,120.248611,0.95,28.45,-2.94,78.26,2.16,-3.91,C0X120
官田,23.193217,120.315422,0.6,28.02,-0.06,80.39,1.87,-5.12,C0X130
西港,23.125608,120.203108,0.11,27.74,-6.57,75.42,1.66,-4.48,C0X140
安定,23.102614,120.227839,0.65,28.03,-3.32,79.16,1.94,-4.32,C0X150
仁德,22.968258,120.257689,0.79,28.42,-2.61,77.19,2.84,-4.77,C0X160
關廟,22.963017,120.327797,-0.15,27.66,0.89,77.71,2.08,-6.23,C0X170
山上,23.0757,120.363253,0.68,27.73,-3.32,78.94,2.55,-4.63,C0X180
安平,22.993161,120.152181,0.31,27.93,-13.63,69.1,2.56,-3.99,C0X190
左鎮,23.056758,120.408522,1.44,27.91,-5.56,79.19,2.08,-4.98,C0X200
白河,23.347466,120.414427,0.05,27.04,-3.18,76.58,2.73,-1.67,C0X210
學甲,23.230367,120.182187,0.4,27.33,-2.59,76.29,1.11,-4.51,C0X220
鹽水,23.272621,120.247641,0.14,27.02,-2.72,77.71,1.35,-2.45,C0X230
關子嶺,23.331169,120.508025,0.03,24.76,0.98,86.45,3.29,-4.78,C0X240
新營,23.310689,120.316681,0.16,27.53,-3.23,74.68,1.37,-4.01,C0X250
後壁,23.366358,120.362326,0.19,27.09,-5.24,75.94,1.73,-4.3,C0X260
將軍,23.214999,120.13577,0.1,27.04,-3.85,76.65,1.39,-2.72,C0X280
北門,23.267772,120.125481,0.1,27.1,-4.76,77.48,1.48,-2.48,C0X290
鹿寮,23.386047,120.477331,-0.04,26.36,-3.55,79.97,4.65,-0.86,C0X300
柳營,23.253328,120.375253,0.15,27.46,-4.26,75.58,1.4,-10.02,C0X320
明里,23.208717,121.262342,0.17,24.17,0.17,90.68,3.5,-2.03,C0Z020
佳心,23.34567,121.21316,0.1,20.7,7.26,94.84,3.63,-1.19,C0Z050
玉里,23.3215,121.339656,0.69,25.14,5.06,92.13,3.42,-2.03,C0Z061
舞鶴,23.46811,121.37407,0.51,23.97,8.83,99.35,3.9,-0.94,C0Z070
富源,23.587642,121.378225,0.27,23.95,-0.16,90.52,10.05,2.98,C0Z080
東華,23.89525,121.549833,0.07,25.1,1.11,89.77,3.11,-1.87,C0Z100
吉安光華,23.930925,121.595153,-0.01,24.89,-8.76,79.42,6.42,2.01,C0Z150
鳳林,23.746114,121.453411,-0.34,24.3,-1.81,83.81,9.24,4.08,C0Z160
卓溪,23.3443,121.3029,-0.58,24.84,-2.6,80.13,3.68,-1.49,C0Z170
新城,24.040486,121.604878,-0.19,24.88,13.9,97.84,11.84,7.06,C0Z180
富世,24.14743,121.6297,-0.13,24.92,-2.81,84.77,11.0,6.5,C0Z190
萬榮,23.709219,121.420106,-0.08,24.23,-2.91,85.29,10.56,5.76,C0Z200
瑞穗,23.5239,121.39021,0.14,24.73,1.35,88.1,6.39,1.48,C0Z210
和平林道,24.343922,121.656317,-0.56,21.52,-3.45,89.03,4.02,-0.47,C0Z220
和平,24.30717,121.77007,-1.01,24.18,-2.9,80.58,10.92,7.41,C0Z230
瑞穗林道,23.49284,121.30688,-0.37,19.26,2.7,97.61,9.85,1.27,C0Z250
蕃薯寮,23.73835,121.540108,-0.07,23.02,-3.3,89.81,9.35,4.68,C0Z270
德武,23.47426,121.41071,-0.17,24.26,0.44,88.84,3.32,-0.4,C0Z280
赤柯山,23.36893,121.38293,-0.04,20.46,-0.39,91.81,4.71,-0.58,C0Z290
東里,23.26853,121.30547,-0.02,24.85,-3.17,85.23,3.11,-1.73,C0Z300
清水斷崖,24.218294,121.689142,-0.64,24.24,-2.51,86.45,13.66,8.03,C0Z310
清水林道,23.27125,121.188272,-0.03,21.99,-1.12,86.77,2.95,-2.03,C0Z320
安通山,23.290728,121.348528,-0.43,22.84,3.38,90.9,3.42,-0.88,C0Z330
口湖工作站,23.589978,120.180394,0.84,26.64,-4.56,73.07,1.5,-4.92,12J990
東港工作站,22.479997,120.466058,1.05,28.37,-7.57,65.33,1.67,-11.84,12Q970
恆春工作站,22.079678,120.714425,1.69,28.03,-1.56,71.6,1.25,-1.01,12Q980
萬大發電廠,23.978875,121.139639,0.29,21.05,-9.13,81.7,15.82,-3.51,42HA10
桃改樹林分場,24.944503,121.386972,-0.59,25.09,-6.37,75.67,11.57,-4.18,72AI40
桃園農改場,24.950944,121.030583,0.26,25.14,-1.99,82.33,12.4,5.33,72C440
桃改五峰分場,24.612194,121.157167,0.44,20.32,-0.5,88.83,7.38,-1.61,72D080
臺中農改場,24.003028,120.534389,0.07,26.19,3.12,85.47,7.23,1.28,72G600
中改埔里分場,23.903208,120.963364,0.39,22.84,-3.12,88.4,10.25,-9.59,72HA00
南改斗南分場,23.634556,120.477333,0.74,27.04,-3.35,79.53,1.42,-5.16,72K220
南改義竹分場,23.360694,120.279361,0.39,26.9,-7.89,76.9,2.2,-3.25,72M360
南改鹿草分場,23.416869,120.283061,0.8,26.75,-3.98,81.2,4.37,-3.3,72M700
臺南農改場,23.0605,120.342194,0.39,27.32,-0.37,80.63,1.03,-5.38,72N100
七股研究中心,23.081672,120.062894,0.89,27.6,-4.53,78.57,2.88,-5.97,72N240
高雄農改場,22.709333,120.525889,0.78,28.44,-0.68,77.77,4.43,-2.16,72Q010
東改班鳩分場,22.829528,121.077694,0.29,24.54,-0.17,84.33,1.69,-3.97,72S200
東改賓朗果園,22.813889,121.071278,-2.02,21.85,-1.77,88.76,1.88,-3.65,72S590
花蓮農改場,23.975222,121.563889,0.36,24.95,-1.06,82.93,6.74,1.17,72T250
花改蘭陽分場,24.686306,121.716583,0.15,24.56,-1.15,84.4,6.77,0.08,72U480
高改旗南分場,22.857861,120.516667,-0.57,27.56,2.87,77.1,1.53,-4.44,72V140
茶改北部分場,24.955778,121.631222,0.38,22.59,0.38,85.23,14.17,3.61,82A750
茶改場,24.908472,121.185333,0.15,24.33,-4.63,79.13,12.55,5.3,82C160
茶改中部分場,23.875611,120.913583,-0.76,21.44,0.42,88.13,10.82,-1.13,82H320
茶改南部分場,23.762528,120.7405,-0.45,23.92,-0.95,85.43,5.03,-1.82,82H840
茶改東部分場,22.907694,121.130139,-0.2,25.08,-1.15,83.27,1.62,-3.55,82S580
農工中心,24.985917,121.239833,0.41,25.15,1.12,76.23,11.57,4.5,A2C560
水試臺西試驗場,23.717231,120.190522,-0.27,26.79,1.72,83.63,1.87,-3.41,A2K360
臺大雲林校區,23.730628,120.423903,-0.45,26.34,-2.0,80.07,2.43,-10.36,A2K630
臺南蘭花園區,23.340258,120.379661,0.14,27.01,-2.11,80.5,2.07,-7.55,A2N290
畜試北區分所,24.527806,120.770972,13.95,39.0,-18.16,66.75,8.14,0.38,B2E890
畜產試驗所,23.058972,120.336406,0.37,27.17,-1.65,79.9,1.82,-4.17,B2N890
畜試南區分所,21.945583,120.802167,0.41,27.56,-5.18,73.87,1.07,-3.56,B2Q810
畜試東區分所,24.669039,121.832561,-0.29,24.58,2.08,90.6,7.02,1.39,B2U990
蓮華池,23.918333,120.885278,-1.13,22.64,3.71,87.1,10.1,-1.73,E2H360
林試畢祿溪站,24.226944,121.308522,-0.65,14.0,1.49,85.67,10.37,2.21,E2HA20
四湖植物園,23.676986,120.163433,0.71,26.61,5.65,91.57,2.77,-4.65,E2K600
林試六龜中心,22.991703,120.645722,0.32,26.03,0.87,82.0,4.93,-14.34,E2P980
林試太麻里2,22.598,120.99775,-0.24,26.63,-4.3,77.87,1.07,-2.72,E2S960
林試太麻里1,22.598922,120.980044,0.04,26.27,-2.47,80.4,1.63,-2.42,E2S980
農試所(霧峰),24.031261,120.688133,0.32,26.54,1.83,84.8,8.45,1.13,G2F820
農試嘉義分所,23.485028,120.473806,0.33,26.45,-3.6,77.77,3.15,-3.72,G2L020
農試溪口農場,23.58565,120.408111,1.41,26.79,-5.1,79.47,2.33,-4.23,G2M350
農試鳳山分所,22.646611,120.356083,0.3,28.3,-1.43,72.93,2.23,-4.92,G2P820
苗栗農改場,24.495722,120.829111,-0.29,24.89,0.14,81.17,11.95,5.03,K2E360
苗改生物防治研究中心,24.422861,120.871833,-0.76,23.65,-1.67,82.7,10.93,1.27,K2E710
種苗改良場,24.225972,120.800917,0.14,24.09,6.41,87.13,10.02,-1.15,K2F750
溪頭,23.670306,120.798194,1.94,20.86,-3.4,88.3,1.45,-10.53,U2H480
臺大和社,23.590856,120.888864,1.0,22.42,-2.63,86.93,8.22,-6.43,U2HA30
臺大內茅埔,23.689722,120.851117,0.45,23.68,-4.43,83.47,7.53,-7.72,U2HA40
臺大竹山,23.756972,120.681556,-0.03,26.03,-3.27,78.4,4.47,-5.34,U2HA50
