站名,緯度,經度,平均溫距平,本年度平均溫,平均溼度距平,本年度日均相對溼度,本年度日均降水量,日均降水量距平,站號
淡水,25.164889,121.448906,0.29,29.27,-3.65,71.9,9.36,4.57,466900
鞍部,25.182586,121.529731,-0.66,22.74,2.27,89.0,14.61,3.8,466910
臺北,25.037658,121.514853,-0.42,29.61,-0.37,70.8,3.66,-4.68,466920
竹子湖,25.162078,121.544547,-0.3,24.72,-0.95,82.3,11.95,1.96,466930
基隆,25.133314,121.740475,-0.21,29.27,-0.68,72.3,3.36,-1.86,466940
花蓮,23.975128,121.613275,-0.98,27.82,3.4,80.6,4.16,-2.23,466990
新屋,25.006725,121.047492,-0.79,28.64,-0.23,78.3,20.91,19.9,467050
宜蘭,24.763975,121.756528,-0.85,28.21,4.74,81.8,3.26,-2.85,467080
金門,24.407306,118.289281,1.35,29.79,-7.57,77.7,8.82,6.62,467110
田中,23.873803,120.581286,-2.62,27.66,9.32,84.4,57.35,56.6,467270
澎湖,23.565503,119.563094,-0.18,28.77,3.63,86.9,9.4,4.75,467350
臺南,22.99328,120.20492,-1.19,28.49,6.19,81.8,28.95,19.08,467410
永康,23.038386,120.2367,-1.04,28.28,9.59,82.9,38.6,28.93,467420
嘉義,23.495925,120.432906,-1.57,27.62,9.52,85.5,41.7,30.06,467480
臺中,24.145736,120.684075,-1.1,27.93,7.42,81.9,39.35,30.05,467490
阿里山,23.508208,120.813242,-1.1,13.91,5.8,95.7,50.45,31.41,467530
大武,22.35572,120.90374,-1.46,27.49,5.93,82.4,102.0,89.18,467540
玉山,23.48718,120.95943,-1.6,6.62,-1.42,74.7,29.61,16.04,467550
新竹,24.827853,121.014219,-0.72,28.8,2.7,76.3,24.63,21.04,467571
恆春,22.003897,120.746339,-0.62,28.37,4.29,84.2,42.77,29.12,467590
成功,23.097486,121.373428,-1.1,27.25,3.38,83.3,25.26,17.46,467610
日月潭,23.881325,120.90805,-0.72,22.28,6.94,91.5,41.75,28.3,467650
臺東,22.752211,121.154586,-1.49,27.83,5.66,81.4,30.61,23.27,467660
馬祖,26.169467,119.923158,-0.16,27.26,8.32,93.2,16.99,14.49,467990
山佳,24.974944,121.402008,0.46,29.83,-0.55,74.2,5.15,-3.25,C0A520
坪林,24.938183,121.70975,0.53,26.97,-2.01,86.0,3.5,-7.85,C0A530
泰平,24.971197,121.823711,-0.21,25.2,1.51,92.6,5.45,-4.8,C0A550
桶後,24.848222,121.597992,-0.04,25.79,-4.74,83.5,2.95,-9.07,C0A570
石碇,24.993969,121.662917,-0.07,26.79,-6.68,80.5,3.1,-5.54,C0A640
大坪,25.165914,121.632969,-0.14,26.55,-1.69,82.5,3.05,-4.13,C0A860
五指山,25.132153,121.608692,0.85,25.26,-2.35,88.1,4.95,-3.11,C0A870
雙溪,25.036003,121.864242,0.63,28.8,0.39,83.5,6.35,-0.62,C0A890
三和,25.233153,121.595236,-0.26,27.43,-1.42,84.1,6.2,-2.13,C0A931
金山,25.223628,121.643967,-0.09,28.71,-5.66,73.0,3.65,-1.89,C0A940
鼻頭角,25.129036,121.923372,0.34,28.68,-0.61,84.3,6.9,3.34,C0A950
三貂角,25.007606,122.002058,0.12,28.19,2.41,85.3,7.15,4.07,C0A970
社子,25.109508,121.469681,0.3,30.39,-1.7,71.6,6.8,0.83,C0A980
天母,25.117494,121.537169,-0.46,29.26,-3.17,68.5,6.65,-1.25,C0A9C0
內湖,25.079422,121.57545,0.21,30.32,-0.08,71.3,4.75,-4.64,C0A9F0
大屯山,25.175675,121.522408,0.83,22.9,2.31,96.8,9.11,2.13,C0AC40
三峽,24.939025,121.369728,0.83,30.32,-0.82,74.8,6.0,-1.27,C0AC60
信義,25.037822,121.564597,-0.12,29.78,-1.39,71.5,3.25,-4.71,C0AC70
文山,25.00235,121.575728,-0.62,28.51,-5.66,74.1,2.8,-5.04,C0AC80
新莊,25.051478,121.446756,-0.62,29.91,-1.95,66.5,5.15,-1.31,C0ACA0
八里,25.150211,121.403947,0.75,30.64,4.15,76.2,8.2,5.24,C0AD10
蘆洲,25.086594,121.472331,-0.46,30.33,2.76,72.0,5.4,-0.3,C0AD30
土城,24.973208,121.445169,-0.75,28.41,-0.4,76.5,4.1,-4.4,C0AD40
鶯歌,24.951533,121.346294,0.19,29.72,-0.86,75.8,7.05,-1.15,C0AD50
汐止,25.066881,121.658778,-0.21,29.34,-6.55,70.8,3.05,-6.15,C0AH00
永和,25.01125,121.508111,0.23,30.16,1.99,71.8,3.05,-6.66,C0AH10
五分山,25.07125,121.780794,0.9,24.63,-2.5,90.5,4.1,-5.59,C0AH30
平等,25.129142,121.577086,-0.72,26.51,-3.35,76.0,8.9,-2.14,C0AH40
林口,25.072181,121.38084,0.45,28.79,-0.33,79.3,8.35,0.57,C0AH50
松山,25.04871,121.55042,-0.52,29.64,7.64,72.2,3.45,-6.83,C0AH70
深坑,25.002703,121.628328,0.43,28.51,-3.26,78.6,2.6,-8.18,C0AH80
福山植物園,24.760717,121.58135,-0.66,23.27,2.53,93.2,4.45,-7.91,C0AH90
五股,25.07445,121.42728,0.75,29.27,-0.18,77.1,6.0,-3.29,C0AI00
屈尺,24.92184,121.54475,1.07,29.46,-2.33,79.5,2.85,-12.51,C0AI10
白沙灣,25.283128,121.519058,-0.27,28.54,5.17,80.0,7.5,5.15,C0AI20
三重,25.057328,121.500629,-0.2,30.56,-3.05,72.7,3.9,-2.35,C0AI30
石牌,25.115597,121.513139,-0.47,30.44,4.83,71.0,6.0,-1.71,C0AI40
七堵,25.094819,121.71713,0.67,29.76,-3.27,75.9,2.85,-6.41,C0B010
基隆嶼,25.19141,121.78391,-0.59,27.94,4.33,92.5,3.2,-0.8,C0B020
復興,24.820208,121.352281,-0.02,25.5,-3.01,80.2,6.6,-3.76,C0C460
桃園,24.992425,121.323172,-0.46,29.42,1.61,69.1,7.6,2.05,C0C480
八德,24.928708,121.283289,-0.64,28.48,-2.38,71.2,10.05,3.87,C0C490
觀音,25.027072,121.153317,-0.63,28.14,1.86,77.9,13.8,12.33,C0C590
蘆竹,25.084275,121.265767,0.08,29.53,-2.54,73.2,12.15,9.91,C0C620
大溪,24.882853,121.265547,-0.45,27.42,1.75,75.4,9.2,3.45,C0C630
平鎮,24.897503,121.214636,-0.29,27.7,1.89,77.0,9.11,4.08,C0C650
楊梅,24.912375,121.143047,-0.97,28.05,3.18,74.5,16.15,10.97,C0C660
龍潭,24.870056,121.221389,-0.78,27.28,1.72,75.9,13.1,2.8,C0C670
龜山,25.02846,121.38656,-0.43,27.76,-10.77,63.6,6.8,-2.76,C0C680
中壢,24.977661,121.256375,-0.78,28.62,1.44,70.3,9.15,1.53,C0C700
大溪永福,24.892936,121.324975,-0.03,27.94,-1.64,78.4,7.95,-1.95,C0C710
梅花,24.678347,121.208558,-0.76,24.4,3.6,89.1,12.65,-1.43,C0D360
峨眉,24.6905,121.017189,-1.15,26.96,7.67,90.8,22.45,17.27,C0D430
打鐵坑,24.849664,121.150789,-0.82,26.1,-2.0,80.9,15.9,10.13,C0D480
橫山,24.71116,121.11693,-0.78,26.19,5.91,89.4,13.5,5.79,C0D540
雪霸,24.526972,121.11605,-1.11,17.57,7.04,89.6,7.71,-1.1,C0D550
竹東,24.767147,121.057881,0.12,28.4,5.03,76.4,20.95,17.68,C0D560
寶山,24.735006,121.025192,-0.72,26.61,5.57,87.4,21.2,17.45,C0D580
新豐,24.87068,120.97721,-0.7,27.56,4.95,83.5,28.8,27.62,C0D590
湖口,24.904794,121.043628,-0.84,28.44,-0.23,74.4,20.45,19.36,C0D650
新竹市東區,24.798681,120.986942,-1.08,28.06,4.43,76.4,24.85,21.57,C0D660
竹南,24.708978,120.888897,-0.71,28.41,10.09,83.8,33.85,30.43,C0E420
南庄,24.601775,121.000214,-0.84,25.93,7.1,88.0,26.1,16.16,C0E430
明德,24.583486,120.885411,-0.55,28.23,5.12,81.4,28.3,24.78,C0E550
通霄,24.471892,120.704622,-1.11,27.84,6.18,85.4,40.15,37.82,C0E590
馬都安,24.451272,120.930192,-0.53,23.23,2.36,88.4,21.65,10.62,C0E610
頭份,24.688247,120.912206,-1.25,28.56,9.98,78.9,32.0,29.78,C0E730
造橋,24.637056,120.864778,-1.39,28.07,6.47,83.4,30.25,28.3,C0E740
苗栗,24.564569,120.824575,-1.62,28.19,4.94,75.0,30.05,27.38,C0E750
銅鑼,24.489681,120.790853,-1.08,27.64,3.23,80.4,26.45,22.52,C0E780
西湖,24.562947,120.7485,-0.98,27.57,4.76,87.7,42.2,40.58,C0E810
獅潭,24.539133,120.920042,-1.39,26.51,4.01,85.89,29.11,24.74,C0E820
苑裡,24.439714,120.653053,-1.29,28.22,4.95,80.7,43.2,40.18,C0E830
大河,24.618069,120.948578,-2.75,25.74,-1.4,74.9,27.5,22.2,C0E850
高鐵苗栗,24.60725,120.826094,-1.74,28.09,19.01,86.9,34.15,32.33,C0E870
石岡,24.276061,120.777644,-0.21,26.96,2.81,83.6,33.65,22.84,C0F0B0
中坑,24.248517,120.903319,-0.25,22.19,-0.33,91.4,33.95,14.33,C0F0C0
審馬陣,24.381675,121.4203,0.84,11.92,-10.77,76.4,8.9,3.96,C0F0D0
東勢,24.246428,120.833047,0.42,27.4,0.92,79.7,30.35,20.66,C0F850
大坑,24.173142,120.722289,-0.06,28.81,7.51,80.9,35.3,28.84,C0F970
神岡,24.272481,120.658314,-1.17,27.13,2.73,82.7,36.5,31.79,C0F9I0
大安,24.345061,120.588025,-1.46,27.85,5.54,84.2,33.05,30.11,C0F9K0
后里,24.310436,120.729725,-0.58,27.87,4.87,82.9,34.45,29.67,C0F9L0
豐原,24.254322,120.720692,0.98,29.39,3.47,78.5,38.85,33.24,C0F9M0
大里,24.092464,120.701378,-0.1,29.56,8.26,80.2,36.95,31.09,C0F9N0
潭子,24.213106,120.703933,-1.32,28.06,7.89,81.5,31.7,26.5,C0F9O0
清水,24.312297,120.562242,-1.48,28.25,4.83,83.0,30.35,27.39,C0F9P0
外埔,24.347817,120.705686,-1.21,27.53,4.42,83.5,27.4,23.78,C0F9Q0
龍井,24.184536,120.528972,-1.24,28.37,-0.19,81.4,38.75,35.32,C0F9R0
烏日,24.107058,120.624103,-1.27,28.12,5.59,79.4,37.95,32.97,C0F9S0
西屯,24.179494,120.641275,-1.36,28.04,5.81,79.3,37.4,32.39,C0F9T0
南屯,24.137006,120.637969,-1.53,28.18,6.6,79.8,35.6,30.07,C0F9U0
新社,24.200172,120.815806,-0.49,25.47,6.89,91.7,37.1,26.68,C0F9V0
大雅(中科園區),24.21528,120.62445,-0.95,27.15,6.23,84.5,32.45,26.81,C0F9X0
桃山,24.432739,121.303808,0.04,10.7,-4.88,80.5,9.95,1.06,C0F9Y0
雪山東峰,24.388792,121.268675,0.32,11.78,-6.57,76.9,13.8,4.49,C0F9Z0
芬園,24.015678,120.6213,-1.87,26.43,11.48,92.8,47.25,39.87,C0G620
員林,23.946503,120.585597,-3.43,25.95,3.35,81.8,40.45,32.99,C0G650
溪湖,23.94835,120.479122,-0.63,28.43,2.19,84.3,60.9,54.38,C0G660
溪州,23.851589,120.499093,-0.67,27.7,0.69,81.6,58.35,47.39,C0G720
二林,23.903325,120.376081,-0.76,27.81,3.78,90.6,42.95,34.23,C0G730
大城,23.852487,120.320935,-0.86,27.6,5.23,87.2,8.92,-1.25,C0G740
福興,24.041289,120.437669,-1.48,28.55,0.91,82.1,55.75,49.74,C0G770
秀水,24.03405,120.503869,-0.93,28.71,5.32,84.7,52.6,46.98,C0G780
埔鹽,24.000394,120.431683,-0.68,28.55,-0.05,82.1,56.1,50.02,C0G800
埔心,23.947633,120.525456,-0.04,29.63,7.18,83.1,51.65,45.1,C0G810
田尾,23.901669,120.509389,-0.89,28.34,6.76,89.1,56.65,49.52,C0G820
埤頭,23.866003,120.452806,-1.26,28.11,7.22,92.6,48.05,41.78,C0G830
社頭,23.897647,120.5862,-1.08,28.72,13.41,85.1,56.55,48.44,C0G860
二水,23.810742,120.6173,-0.2,28.71,5.2,84.1,63.7,54.48,C0G880
伸港,24.148933,120.484403,-1.53,28.03,4.6,84.0,28.5,24.79,C0G890
線西,24.143358,120.443536,-2.18,28.2,6.23,83.9,32.05,28.92,C0G900
花壇,24.032076,120.549461,-4.09,26.2,20.45,90.7,40.25,39.17,C0G910
埔里,23.972169,120.952425,-0.22,25.65,0.87,86.1,21.35,12.28,C0H890
草屯,23.973672,120.68085,-1.14,27.55,5.45,81.7,27.8,18.96,C0H960
昆陽,24.121322,121.273642,-0.22,11.58,-4.67,84.2,15.65,7.4,C0H990
神木村,23.532742,120.843667,-0.74,18.91,0.77,93.2,39.05,23.5,C0H9A0
合歡山,24.143442,121.272547,-0.07,10.36,8.92,90.0,23.4,14.96,C0H9C0
廬山,24.033311,121.181808,-0.53,19.82,-3.08,83.3,18.05,8.41,C0I010
信義,23.689694,120.851036,-0.6,24.25,0.6,88.8,27.6,18.77,C0I080
竹山,23.761225,120.688156,-1.19,26.53,3.1,86.7,59.8,43.72,C0I110
水里,23.812553,120.849792,-0.48,26.11,-0.52,81.4,45.95,36.43,C0I360
魚池,23.895703,120.94135,-0.21,24.21,-1.57,85.4,35.15,24.76,C0I370
集集,23.828206,120.801467,-0.77,26.33,0.08,84.0,53.9,36.07,C0I380
仁愛,24.022122,121.132206,-0.29,21.25,-0.88,86.3,20.9,12.54,C0I390
名間,23.837053,120.701447,-1.28,26.24,7.45,87.0,45.3,34.7,C0I410
國姓,24.037803,120.855072,-0.42,26.08,0.57,86.6,30.1,18.7,C0I420
南投,23.911469,120.687331,-0.97,27.63,10.13,86.8,40.8,28.0,C0I460
梅峰,24.085272,121.173572,0.36,16.42,-5.02,85.8,20.25,6.22,C0I480
萬大林道,23.928228,121.091411,-0.1,19.26,-6.47,84.8,20.75,9.84,C0I490
小奇萊,24.131764,121.295717,0.93,11.52,-6.66,85.4,20.6,7.34,C0I530
崙背,23.75555,120.318925,-0.84,27.52,1.43,85.8,30.65,20.93,C0K250
四湖,23.630414,120.227125,-0.82,28.04,2.0,86.6,27.5,22.05,C0K280
宜梧,23.536281,120.169329,-1.02,28.07,2.67,85.2,37.75,31.43,C0K291
虎尾,23.719183,120.442036,-1.4,27.89,9.49,88.7,51.35,42.53,C0K330
土庫,23.679029,120.395574,-0.83,27.73,2.11,82.8,32.75,23.51,C0K390
斗六,23.720583,120.541127,-0.99,27.45,2.44,83.0,52.6,41.71,C0K400
北港,23.573957,120.292802,-0.68,27.85,0.86,83.5,29.8,22.3,C0K410
西螺,23.800407,120.467394,-0.69,27.92,1.31,83.4,61.35,51.59,C0K420
褒忠,23.690938,120.303634,-0.62,27.78,4.56,86.8,27.35,18.99,C0K430
二崙,23.772797,120.408944,-1.06,27.58,3.74,85.22,39.55,29.57,C0K440
大埤,23.646074,120.431537,-0.76,27.8,2.31,82.6,38.9,28.04,C0K450
斗南,23.678734,120.478359,-0.91,27.65,6.74,84.1,43.2,33.81,C0K460
林內,23.748675,120.609642,-1.07,26.73,4.33,86.1,54.6,40.99,C0K470
莿桐,23.761192,120.502372,-0.91,27.5,5.08,83.8,61.65,48.66,C0K480
元長,23.64981,120.315024,-0.66,28.02,4.56,84.5,29.65,19.72,C0K500
水林,23.572924,120.24597,-0.51,28.2,5.47,85.9,35.95,26.35,C0K510
臺西,23.701547,120.197559,-0.68,27.79,3.93,86.7,24.7,15.37,C0K530
蔦松,23.514319,120.229736,-0.62,28.0,3.05,86.1,23.92,13.22,C0K550
棋山,23.68645,120.603417,-0.92,26.95,8.57,89.6,56.4,39.76,C0K560
高鐵雲林,23.737456,120.417944,-1.41,27.36,2.74,86.8,40.95,28.49,C0K580
東後寮,23.369908,120.248065,-0.63,27.52,4.24,89.2,47.35,34.7,C0M520
奮起湖,23.493903,120.699253,-0.75,19.58,3.82,97.1,67.3,49.39,C0M530
中埔,23.42538,120.5229,-1.18,26.85,3.64,81.3,52.35,36.94,C0M640
朴子,23.43463,120.23902,-1.34,27.1,5.81,88.7,39.1,27.64,C0M650
溪口,23.604131,120.403569,-0.74,27.64,1.24,83.5,36.25,25.88,C0M660
大林,23.600616,120.45841,-0.97,27.7,6.74,85.3,46.3,34.35,C0M670
太保,23.455062,120.331455,-1.1,27.57,1.91,84.3,48.8,35.41,C0M680
水上,23.419734,120.388909,-0.97,27.33,4.57,86.1,47.5,32.44,C0M690
竹崎,23.526178,120.555508,-1.26,26.25,6.37,88.3,57.3,41.46,C0M700
東石,23.458927,120.15385,-0.72,28.07,0.23,83.9,32.05,20.48,C0M710
番路,23.464657,120.554156,-1.08,26.29,6.5,84.7,57.75,41.94,C0M720
嘉義市東區,23.457673,120.460531,-1.09,27.39,7.24,87.0,43.9,28.42,C0M730
六腳,23.492871,120.290625,-0.94,27.61,4.39,85.5,41.0,29.96,C0M740
布袋,23.380878,120.167789,-0.55,28.2,0.63,83.6,32.5,20.21,C0M750
民雄,23.551754,120.428457,-1.22,27.62,5.2,85.4,31.95,19.86,C0M760
嘉義梅山,23.585398,120.555587,-1.15,26.81,8.01,87.3,66.3,50.5,C0M770
鹿草,23.41134,120.30835,-0.82,27.81,7.21,87.8,28.06,12.07,C0M780
新港,23.553269,120.345728,-1.17,27.53,3.61,83.7,36.65,27.06,C0M790
茶山,23.299075,120.664767,-0.72,24.23,2.23,91.1,68.25,50.48,C0M800
里佳,23.389125,120.716647,-0.27,20.04,0.58,90.9,57.6,38.99,C0M810
達邦,23.453994,120.749517,-0.39,21.63,3.88,91.3,48.35,35.1,C0M820
表湖,23.24186,120.64166,-1.4,22.52,1.79,91.6,66.6,45.34,C0M850
新美,23.338017,120.683169,-1.54,23.74,11.63,93.3,70.0,63.29,C0M860
北寮,23.079561,120.495008,-1.17,26.46,10.03,94.1,54.9,35.69,C0O830
王爺宮,23.222064,120.40085,0.68,28.4,-2.31,83.44,44.4,27.89,C0O840
大內,23.11885,120.36083,-0.19,28.68,4.69,88.0,41.15,27.13,C0O860
善化,23.112883,120.297219,-0.72,28.17,10.61,94.3,43.55,33.69,C0O900
崎頂,22.959547,120.369317,0.63,28.22,1.24,87.1,38.45,21.31,C0O960
虎頭埤,23.021375,120.347878,-1.29,26.87,0.05,85.8,44.8,28.28,C0O970
新市,23.061614,120.298197,-0.31,28.42,0.84,85.2,41.85,25.83,C0O980
媽廟,22.99175,120.293525,-0.67,28.08,5.04,88.5,39.05,23.0,C0O990
尾寮山,22.833111,120.683889,-0.18,22.11,2.42,95.5,98.65,74.94,C0R100
阿禮,22.742908,120.743678,-0.95,21.65,-4.21,85.3,102.65,83.03,C0R130
瑪家,22.682903,120.686639,-1.24,22.96,9.36,97.5,104.45,73.05,C0R140
三地門,22.709889,120.639944,-0.99,27.43,1.98,82.8,74.4,55.13,C0R150
鹽埔,22.739558,120.530778,-0.58,27.73,2.04,89.6,61.3,37.4,C0R160
赤山,22.592333,120.614306,-0.87,27.63,9.19,93.9,61.0,32.95,C0R190
潮州,22.534361,120.54,-0.71,28.18,3.66,83.9,46.5,32.67,C0R220
來義,22.527306,120.625111,-1.61,26.35,11.7,95.6,62.95,34.74,C0R240
春日,22.370361,120.628306,-1.97,26.25,5.79,89.5,36.6,13.99,C0R260
琉球嶼,22.332244,120.362236,0.31,28.97,-2.0,84.3,19.4,11.15,C0R270
車城,22.0744,120.716247,-1.88,27.7,3.65,86.9,31.8,25.47,C0R320
牡丹,22.130036,120.792639,-1.74,25.74,6.03,92.7,56.15,53.07,C0R341
貓鼻頭,21.921774,120.7358,-0.56,28.04,3.53,86.7,36.35,25.53,C0R350
大漢山,22.405264,120.753181,-0.94,17.53,3.02,99.6,147.5,143.92,C0R440
高樹,22.826389,120.600806,-1.32,27.28,1.78,81.2,68.15,44.69,C0R470
長治,22.693128,120.542622,-0.24,28.42,2.86,85.5,68.6,44.12,C0R480
九如,22.7405,120.490503,-0.6,28.17,1.75,84.9,32.1,9.27,C0R490
崁頂,22.514781,120.506914,-0.8,28.26,3.27,86.4,3.6,-16.03,C0R520
佳冬,22.419456,120.552375,-0.67,28.4,1.55,82.8,24.8,6.87,C0R540
新埤,22.467947,120.582894,-0.71,27.94,-2.52,81.9,36.4,16.67,C0R550
新園,22.5434,120.461558,0.15,29.16,-1.55,80.4,42.8,21.67,C0R560
麟洛,22.65078,120.52719,0.04,28.92,4.17,86.8,62.7,37.58,C0R570
南州,22.48591,120.50274,-0.53,28.23,8.69,87.9,33.3,14.9,C0R580
里港,22.77919,120.49459,-0.86,27.62,3.67,87.8,52.8,31.85,C0R590
舊泰武,22.588194,120.664944,-1.0,23.46,4.45,91.1,88.4,52.17,C0R600
墾雷,21.900836,120.855269,-1.13,27.58,10.1,95.3,44.15,29.94,C0R620
東港,22.46247,120.44074,-0.51,28.52,-1.33,84.5,29.25,18.5,C0R640
竹田,22.58486,120.54344,-0.53,28.27,-0.28,85.6,48.65,22.55,C0R650
枋寮,22.367722,120.590647,-0.66,28.57,5.72,85.8,27.35,22.22,C0R660
楓港,22.190131,120.692156,-1.66,27.92,-0.42,80.0,35.7,28.99,C0R670
佳樂水,21.993578,120.861633,-1.78,27.93,7.48,88.4,46.05,44.51,C0R680
墾丁,21.966756,120.810269,-1.52,26.11,5.97,94.3,48.4,44.32,C0R690
枋山,22.246844,120.661086,0.79,29.78,-0.25,81.5,0.12,-6.58,C0R700
龍磐,21.931672,120.838942,-2.36,26.98,8.78,92.2,40.5,38.96,C0R710
旭海,22.205403,120.887614,-2.98,25.58,10.7,90.2,101.65,101.28,C0R720
大坪頂,22.024633,120.69355,-2.07,26.67,9.57,93.9,33.0,29.62,C0R730
四林格山,22.076989,120.802439,-1.47,23.7,0.88,98.3,52.8,46.18,C0R750
南仁湖,22.084681,120.863353,-2.13,24.98,11.12,98.7,71.6,68.77,C0R760
保力,22.071122,120.764111,-0.98,26.92,3.82,91.4,42.75,34.08,C0R770
滿州,22.024403,120.839892,-1.83,27.19,5.72,87.8,50.95,49.08,C0R780
九棚,22.14195,120.889281,-3.22,26.26,11.82,88.9,87.7,85.16,C0R790
丹路,22.204481,120.750989,-1.69,26.83,2.33,86.0,63.05,58.13,C0R800
內獅,22.305064,120.642986,-1.23,28.07,5.83,85.0,30.9,25.94,C0R810
白鷺,22.454275,120.666219,-1.25,24.02,1.83,91.5,57.5,53.29,C0R820
高士,22.121825,120.836781,-2.6,24.25,9.28,95.7,82.55,77.3,C0R830
牡丹池山,22.168389,120.841225,-2.22,23.66,9.5,98.5,88.3,86.42,C0R840
下馬,23.150427,121.070312,-1.59,23.34,4.96,82.5,24.9,22.61,C0S660
太麻里,22.60902,120.98533,-0.62,24.91,8.85,85.6,42.55,36.07,C0S690
知本,22.684866,121.005642,-1.0,24.77,8.54,88.5,37.35,27.41,C0S700
鹿野,22.917711,121.122994,-0.73,25.37,6.05,86.3,29.4,22.15,C0S710
綠島,22.6672,121.47533,-0.7,27.33,1.66,86.2,41.45,34.92,C0S730
池上,23.119628,121.209469,-1.54,25.83,7.7,85.7,23.85,15.96,C0S740
向陽,23.248397,120.986133,-1.21,14.76,14.02,92.6,32.35,18.48,C0S750
大溪山,22.478475,120.943325,-1.08,24.85,11.2,85.7,68.85,57.31,C0S770
金崙,22.538122,120.966875,-1.55,26.45,9.76,84.8,53.2,46.66,C0S790
東河,22.972672,121.303986,-1.98,27.19,4.29,86.5,31.15,25.49,C0S810
長濱,23.286817,121.411975,-1.11,26.76,1.64,82.1,17.25,12.17,C0S830
南田,22.279725,120.889208,-1.58,27.06,6.55,85.8,110.3,98.72,C0S840
關山,23.0395,121.175017,-1.59,26.2,10.31,88.6,24.25,15.38,C0S890
蘭嶼高中,22.04909,121.51214,-1.38,28.27,7.48,87.9,39.35,33.33,C0S900
蘭嶼燈塔,22.081197,121.503117,-1.13,26.72,7.37,92.7,37.55,31.72,C0S910
金峰嘉蘭,22.594789,120.960825,-3.52,26.0,9.03,79.3,49.75,46.83,C0S920
延平,22.902581,121.084058,-2.32,25.91,8.69,84.3,31.5,29.17,C0S930
石寧山,23.223772,121.406639,-1.57,27.41,4.98,85.3,17.35,16.85,C0S940
七塊厝,22.954453,121.229922,-1.78,25.26,-1.48,82.2,33.9,27.42,C0S950
香蘭,22.587569,120.993375,-2.2,27.66,4.15,76.9,45.2,45.2,C0S960
加津林,22.416211,120.926942,-2.29,27.42,13.42,83.6,78.4,72.59,C0S970
勝林山,22.430439,120.8938,-3.66,21.31,17.14,96.5,87.9,82.3,C0S980
山豬窟,22.318619,120.857372,-2.93,24.43,13.46,90.6,135.65,125.57,C0S990
歷坵,22.520969,120.89185,-2.88,24.37,14.12,89.3,80.85,76.2,C0SA00
檳榔四格山,22.810031,121.109308,-1.8,25.25,5.56,87.3,29.85,27.39,C0SA10
金崙山,22.567419,120.959667,-3.04,22.47,13.04,87.9,54.25,50.69,C0SA20
都歷,23.020333,121.323642,-1.11,27.57,-1.3,77.2,28.35,26.22,C0SA30
瑞和,22.974361,121.156697,-2.62,26.07,7.3,84.8,27.85,25.75,C0SA40
知本（水試所）,22.702394,121.082761,-2.53,27.33,9.0,86.0,33.5,33.5,C0SA60
土坂,22.453108,120.887572,-3.07,26.31,19.85,88.1,93.55,93.55,C0SA80
達仁林場,22.264347,120.823972,-2.69,23.98,14.98,95.4,114.45,113.12,C0SA90
大禹嶺,24.186117,121.316086,-1.43,12.63,4.77,88.3,12.15,5.34,C0T790
天祥,24.179597,121.495639,-0.33,24.59,3.37,82.9,5.1,-3.44,C0T820
鯉魚潭,23.935639,121.508944,-1.48,25.51,4.29,89.5,5.85,-0.95,C0T870
西林,23.8119,121.441458,-1.26,26.63,9.47,84.3,7.15,1.89,C0T900
光復,23.660694,121.424964,-1.32,26.68,2.18,85.1,6.85,0.28,C0T960
月眉山,23.809928,121.539828,-0.51,24.9,-0.38,88.5,6.1,0.47,C0T9A0
水源,23.991861,121.537169,-0.29,24.75,-1.78,85.1,6.65,-1.02,C0T9B0
和中,24.26676,121.74103,-1.92,26.58,-2.99,85.2,3.7,-2.17,C0T9D0
大坑,23.880628,121.581981,-1.11,25.06,4.23,88.0,5.8,2.63,C0T9E0
水璉,23.797131,121.542514,-1.46,26.21,5.27,87.0,6.25,1.95,C0T9F0
鳳林山,23.735269,121.420131,-1.81,24.41,0.09,89.4,8.3,2.37,C0T9G0
加路蘭山,23.682947,121.5274,-0.62,24.47,-1.15,84.0,6.9,3.39,C0T9H0
豐濱,23.583897,121.514806,-0.61,26.56,1.65,84.5,8.15,3.82,C0T9I0
靜浦,23.455167,121.495028,-0.87,26.99,3.72,87.3,14.2,9.3,C0T9M0
富里,23.171639,121.249378,-2.45,25.8,1.75,80.8,19.9,15.82,C0T9N0
雙連埤,24.753033,121.641303,-1.54,23.65,-0.17,92.0,4.6,-2.99,C0U520
礁溪,24.817539,121.765608,-0.28,28.39,-3.24,79.9,3.45,-4.09,C0U600
玉蘭,24.675286,121.587061,-0.7,25.72,0.89,80.2,2.95,-5.06,C0U650
太平山,24.505486,121.525656,-0.22,17.74,-5.77,86.9,4.15,-10.89,C0U710
南山,24.43742,121.38167,-0.93,22.05,-0.64,81.5,4.7,1.67,C0U720
龜山島,24.841667,121.953133,-0.97,25.31,-2.36,88.2,2.05,1.06,C0U750
東澳,24.52196,121.83318,-0.72,28.17,-4.17,81.0,4.55,-1.0,C0U760
南澳,24.44935,121.81022,-1.27,27.52,0.32,85.4,3.65,0.64,C0U770
五結,24.68637,121.79794,-1.03,28.51,0.06,78.0,2.9,-0.12,C0U780
頭城,24.85323,121.8308,-0.22,28.75,-3.12,84.3,3.45,-1.74,C0U860
大礁溪,24.791042,121.675047,-0.95,25.01,6.98,89.4,3.65,-5.91,C0U870
三星,24.66812,121.65302,-0.94,27.33,-5.22,78.7,2.5,-0.53,C0U890
內城,24.71813,121.68766,-0.35,27.98,0.08,81.3,2.65,-0.2,C0U900
冬山,24.63373,121.7937,-0.57,28.44,0.96,75.4,3.05,1.09,C0U910
羅東,24.68184,121.74934,-0.6,28.31,4.34,80.2,2.9,1.04,C0U940
鶯子嶺,24.89754,121.79244,-1.03,21.47,-0.24,91.9,8.57,-6.76,C0U950
翠峰湖,24.510856,121.608044,-0.18,17.43,-1.02,90.2,4.65,-4.52,C0U960
大福,24.80064,121.81389,-0.76,27.98,2.67,81.8,2.7,-1.3,C0U970
坪林石牌,24.86478,121.77396,-0.81,23.95,3.96,95.6,5.6,-8.02,C0U980
員山,24.74435,121.72247,-0.78,28.01,4.36,82.8,3.65,0.55,C0U990
土場,24.576533,121.495333,-0.74,25.93,-6.09,81.8,3.45,-1.86,C0UA00
鴛鴦湖,24.590269,121.412228,-0.32,18.45,2.94,93.4,6.3,-9.24,C0UA10
白嶺,24.527819,121.519031,-0.96,20.3,-0.61,90.5,4.2,0.08,C0UA30
西德山,24.560647,121.752608,0.09,22.48,-6.77,83.4,3.1,-4.76,C0UA40
西帽山,24.555361,121.802628,-0.68,23.54,-6.98,82.1,4.55,-2.38,C0UA50
樟樹山,24.41393,121.78325,-0.73,24.93,1.02,83.3,3.8,0.52,C0UA60
桃源谷,24.962606,121.888875,-1.06,24.36,2.77,95.6,5.4,-1.99,C0UA70
復興,23.222403,120.806089,-0.84,23.39,5.55,87.8,49.9,39.44,C0V210
溪埔,22.738578,120.446797,-1.12,27.34,10.78,92.1,56.75,36.17,C0V350
內門,22.975481,120.466769,-0.28,27.33,5.38,92.5,53.4,32.83,C0V360
古亭坑,22.893178,120.401947,-1.12,26.89,2.78,89.7,43.5,29.3,C0V370
阿公店,22.804194,120.355528,-0.99,27.48,5.84,88.4,33.85,16.55,C0V400
鳳山,22.646653,120.356122,-1.42,27.7,9.78,90.3,47.05,29.77,C0V440
鳳森,22.545064,120.392592,-0.86,27.76,1.45,86.0,44.15,28.47,C0V450
新興,22.627422,120.298803,-0.74,28.88,-0.08,80.1,46.35,37.11,C0V490
阿蓮,22.883208,120.327508,-0.75,28.26,1.66,85.5,45.67,26.99,C0V530
梓官,22.760558,120.267211,-0.95,28.42,4.73,83.3,31.75,18.94,C0V610
永安,22.82315,120.236856,-0.86,28.3,-0.87,83.3,26.5,12.11,C0V620
茄萣,22.906642,120.182608,-0.52,28.84,6.0,84.2,25.3,11.82,C0V630
湖內,22.887139,120.2445,-1.24,27.89,0.22,83.8,27.95,13.58,C0V640
彌陀,22.783806,120.246361,-0.65,28.45,-1.26,83.5,28.85,15.78,C0V650
岡山,22.797078,120.294958,-0.52,29.0,3.45,83.5,35.65,19.03,C0V660
仁武,22.701083,120.347722,-0.32,29.07,5.5,83.1,27.8,11.1,C0V680
鼓山,22.623325,120.275575,-0.9,28.62,3.8,82.8,36.7,25.53,C0V690
三民,22.645017,120.311233,-0.87,28.94,5.75,79.5,45.35,31.36,C0V700
苓雅,22.622742,120.330669,-0.23,29.27,7.77,83.7,47.4,32.94,C0V710
林園,22.507747,120.394511,-0.23,29.57,5.29,82.8,32.15,19.64,C0V720
大寮,22.605614,120.395717,-1.13,28.19,9.97,89.3,54.7,36.21,C0V730
旗山,22.888614,120.483597,-0.29,28.16,1.66,82.9,48.05,26.95,C0V740
路竹,22.854997,120.259439,-0.23,29.12,2.1,82.3,25.15,9.78,C0V750
橋頭,22.757806,120.30575,-0.57,29.01,0.79,79.9,37.75,21.98,C0V760
大社,22.730306,120.346639,-0.45,28.91,5.38,84.4,41.2,23.12,C0V770
萬山,22.905944,120.688056,-0.63,25.2,2.74,87.8,66.85,45.56,C0V790
六龜,22.997889,120.633583,-1.2,26.13,7.22,87.9,73.2,49.62,C0V800
左營,22.67491,120.28491,-0.95,28.24,2.33,82.6,39.5,23.23,C0V810
小林,23.148408,120.63325,-1.28,24.67,7.87,91.7,56.35,45.16,C0V820
東莒,25.9652,119.98069,0.46,27.78,-0.35,88.8,0.0,-5.33,C0W110
西嶼,23.5626,119.468436,0.66,27.72,-0.9,91.5,8.0,1.64,C0W120
花嶼,23.40007,119.32276,0.64,28.06,0.34,89.4,9.5,4.2,C0W130
金沙,24.488292,118.408778,1.55,29.72,-11.79,75.0,4.0,1.96,C0W140
金寧,24.457703,118.328989,0.69,29.61,-13.78,74.6,7.25,5.33,C0W150
東河,23.296598,120.385608,-1.12,27.18,0.31,83.4,56.95,39.76,C0X050
下營,23.22695,120.256261,-0.37,27.89,-0.23,84.1,25.44,10.96,C0X060
佳里,23.173039,120.145086,-2.32,26.87,6.61,91.8,35.06,27.86,C0X080
臺南市北區,23.010394,120.194228,-0.95,28.81,8.76,84.1,32.85,18.95,C0X100
臺南市南區,22.961189,120.188378,-0.72,28.81,3.02,84.4,26.55,13.14,C0X110
麻豆,23.183289,120.248611,-0.39,28.79,6.19,86.7,43.7,31.34,C0X120
官田,23.193217,120.315422,-1.21,27.86,12.49,93.3,45.15,31.14,C0X130
西港,23.125608,120.203108,-0.95,28.36,3.22,82.9,49.45,35.48,C0X140
安定,23.102614,120.227839,-0.59,28.58,6.06,87.1,39.25,26.35,C0X150
仁德,22.968258,120.257689,0.0,29.18,-0.53,79.83,34.6,18.01,C0X160
關廟,22.963017,120.327797,-1.12,28.11,9.93,87.5,37.8,21.23,C0X170
山上,23.0757,120.363253,-0.92,27.43,3.36,86.0,44.85,29.36,C0X180
安平,22.993161,120.152181,-0.81,28.73,-2.78,77.9,29.05,16.39,C0X190
左鎮,23.056758,120.408522,-0.01,27.87,0.2,86.0,53.25,35.88,C0X200
白河,23.347466,120.414427,-1.19,27.13,7.41,88.2,67.06,53.23,C0X210
學甲,23.230367,120.182187,-0.45,27.94,5.2,86.4,42.65,31.04,C0X220
鹽水,23.272621,120.247641,-0.8,27.45,4.4,88.7,45.45,32.14,C0X230
關子嶺,23.331169,120.508025,-0.9,25.28,7.91,91.7,68.25,45.77,C0X240
新營,23.310689,120.316681,-1.03,27.75,6.03,86.4,51.6,35.32,C0X250
後壁,23.366358,120.362326,-0.88,27.54,2.91,85.1,60.45,46.35,C0X260
將軍,23.214999,120.13577,0.21,28.77,-1.65,80.67,36.0,22.72,C0X280
北門,23.267772,120.125481,-0.64,28.11,5.23,87.9,37.95,23.73,C0X290
鹿寮,23.386047,120.477331,-1.08,26.59,3.73,88.4,60.15,44.49,C0X300
柳營,23.253328,120.375253,-1.97,27.59,12.62,86.62,42.45,40.37,C0X320
明里,23.208717,121.262342,-2.06,25.87,3.85,85.6,18.05,11.78,C0Z020
佳心,23.34567,121.21316,-1.07,22.64,6.36,88.3,19.1,11.7,C0Z050
玉里,23.3215,121.339656,-1.79,26.33,-3.28,80.5,14.75,8.93,C0Z061
舞鶴,23.46811,121.37407,-1.81,25.3,0.95,85.9,11.95,7.03,C0Z070
富源,23.587642,121.378225,-1.73,25.68,2.13,87.3,9.35,4.05,C0Z080
東華,23.89525,121.549833,-1.53,27.03,7.03,88.4,2.15,-3.4,C0Z100
吉安光華,23.930925,121.595153,-0.91,27.12,2.97,86.3,4.55,3.13,C0Z150
鳳林,23.746114,121.453411,-1.53,26.39,3.51,81.7,6.2,4.7,C0Z160
卓溪,23.3443,121.3029,-2.18,26.23,3.81,80.7,15.35,13.59,C0Z170
新城,24.040486,121.604878,-0.8,27.44,0.44,80.3,3.85,2.21,C0Z180
富世,24.14743,121.6297,-0.69,27.75,-3.72,80.5,6.6,3.71,C0Z190
萬榮,23.709219,121.420106,-1.23,26.36,1.18,82.1,7.5,4.66,C0Z200
瑞穗,23.5239,121.39021,-1.3,26.45,6.56,87.2,12.9,11.8,C0Z210
和平林道,24.343922,121.656317,-0.7,24.68,-5.29,82.1,3.85,-0.27,C0Z220
和平,24.30717,121.77007,-1.16,27.44,-1.64,75.8,2.85,-0.89,C0Z230
瑞穗林道,23.49284,121.30688,-1.09,21.56,0.45,90.7,14.3,11.65,C0Z250
蕃薯寮,23.73835,121.540108,-0.85,25.41,-2.09,85.6,6.25,4.82,C0Z270
德武,23.47426,121.41071,-1.41,26.05,4.77,86.8,12.15,10.68,C0Z280
赤柯山,23.36893,121.38293,-0.8,22.78,-2.4,83.6,15.9,12.87,C0Z290
東里,23.26853,121.30547,-1.73,26.33,1.08,84.0,17.65,14.96,C0Z300
清水斷崖,24.218294,121.689142,-1.0,26.98,-4.7,83.5,2.95,-5.42,C0Z310
清水林道,23.27125,121.188272,-1.62,23.44,1.59,83.7,18.05,13.44,C0Z320
安通山,23.290728,121.348528,-1.78,24.69,6.26,87.2,15.25,13.5,C0Z330
口湖工作站,23.589978,120.180394,-0.81,27.79,4.22,80.1,24.45,18.68,12J990
東港工作站,22.479997,120.466058,-0.38,28.41,-0.38,73.0,31.6,17.33,12Q970
恆春工作站,22.079678,120.714425,-0.89,28.17,2.87,80.7,26.75,13.37,12Q980
萬大發電廠,23.978875,121.139639,-0.43,21.94,-8.46,82.5,18.75,11.24,42HA10
桃改樹林分場,24.944503,121.386972,-1.12,28.29,-2.02,72.9,5.5,0.08,72AI40
桃園農改場,24.950944,121.030583,-0.36,28.38,1.01,79.6,22.9,20.19,72C440
桃改五峰分場,24.612194,121.157167,-0.08,22.45,1.16,87.8,13.55,0.07,72D080
臺中農改場,24.003028,120.534389,-1.14,27.89,9.81,89.78,51.8,44.39,72G600
中改埔里分場,23.903208,120.963364,-0.54,23.69,1.63,91.3,31.7,26.18,72HA00
南改斗南分場,23.634556,120.477333,-1.42,27.35,8.05,88.7,47.1,35.27,72K220
南改義竹分場,23.360694,120.279361,-1.54,27.45,0.45,84.5,36.19,27.73,72M360
南改鹿草分場,23.416869,120.283061,-1.14,27.68,7.46,87.5,40.3,31.99,72M700
臺南農改場,23.0605,120.342194,-1.69,27.26,10.34,91.3,41.2,32.5,72N100
七股研究中心,23.081672,120.062894,-0.32,28.63,1.72,84.8,26.5,8.73,72N240
高雄農改場,22.709333,120.525889,-1.52,27.43,7.07,87.3,64.7,48.9,72Q010
東改班鳩分場,22.829528,121.077694,-1.24,25.99,2.75,82.5,32.3,23.72,72S200
東改賓朗果園,22.813889,121.071278,-1.87,25.07,1.4,89.12,31.95,24.0,72S590
花蓮農改場,23.975222,121.563889,-0.93,27.3,1.05,80.4,5.05,-1.25,72T250
花改蘭陽分場,24.686306,121.716583,-0.67,27.94,-0.96,79.7,2.55,-3.13,72U480
高改旗南分場,22.857861,120.516667,-2.47,27.01,13.41,89.0,57.95,45.9,72V140
茶改北部分場,24.955778,121.631222,-0.43,25.81,-0.94,81.8,3.2,-6.81,82A750
茶改場,24.908472,121.185333,-0.66,27.49,-4.92,74.1,13.6,7.44,82C160
茶改中部分場,23.875611,120.913583,-2.8,21.23,6.11,93.71,59.71,46.77,82H320
茶改南部分場,23.762528,120.7405,-1.18,24.83,1.45,89.9,56.2,36.77,82H840
茶改東部分場,22.907694,121.130139,-2.12,25.92,5.62,86.0,30.15,21.59,82S580
農工中心,24.985917,121.239833,-0.57,28.67,1.68,71.9,9.9,5.62,A2C560
水試臺西試驗場,23.717231,120.190522,-1.33,28.04,5.57,91.4,23.25,14.41,A2K360
臺大雲林校區,23.730628,120.423903,-1.79,27.48,8.73,85.9,44.4,42.11,A2K630
臺南蘭花園區,23.340258,120.379661,-1.79,27.1,10.5,90.5,59.15,56.73,A2N290
畜試北區分所,24.527806,120.770972,-1.33,27.16,10.78,88.5,33.5,31.1,B2E890
畜產試驗所,23.058972,120.336406,-1.73,26.84,7.94,91.2,43.6,32.75,B2N890
畜試南區分所,21.945583,120.802167,-1.35,27.32,0.89,84.5,48.95,37.36,B2Q810
畜試東區分所,24.669039,121.832561,-0.39,28.19,3.53,86.2,3.4,2.28,B2U990
蓮華池,23.918333,120.885278,-2.45,23.5,10.53,90.4,39.2,21.65,E2H360
林試畢祿溪站,24.226944,121.308522,-0.06,16.43,-0.7,80.71,2.29,0.08,E2HA20
四湖植物園,23.676986,120.163433,-0.67,27.96,11.51,96.8,27.05,17.13,E2K600
林試六龜中心,22.991703,120.645722,-2.42,25.07,14.72,92.8,67.95,67.91,E2P980
林試太麻里2,22.598,120.99775,-3.0,26.9,11.93,84.1,39.65,39.65,E2S960
林試太麻里1,22.598922,120.980044,-2.91,26.54,11.37,83.7,44.75,44.75,E2S980
農試所(霧峰),24.031261,120.688133,-1.24,27.53,4.15,84.2,35.55,25.87,G2F820
農試嘉義分所,23.485028,120.473806,-2.01,26.38,12.23,88.4,42.75,33.98,G2L020
農試溪口農場,23.58565,120.408111,-1.84,27.7,5.36,85.6,39.45,34.95,G2M350
農試鳳山分所,22.646611,120.356083,-1.59,27.81,10.79,85.8,44.85,34.52,G2P820
苗栗農改場,24.495722,120.829111,-1.75,26.96,5.62,83.78,28.33,23.54,K2E360
苗改生物防治研究中心,24.422861,120.871833,-1.03,25.8,5.62,85.2,27.0,19.69,K2E710
種苗改良場,24.225972,120.800917,-0.85,25.48,3.03,84.1,36.45,24.11,K2F750
溪頭,23.670306,120.798194,-0.87,19.85,5.8,96.25,46.88,34.55,U2H480
臺大和社,23.590856,120.888864,-0.01,23.12,2.38,90.5,25.55,20.34,U2HA30
臺大內茅埔,23.689722,120.851117,-0.88,24.25,2.57,88.4,27.85,24.29,U2HA40
臺大竹山,23.756972,120.681556,-1.17,26.57,3.71,85.6,62.2,50.45,U2HA50
